Time,desired yaw,desired x,desired y,desired z,WorldPosition_1,WorldPosition_2,WorldPosition_3,WorldVelocity_1,WorldVelocity_2,WorldVelocity_3,EulerZYX_1,EulerZYX_2,EulerZYX_3,BodyAngularRateRPY_1,BodyAngularRateRPY_2,BodyAngularRateRPY_3,Thrust,Roll CS,Pitch CS,Yaw CS,Thrust CS
"0 sec",0.2617994,0.37414,0.1002505,-6.938652,0,0,-7,0,0,0,0,0,0,0,0,0,0,0.09910134,-0.149263,0.07059374,-2.134036
"0.01 sec",0.2617994,0.37414,0.1002505,-6.938652,-3.598316e-07,-2.390474e-07,-6.999408,-0.0001360517,-9.040096e-05,0.1188922,0.0006585362,-0.01738378,0.0115375,1.882474,-2.833969,0.1006795,-2.133895,0.1679119,-0.170557,0.5,5.979641
"0.02 sec",0.2617994,0.37414,0.1002505,-6.938652,6.258046e-06,4.549447e-06,-6.998007,0.001831749,0.001364531,0.1593325,0.005390379,-0.05108344,0.04020254,3.425015,-3.553331,0.6365271,5.97929,0.1243017,0.01145675,0.4925305,7.537473
"0.03 sec",0.2617994,0.37414,0.1002505,-6.938652,4.630223e-05,3.726492e-05,-6.996295,0.006340032,0.00555913,0.1827135,0.01029592,-0.06380624,0.06894875,2.417422,0.3816756,0.4666217,7.536372,0.09707855,-0.05263907,0.5180857,11.64897
"0.04 sec",0.2617994,0.37414,0.1002505,-6.938652,0.0001449062,0.0001365466,-6.994547,0.01336787,0.01469081,0.1659562,0.01546645,-0.06059263,0.08554348,1.121044,0.3318878,0.490739,11.64874,0.07533003,-0.04577241,0.5159937,13.26423
"0.05 sec",0.2617994,0.37414,0.1002505,-6.938652,0.000316646,0.0003420916,-6.993052,0.02091691,0.0265615,0.1325786,0.0206283,-0.05726651,0.09044007,0.08986977,0.3925864,0.4816703,13.26343,0.0573585,0.02697085,0.513023,13.39403
"0.06 sec",0.2617994,0.37414,0.1002505,-6.938652,0.0005607724,0.0006685604,-6.991902,0.02763406,0.03865363,0.09748886,0.02575768,-0.04551343,0.08694272,-0.5869053,1.719722,0.364014,13.39286,0.04577566,0.0490758,0.5203943,13.03027
"0.07 sec",0.2617994,0.37414,0.1002505,-6.938652,0.0008610407,0.001110828,-6.991086,0.03196613,0.0496045,0.06572904,0.0309493,-0.02510085,0.07878084,-0.9041855,2.223703,0.3452559,13.03092,0.03771757,0.03855818,0.5269329,11.91787
"0.08 sec",0.2617994,0.37414,0.1002505,-6.938652,0.001190078,0.0016524,-6.990535,0.03344504,0.05847991,0.04470722,0.03620519,-0.005451448,0.06891837,-0.9844118,1.752995,0.4062797,11.91954,0.0284312,0.0153394,0.5205128,10.37259
"0.09 sec",0.2617994,0.37414,0.1002505,-6.938652,0.00152359,0.002271412,-6.990119,0.03305198,0.0651115,0.03889823,0.04140708,0.006590637,0.05871799,-0.9986157,0.8270124,0.4723571,10.37358,-0.006518051,0.01586435,0.5034774,9.182895
"0.1 sec",0.2009066,0.3856951,0.08111948,-6.971106,0.001848968,0.002947625,-6.989701,0.03194702,0.06990664,0.04499657,0.04644687,0.01214454,0.0455782,-1.474903,0.3879853,0.4859824,9.183931,-0.04098331,-0.02835273,0.4491732,9.66656
"0.11 sec",0.2009066,0.3856951,0.08111948,-6.971106,0.002161671,0.00366563,-6.989242,0.03064966,0.0734037,0.04662811,0.05096868,0.009495262,0.02730001,-1.990427,-0.6667924,0.4681905,9.666151,-0.05718236,-0.03462512,0.3332732,9.853398
"0.12 sec",0.2009066,0.3856951,0.08111948,-6.971106,0.002464307,0.004409518,-6.988777,0.03004224,0.07503708,0.04625892,0.0543702,0.0005911633,0.006369203,-2.067945,-0.98967,0.3406375,9.850304,-0.06439441,-0.05399099,0.2742397,9.795689
"0.13 sec",0.2009066,0.3856951,0.08111948,-6.971106,0.002766273,0.005159767,-6.988314,0.03056455,0.07470024,0.04639233,0.05715483,-0.0112802,-0.01342111,-1.823372,-1.267654,0.2584316,9.796163,-0.06368245,-0.05536178,0.2488515,9.811941
"0.14 sec",0.2009066,0.3856951,0.08111948,-6.971106,0.003080028,0.005897833,-6.98785,0.03240187,0.07266321,0.04641617,0.05966664,-0.02345297,-0.02947802,-1.375112,-1.135677,0.2162293,9.808742,-0.05750571,-0.0560991,0.2158452,9.955755
"0.15 sec",0.2009066,0.3856951,0.08111948,-6.971106,0.003418465,0.006608605,-6.987392,0.03546564,0.06932034,0.04510015,0.061848,-0.03354488,-0.04045695,-0.8474124,-0.8891429,0.1803148,9.954011,-0.04951363,-0.05641259,0.182955,10.10297
"0.16 sec",0.2009066,0.3856951,0.08111948,-6.971106,0.003792725,0.00728139,-6.986955,0.0395219,0.06514753,0.04237642,0.06369691,-0.04112059,-0.04628653,-0.3639996,-0.6463436,0.1531904,10.10114,-0.04030303,-0.05757393,0.1582804,10.18637
"0.17 sec",0.2009066,0.3856951,0.08111948,-6.971106,0.004211347,0.007910359,-6.986549,0.04429849,0.06063038,0.03884705,0.06529287,-0.04659888,-0.04766627,0.03413406,-0.4678326,0.1359699,10.18593,-0.03078002,-0.05894021,0.1373726,10.18383
"0.18 sec",0.2009066,0.3856951,0.08111948,-6.971106,0.004680281,0.008494285,-6.986178,0.0495547,0.0561976,0.03534088,0.06667694,-0.05060835,-0.04555241,0.3335558,-0.3475745,0.1214396,10.18451,-0.02266078,-0.0594921,0.117806,10.11387
"0.19 sec",0.2009066,0.3856951,0.08111948,-6.971106,0.005203368,0.009035701,-6.985838,0.05510686,0.05216714,0.0325174,0.06786437,-0.05355128,-0.04106515,0.51679,-0.253065,0.1072732,10.11494,-0.01796535,-0.06015728,0.09873611,10.01703
"0.2 sec",0.2237425,0.3881726,0.0965533,-6.986638,0.005782901,0.009539602,-6.985523,0.06082867,0.04871021,0.03064549,0.0688609,-0.05570883,-0.03552707,0.5627563,-0.1869011,0.09194922,10.01753,-0.01339629,-0.07919379,0.0869177,10.44808
"0.21 sec",0.2237425,0.3881726,0.0965533,-6.986638,0.006421856,0.01001126,-6.985246,0.06702876,0.04572304,0.0246024,0.06973509,-0.05946943,-0.02984092,0.5548496,-0.4912768,0.07200232,10.44767,-0.007538102,-0.04984033,0.08584971,10.33339
"0.22 sec",0.2237425,0.3881726,0.0965533,-6.986638,0.007124312,0.01045626,-6.985025,0.07348019,0.0433783,0.01956778,0.0705936,-0.06107803,-0.02417675,0.5565349,0.0668164,0.08734509,10.33431,-0.01112877,-0.05688818,0.08368392,10.21473
"0.23 sec",0.2237425,0.3881726,0.0965533,-6.986638,0.0078909,0.01088078,-6.984849,0.07981533,0.04160283,0.01570219,0.07143175,-0.06020698,-0.0195808,0.3810159,0.09372484,0.08540224,10.21568,-0.01918154,-0.06391624,0.0819453,10.03736
"0.24 sec",0.2237425,0.3881726,0.0965533,-6.986638,0.008719787,0.01128963,-6.984703,0.08595595,0.04020469,0.01358146,0.07225213,-0.06010738,-0.01743618,0.0999168,-0.04976357,0.08093975,10.04094,-0.02926761,-0.07403947,0.0813158,9.910222
"0.25 sec",0.2237425,0.3881726,0.0965533,-6.986638,0.009609892,0.01168521,-6.984571,0.09209632,0.03890067,0.01274496,0.07306571,-0.06199942,-0.01828433,-0.1976532,-0.277188,0.07613216,9.911285,-0.0365741,-0.08116227,0.08388686,9.863733
"0.26 sec",0.2237425,0.3881726,0.0965533,-6.986638,0.01056258,0.01206705,-6.984446,0.098507,0.0374182,0.01241538,0.07390389,-0.06576882,-0.02154652,-0.3891545,-0.4295483,0.07455499,9.864356,-0.0396326,-0.08315032,0.08639394,9.890152
"0.27 sec",0.2237425,0.3881726,0.0965533,-6.986638,0.01158161,0.01243238,-6.984324,0.1053778,0.0355827,0.01187488,0.07476752,-0.0701791,-0.02585676,-0.4294282,-0.4314171,0.07515088,9.883121,-0.03958492,-0.08057217,0.08418884,9.952822
"0.28 sec",0.2237425,0.3881726,0.0965533,-6.986638,0.01267183,0.01277735,-6.984211,0.1127313,0.03334938,0.01076159,0.07561133,-0.07378395,-0.02988704,-0.3559511,-0.2993714,0.07510532,9.951783,-0.0376644,-0.07418213,0.07734837,10.01231
"0.29 sec",0.2237425,0.3881726,0.0965533,-6.986638,0.01383746,0.01309821,-6.984112,0.1204279,0.03077757,0.00908333,0.07638862,-0.07548679,-0.03281436,-0.2261381,-0.07898216,0.07458745,10.01145,-0.03502167,-0.06824389,0.06905115,10.0317
"0.3 sec",0.2320534,0.3966839,0.103569,-6.977573,0.01508072,0.01339216,-6.98403,0.1282208,0.02798662,0.007212522,0.07708337,-0.07506979,-0.03436583,-0.09064376,0.1173718,0.07292634,10.02713,-0.03396445,-0.07451396,0.06090027,9.663745
"0.31 sec",0.2320534,0.3966839,0.103569,-6.977573,0.01640025,0.01365812,-6.98395,0.1356671,0.0252004,0.008909354,0.07769652,-0.07433639,-0.03485361,-0.01011056,0.03628452,0.06203369,9.664387,-0.034386,-0.07724157,0.04997587,9.589329
"0.32 sec",0.2320534,0.3966839,0.103569,-6.977573,0.0177937,0.01389622,-6.983849,0.1430241,0.02241977,0.01141995,0.07820189,-0.07446027,-0.03488082,0.00918911,-0.04794394,0.0481947,9.589749,-0.03319147,-0.07993747,0.04062105,9.64765
"0.33 sec",0.2320534,0.3966839,0.103569,-6.977573,0.01926112,0.01410649,-6.983725,0.1504741,0.01963956,0.01338643,0.07861289,-0.07535611,-0.03465367,0.03638888,-0.1160989,0.03650351,9.646897,-0.03103812,-0.08158286,0.03296499,9.737612
"0.34 sec",0.2320534,0.3966839,0.103569,-6.977573,0.02080389,0.01428906,-6.983585,0.1581034,0.01688461,0.01447197,0.07894643,-0.07672169,-0.03404678,0.07891106,-0.1459722,0.02790984,9.737141,-0.02844694,-0.08098122,0.02678255,9.818496
"0.35 sec",0.2320534,0.3966839,0.103569,-6.977573,0.02242392,0.01444439,-6.983439,0.1659258,0.0142018,0.01475674,0.07921735,-0.07802659,-0.03296852,0.1261715,-0.1154188,0.02290177,9.818067,-0.02599545,-0.07866926,0.02187278,9.874179
"0.36 sec",0.2320534,0.3966839,0.103569,-6.977573,0.02412293,0.01457348,-6.983293,0.1738866,0.01164161,0.01448395,0.07943854,-0.07874104,-0.03146412,0.1629812,-0.0395342,0.0205681,9.87345,-0.02419651,-0.07368732,0.01815708,9.898694
"0.37 sec",0.2320534,0.3966839,0.103569,-6.977573,0.02590179,0.01467775,-6.98315,0.1818767,0.009240262,0.01395404,0.07962205,-0.07836954,-0.02971793,0.1769246,0.0863364,0.02068332,9.892047,-0.0236359,-0.06464439,0.01542588,9.890459
"0.38 sec",0.2320534,0.3966839,0.103569,-6.977573,0.02776002,0.01475884,-6.983013,0.1897324,0.007004867,0.0134873,0.07977787,-0.07628635,-0.02803031,0.1574799,0.2802842,0.02326782,9.891998,-0.02455107,-0.05013199,0.01311473,9.859697
"0.39 sec",0.2320534,0.3966839,0.103569,-6.977573,0.02969524,0.01481829,-6.982879,0.1972321,0.004900124,0.01329046,0.07991049,-0.07167366,-0.0267529,0.1033629,0.5613887,0.02813775,9.860379,-0.02674933,-0.03546532,0.009604194,9.801298
"0.4 sec",0.235434,0.4130407,0.1063335,-6.979957,0.03170249,0.01485707,-6.982745,0.2040958,0.002853964,0.01362475,0.08000855,-0.06432146,-0.02618081,0.0245266,0.8176943,0.03101122,9.802038,-0.03119486,-0.04363239,0.004871732,9.759131
"0.41 sec",0.235434,0.4130407,0.1063335,-6.979957,0.03377451,0.01487525,-6.982605,0.2101949,0.000766975,0.0143359,0.08005957,-0.05734631,-0.02663111,-0.08934661,0.5827789,0.02036264,9.759735,-0.03509336,-0.05001703,0.001418191,9.698994
"0.42 sec",0.235434,0.4130407,0.1063335,-6.979957,0.03590442,0.01487201,-6.982455,0.2157239,-0.001445732,0.01561365,0.08007522,-0.05323888,-0.02811652,-0.1814365,0.2746075,0.009113369,9.699782,-0.03797717,-0.06095919,0.0003095898,9.687645
"0.43 sec",0.235434,0.4130407,0.1063335,-6.979957,0.03808821,0.01484569,-6.982292,0.2210276,-0.003853682,0.01701001,0.0800788,-0.0526047,-0.03027763,-0.2294318,-0.08269475,-0.002186775,9.690141,-0.03831715,-0.0762559,0.002067343,9.719642
"0.44 sec",0.235434,0.4130407,0.1063335,-6.979957,0.04032551,0.01479419,-6.982117,0.2264883,-0.006477145,0.01810798,0.08009891,-0.05582047,-0.03249434,-0.2059235,-0.4681754,-0.01310418,9.710891,-0.03556453,-0.08252165,0.00512883,9.778405
"0.45 sec",0.235434,0.4130407,0.1063335,-6.979957,0.04261972,0.01471556,-6.981933,0.2324499,-0.009266989,0.01866296,0.08014908,-0.06154333,-0.0340019,-0.1059322,-0.6157489,-0.01578778,9.777418,-0.03078504,-0.07867868,0.006743365,9.878266
"0.46 sec",0.235434,0.4130407,0.1063335,-6.979957,0.04497676,0.01460857,-6.981748,0.2390504,-0.01212711,0.01826849,0.08021577,-0.06697577,-0.03422038,0.03681267,-0.468551,-0.009315826,9.877729,-0.02576845,-0.06897558,0.006789118,9.978363
"0.47 sec",0.235434,0.4130407,0.1063335,-6.979957,0.04740248,0.01447316,-6.981572,0.2461388,-0.01493257,0.01690226,0.08028349,-0.06982356,-0.03303325,0.1694267,-0.1470724,0.001902831,9.977769,-0.0214712,-0.05945345,0.006536322,10.02912
"0.48 sec",0.235434,0.4130407,0.1063335,-6.979957,0.04990008,0.01431048,-6.981412,0.2533718,-0.01756519,0.01501996,0.08034903,-0.06943591,-0.03074405,0.2592892,0.1624748,0.01154074,10.02845,-0.01864351,-0.04878784,0.006820398,10.00158
"0.49 sec",0.235434,0.4130407,0.1063335,-6.979957,0.05246913,0.01412271,-6.98127,0.2603784,-0.0199446,0.01337334,0.08041755,-0.06612331,-0.02789071,0.2903914,0.4295661,0.01885536,10.00911,-0.01801603,-0.03589066,0.00669594,9.914479
"0.5 sec",0.235968,0.4364028,0.1055944,-6.979884,0.05510577,0.01391251,-6.981141,0.2668461,-0.02205705,0.01253828,0.0804854,-0.0602037,-0.0251231,0.2552985,0.6736667,0.02370264,9.914967,-0.02522849,-0.0495001,0.004708448,9.74046
"0.51 sec",0.235968,0.4364028,0.1055944,-6.979884,0.05780348,0.01368233,-6.981011,0.2726109,-0.02396307,0.01337925,0.08053393,-0.05519593,-0.02371312,0.05751479,0.3597568,0.01324731,9.743866,-0.03250799,-0.05922846,0.006418478,9.658927
"0.52 sec",0.235968,0.4364028,0.1055944,-6.979884,0.06055668,0.01343336,-6.980869,0.2780058,-0.02584309,0.0150374,0.08059722,-0.05365678,-0.02441774,-0.153348,0.006962663,0.006579855,9.65935,-0.03685148,-0.0728787,0.0143634,9.668265
"0.53 sec",0.235968,0.4364028,0.1055944,-6.979884,0.06336375,0.01316495,-6.980711,0.2834475,-0.02787389,0.01663123,0.08073703,-0.05585533,-0.02672344,-0.2710803,-0.3635934,0.004676594,9.666379,-0.03677864,-0.08261068,0.02476849,9.73001
"0.54 sec",0.235968,0.4364028,0.1055944,-6.979884,0.06622709,0.01287507,-6.98054,0.2893102,-0.03013952,0.01765061,0.08098008,-0.06099828,-0.02941222,-0.2527632,-0.5929828,0.007365181,9.729112,-0.03328057,-0.08146719,0.03198567,9.835523
"0.55 sec",0.235968,0.4364028,0.1055944,-6.979884,0.06915221,0.01256141,-6.980363,0.2958083,-0.03261445,0.01766883,0.08129681,-0.06668802,-0.0312825,-0.130579,-0.5271639,0.01547188,9.834904,-0.02856494,-0.07068979,0.03430869,9.955138
"0.56 sec",0.235968,0.4364028,0.1055944,-6.979884,0.07214528,0.01222238,-6.980192,0.3028661,-0.03519506,0.01653221,0.08163883,-0.07009152,-0.03170713,0.0230892,-0.1993657,0.02791678,9.954185,-0.02389142,-0.05915145,0.03341436,10.03458
"0.57 sec",0.235968,0.4364028,0.1055944,-6.979884,0.07521035,0.01185757,-6.980036,0.310143,-0.03774887,0.01460378,0.08197345,-0.06992467,-0.03068159,0.1555678,0.1605015,0.03828591,10.03416,-0.01972482,-0.0464263,0.03171041,10.02818
"0.58 sec",0.235968,0.4364028,0.1055944,-6.979884,0.07834744,0.0114679,-6.979899,0.3172119,-0.04015391,0.01269935,0.08229181,-0.06628674,-0.02855041,0.2458308,0.4826521,0.0454962,10.0299,-0.01677836,-0.03198635,0.02852146,9.938017
"0.59 sec",0.235968,0.4364028,0.1055944,-6.979884,0.08155252,0.01105528,-6.979778,0.3236858,-0.04233304,0.01163093,0.08257958,-0.05959326,-0.02581925,0.2819613,0.7627826,0.04828812,9.938437,-0.01457153,-0.0232489,0.02170322,9.797257
"0.6 sec",0.238409,0.4658865,0.1032336,-6.9818,0.08481813,0.01062211,-6.979661,0.3292926,-0.04426576,0.01190252,0.08280134,-0.05109913,-0.02294538,0.2798935,0.8669747,0.04170199,9.798958,-0.01972363,-0.04305358,0.01355953,9.642713
"0.61 sec",0.238409,0.4658865,0.1032336,-6.9818,0.08813537,0.01017073,-6.979533,0.3340583,-0.0459852,0.01366917,0.08294177,-0.04532032,-0.02101447,0.1266257,0.3541457,0.02101697,9.644864,-0.02991916,-0.05836594,0.01287756,9.622296
"0.62 sec",0.238409,0.4658865,0.1032336,-6.9818,0.09149822,0.009702642,-6.979386,0.3385063,-0.04763924,0.0156589,0.08307096,-0.04486123,-0.02134821,-0.1392229,-0.165538,0.009343361,9.627661,-0.03550265,-0.07984253,0.02681653,9.658115
"0.63 sec",0.238409,0.4658865,0.1032336,-6.9818,0.09490632,0.009217503,-6.979221,0.3431994,-0.04942156,0.01731387,0.08333258,-0.04985701,-0.02377717,-0.3000711,-0.7031104,0.01017577,9.648826,-0.03463387,-0.08196601,0.04639303,9.727326
"0.64 sec",0.238409,0.4658865,0.1032336,-6.9818,0.09836466,0.008713404,-6.979043,0.3485982,-0.05143563,0.01833177,0.08378764,-0.05751672,-0.02672497,-0.2738358,-0.7739938,0.02575517,9.726913,-0.03078409,-0.07796482,0.05967542,9.878456
"0.65 sec",0.238409,0.4658865,0.1032336,-6.9818,0.1018812,0.008187997,-6.978861,0.3548289,-0.05366953,0.0179078,0.08437834,-0.06421116,-0.02874236,-0.1377937,-0.5694452,0.04325001,9.876266,-0.02607836,-0.06360742,0.06500459,10.0174
"0.66 sec",0.238409,0.4658865,0.1032336,-6.9818,0.1054634,0.007639593,-6.978691,0.3616663,-0.05601446,0.01613085,0.08502579,-0.0673101,-0.02922332,0.0219328,-0.1224212,0.06130598,10.01593,-0.02124929,-0.05072619,0.06448955,10.09377
"0.67 sec",0.238409,0.4658865,0.1032336,-6.9818,0.1091151,0.007067759,-6.978542,0.3686447,-0.05833634,0.01358135,0.08567102,-0.06605195,-0.02819662,0.159816,0.284914,0.07243127,10.09336,-0.01642164,-0.03731796,0.06142615,10.05711
"0.68 sec",0.238409,0.4658865,0.1032336,-6.9818,0.1128351,0.006473384,-6.978418,0.3752701,-0.06050696,0.0113432,0.0862874,-0.06110568,-0.02595663,0.2636615,0.6104541,0.0772603,10.05765,-0.01195707,-0.02534701,0.05469433,9.926836
"0.69 sec",0.238409,0.4658865,0.1032336,-6.9818,0.1166179,0.00585847,-6.97831,0.3811622,-0.06243439,0.0103357,0.08683896,-0.05352563,-0.0228751,0.3293678,0.8198237,0.07352332,9.928467,-0.007583372,-0.01914265,0.04368192,9.758394
"0.7 sec",0.2431047,0.5010671,0.09962121,-6.982506,0.1204551,0.005225714,-6.978203,0.386128,-0.06406908,0.01094934,0.08728299,-0.04493926,-0.01927201,0.368375,0.8427751,0.06004913,9.761281,-0.01320475,-0.04386918,0.03214344,9.546833
"0.71 sec",0.2431047,0.5010671,0.09962121,-6.982506,0.1243375,0.004578136,-6.978081,0.3902717,-0.06540865,0.01362695,0.08761114,-0.04010651,-0.01652045,0.2017426,0.2158925,0.0357141,9.552626,-0.02701212,-0.06365988,0.03315797,9.584517
"0.72 sec",0.2431047,0.5010671,0.09962121,-6.982506,0.12826,0.003917974,-6.977932,0.3942612,-0.06662402,0.01598058,0.08794229,-0.04164146,-0.01662372,-0.1512907,-0.3974272,0.02655476,9.583847,-0.03297266,-0.08253253,0.05608971,9.638357
"0.73 sec",0.2431047,0.5010671,0.09962121,-6.982506,0.1322243,0.003245241,-6.977764,0.3987061,-0.06795725,0.01782286,0.0884924,-0.04861772,-0.01938096,-0.3435128,-0.8696192,0.03933018,9.637707,-0.03123415,-0.08127888,0.08112942,9.740384
"0.74 sec",0.2431047,0.5010671,0.09962121,-6.982506,0.1362372,0.002557943,-6.977581,0.404024,-0.06954334,0.0187038,0.08929236,-0.05726773,-0.02269629,-0.3014086,-0.8236727,0.0624533,9.739772,-0.02744518,-0.07343066,0.09905837,9.916709
"0.75 sec",0.2431047,0.5010671,0.09962121,-6.982506,0.1403079,0.001853524,-6.977398,0.4102311,-0.07136769,0.01789275,0.09027459,-0.06373629,-0.02495985,-0.1554073,-0.5002494,0.08644487,9.913237,-0.02306112,-0.0570897,0.106027,10.06016
"0.76 sec",0.2431047,0.5010671,0.09962121,-6.982506,0.1444438,0.001130119,-6.97723,0.4169817,-0.07332095,0.01567426,0.09133141,-0.06574059,-0.0256422,0.005331026,0.00775797,0.1060318,10.0586,-0.01798227,-0.04407798,0.1039917,10.11936
"0.77 sec",0.2431047,0.5010671,0.09962121,-6.982506,0.1486476,0.0003870972,-6.977087,0.4237366,-0.07527119,0.01284066,0.0923725,-0.06315979,-0.02475863,0.1518063,0.4110393,0.1140231,10.11853,-0.01212659,-0.02951429,0.09740783,10.04787
"0.78 sec",0.2431047,0.5010671,0.09962121,-6.982506,0.1529168,-0.0003748258,-6.97697,0.4299868,-0.07708317,0.01065527,0.09335064,-0.05693373,-0.02247545,0.2794976,0.7325988,0.1138426,10.04893,-0.005029525,-0.01986594,0.08563208,9.884165
"0.79 sec",0.2431047,0.5010671,0.09962121,-6.982506,0.1572444,-0.001153685,-6.976866,0.4353774,-0.07864114,0.01003166,0.09421449,-0.04851688,-0.01891324,0.3994638,0.8728252,0.1022319,9.886463,0.001775928,-0.01362961,0.07000857,9.699123
"0.8 sec",0.2510325,0.5414499,0.09545767,-6.982838,0.1616209,-0.001946447,-6.97676,0.4397823,-0.07984886,0.01120134,0.09492467,-0.03957486,-0.01429654,0.4878139,0.8645598,0.08253785,9.702943,-0.002860663,-0.04227973,0.05507762,9.450834
"0.81 sec",0.2510325,0.5414499,0.09545767,-6.982838,0.166037,-0.002749292,-6.976631,0.4433484,-0.0806625,0.0147996,0.09548418,-0.0350601,-0.01025745,0.3319493,0.1492086,0.0566071,9.452142,-0.02043261,-0.06507285,0.05617114,9.566817
"0.82 sec",0.2510325,0.5414499,0.09545767,-6.982838,0.1704877,-0.003558899,-6.97647,0.4468461,-0.08124529,0.01732649,0.09604537,-0.03771949,-0.00960111,-0.1144816,-0.535621,0.05101931,9.566267,-0.02733864,-0.08196031,0.08328975,9.633601
"0.83 sec",0.2510325,0.5414499,0.09545767,-6.982838,0.1749758,-0.004374431,-6.976287,0.4509175,-0.08189244,0.01919607,0.09686548,-0.04585668,-0.0123197,-0.3605713,-0.9653376,0.0714936,9.632641,-0.0258465,-0.0793478,0.110834,9.747744
"0.84 sec",0.2510325,0.5414499,0.09545767,-6.982838,0.1795094,-0.005197603,-6.976091,0.4559554,-0.08278515,0.01998278,0.09796146,-0.05513686,-0.01593242,-0.3361316,-0.8616347,0.09710717,9.74701,-0.02292283,-0.06896662,0.133316,9.934328
"0.85 sec",0.2510325,0.5414499,0.09545767,-6.982838,0.1840982,-0.006031018,-6.975896,0.461919,-0.0839316,0.01897254,0.09928408,-0.06154494,-0.0186598,-0.2046083,-0.4647782,0.1244686,9.930216,-0.01941549,-0.05170301,0.1435871,10.08256
"0.86 sec",0.2510325,0.5414499,0.09545767,-6.982838,0.1887497,-0.006876831,-6.975718,0.4683975,-0.08524867,0.01650267,0.1007149,-0.0629783,-0.01993646,-0.05486425,0.07660606,0.1448559,10.08082,-0.01432361,-0.0387488,0.140591,10.13301
"0.87 sec",0.2510325,0.5414499,0.09545767,-6.982838,0.193466,-0.0077362,-6.975569,0.4748128,-0.08662384,0.01349848,0.1021224,-0.05971332,-0.01963811,0.1004025,0.4756986,0.1497297,10.13232,-0.007308007,-0.0242603,0.1309943,10.04175
"0.88 sec",0.2510325,0.5414499,0.09545767,-6.982838,0.1982439,-0.008609029,-6.975444,0.4806536,-0.08791921,0.01133642,0.1034378,-0.0529152,-0.01768615,0.2629429,0.781903,0.1447601,10.04224,0.002520478,-0.01517125,0.1159445,9.856744
"0.89 sec",0.2510325,0.5414499,0.09545767,-6.982838,0.2030759,-0.0094938,-6.975333,0.4855831,-0.08898567,0.01095193,0.1046067,-0.04414452,-0.01390155,0.4488451,0.8971391,0.1285167,9.860915,0.01159291,-0.008843807,0.09752318,9.663167
"0.9 sec",0.2620316,0.5866632,0.09118214,-6.982702,0.2079521,-0.01038745,-6.975216,0.4895003,-0.08967047,0.01245291,0.1055938,-0.0350198,-0.008454215,0.5911047,0.8781587,0.1051564,9.667364,0.008782201,-0.04003925,0.08109614,9.364705
"0.91 sec",0.2620316,0.5866632,0.09118214,-6.982702,0.2128628,-0.0112856,-6.97507,0.49256,-0.08988295,0.01687888,0.1064145,-0.03070072,-0.003166449,0.4665627,0.1085644,0.08143431,9.365635,-0.01031383,-0.06474282,0.08152606,9.561435
"0.92 sec",0.2620316,0.5866632,0.09118214,-6.982702,0.2178033,-0.01218387,-6.974888,0.4955988,-0.08973809,0.01946173,0.1072294,-0.03405832,-0.001409759,-0.02523514,-0.6213092,0.08060808,9.555552,-0.01776987,-0.07981955,0.1082229,9.652474
"0.93 sec",0.2620316,0.5866632,0.09118214,-6.982702,0.2227769,-0.01308024,-6.974685,0.4992799,-0.08955391,0.02113248,0.1082989,-0.04285301,-0.003474429,-0.3131445,-1.013636,0.1047656,9.652004,-0.01684073,-0.07297894,0.1328727,9.762656
"0.94 sec",0.2620316,0.5866632,0.09118214,-6.982702,0.2277923,-0.01397556,-6.974471,0.5039516,-0.08954699,0.02174636,0.1096166,-0.05201396,-0.006808999,-0.3215301,-0.8082998,0.127334,9.761891,-0.01605853,-0.06378096,0.1545421,9.949543
"0.95 sec",0.2620316,0.5866632,0.09118214,-6.982702,0.2328591,-0.01487194,-6.974259,0.509504,-0.08976503,0.02055352,0.1111519,-0.05788822,-0.009722616,-0.2435786,-0.4124124,0.1503388,9.945415,-0.01415643,-0.04643499,0.1659896,10.08368
"0.96 sec",0.2620316,0.5866632,0.09118214,-6.982702,0.2379841,-0.01577153,-6.974066,0.5155122,-0.09018259,0.01803201,0.1128061,-0.05884644,-0.01164907,-0.1331837,0.1201765,0.167105,10.08243,-0.009765673,-0.03443899,0.1628859,10.11932
"0.97 sec",0.2620316,0.5866632,0.09118214,-6.982702,0.243169,-0.01667605,-6.9739,0.5214159,-0.09073683,0.01512205,0.1144364,-0.05532234,-0.01222568,0.01189761,0.4898887,0.1686357,10.11876,-0.002380116,-0.0204164,0.1522571,10.01685
"0.98 sec",0.2620316,0.5866632,0.09118214,-6.982702,0.2484104,-0.01758633,-6.973759,0.5267394,-0.09131046,0.01317096,0.1159648,-0.04851303,-0.01105976,0.1955985,0.7753691,0.1607331,10.0176,0.008873728,-0.0111859,0.1366022,9.827892
"0.99 sec",0.2620316,0.5866632,0.09118214,-6.982702,0.2537007,-0.01850178,-6.973628,0.5311697,-0.09173814,0.01304565,0.1173403,-0.03983133,-0.007684608,0.4283293,0.888145,0.143512,9.832184,0.01912541,-0.00496041,0.11813,9.638239
"1 sec",0.2753184,0.6363337,0.08716536,-6.982222,0.2590303,-0.01941996,-6.973489,0.5346072,-0.09182539,0.01477632,0.1185335,-0.03081069,-0.002199671,0.6115747,0.8682866,0.1202547,9.642155,0.01866444,-0.03767103,0.1029258,9.293748
"1.01 sec",0.2753184,0.6363337,0.08716536,-6.982222,0.2643897,-0.02033672,-6.973316,0.5371971,-0.09144346,0.01988674,0.1195719,-0.02676496,0.003623861,0.5404517,0.07170637,0.1026567,9.294466,0.00153824,-0.06384417,0.1037237,9.56764
"1.02 sec",0.2753184,0.6363337,0.08716536,-6.982222,0.2697744,-0.02124725,-6.973104,0.5398029,-0.09061131,0.02241939,0.1206084,-0.03068594,0.006380497,0.08833063,-0.6869839,0.1080275,9.566697,-0.004827417,-0.07627303,0.1298797,9.704144
"1.03 sec",0.2753184,0.6363337,0.08716536,-6.982222,0.2751882,-0.02214835,-6.972874,0.5430987,-0.08960458,0.02357431,0.1218941,-0.03983165,0.0055466,-0.1885698,-1.024737,0.1355631,9.702301,-0.00406378,-0.06910501,0.1516209,9.800748
"1.04 sec",0.2753184,0.6363337,0.08716536,-6.982222,0.2806398,-0.02303947,-6.972637,0.54738,-0.08863537,0.02379068,0.1234003,-0.04896181,0.003341175,-0.2209154,-0.7936096,0.1541894,9.800212,-0.004758633,-0.05707125,0.1693781,9.977261
"1.05 sec",0.2753184,0.6363337,0.08716536,-6.982222,0.2861387,-0.02392139,-6.972406,0.5524989,-0.08777375,0.0222979,0.1250856,-0.05433626,0.001120092,-0.1981902,-0.3382316,0.1695469,9.973741,-0.005038726,-0.04068527,0.1777557,10.09919
"1.06 sec",0.2753184,0.6363337,0.08716536,-6.982222,0.2916912,-0.02479543,-6.972197,0.5579942,-0.0870629,0.01959012,0.1268589,-0.05463392,-0.0007550116,-0.1554373,0.180588,0.1776118,10.09826,-0.00206484,-0.02885424,0.1741703,10.10469
"1.07 sec",0.2753184,0.6363337,0.08716536,-6.982222,0.297298,-0.02566322,-6.972015,0.5633126,-0.08652004,0.01678596,0.1286023,-0.05062269,-0.001826874,-0.05401785,0.5313346,0.1748979,10.10287,0.004791847,-0.01651452,0.1641677,9.976283
"1.08 sec",0.2753184,0.6363337,0.08716536,-6.982222,0.3029553,-0.02652621,-6.971855,0.5680189,-0.08608447,0.01520307,0.1302492,-0.04368415,-0.001403006,0.1188973,0.7710185,0.1651324,9.977035,0.01536356,-0.007519056,0.1503033,9.777936
"1.09 sec",0.2753184,0.6363337,0.08716536,-6.982222,0.3086554,-0.02738481,-6.971702,0.5718531,-0.08560931,0.01555066,0.1317604,-0.03517015,0.001177014,0.3503272,0.8660106,0.1493404,9.783194,0.02437703,-0.001831944,0.134312,9.601623
"1.1 sec",0.2903323,0.6900225,0.08399209,-6.981464,0.3143891,-0.02823763,-6.971536,0.5747415,-0.08490002,0.01763511,0.1331137,-0.02645839,0.0058077,0.5249199,0.8347868,0.1296415,9.604648,0.0255537,-0.03569335,0.1227137,9.220964
"1.11 sec",0.2903323,0.6900225,0.08399209,-6.981464,0.3201473,-0.02908166,-6.971331,0.5768332,-0.08383316,0.02345727,0.1343479,-0.02288198,0.01101821,0.4991568,0.01953939,0.1224849,9.221571,0.0120552,-0.06348921,0.1253338,9.571297
"1.12 sec",0.2903323,0.6900225,0.08399209,-6.981464,0.3259261,-0.02991265,-6.971083,0.5789954,-0.08230796,0.02597057,0.1355993,-0.02751061,0.01390724,0.1381731,-0.7652383,0.1358867,9.570673,0.0084158,-0.07581083,0.1522862,9.779798
"1.13 sec",0.2903323,0.6900225,0.08399209,-6.981464,0.3317299,-0.03072687,-6.970821,0.5819252,-0.08051162,0.02638531,0.1371083,-0.03741571,0.01401471,-0.06812986,-1.093284,0.1675589,9.772987,0.01067619,-0.06205731,0.175139,9.861059
"1.14 sec",0.2903323,0.6900225,0.08399209,-6.981464,0.337568,-0.03152252,-6.970559,0.5858616,-0.07860957,0.02599451,0.1388484,-0.04639805,0.01320824,-0.07328828,-0.7201885,0.1845128,9.860638,0.008644345,-0.04922035,0.1917231,10.04156
"1.15 sec",0.2903323,0.6900225,0.08399209,-6.981464,0.3434497,-0.03229884,-6.97031,0.5905505,-0.07665911,0.02385295,0.1407574,-0.05075817,0.01221914,-0.09628318,-0.2191263,0.1941824,10.03763,0.006883041,-0.03368569,0.1961322,10.13118
"1.16 sec",0.2903323,0.6900225,0.08399209,-6.981464,0.3493799,-0.03305587,-6.970087,0.5954741,-0.07476687,0.02080249,0.1427164,-0.05000522,0.01100627,-0.1160283,0.2749759,0.1928542,10.13072,0.008664787,-0.02273805,0.1912603,10.08429
"1.17 sec",0.2903323,0.6900225,0.08399209,-6.981464,0.3553582,-0.03379472,-6.969892,0.6001025,-0.07302974,0.0181692,0.1446313,-0.04530678,0.01003434,-0.06450866,0.5832086,0.1851965,10.08489,0.01420038,-0.01310657,0.1821292,9.915652
"1.18 sec",0.2903323,0.6900225,0.08399209,-6.981464,0.3613797,-0.03451704,-6.969715,0.6040745,-0.07144871,0.01716251,0.1464572,-0.0383131,0.01011543,0.06980138,0.7484021,0.1744542,9.91898,0.02171166,-0.004798486,0.1705961,9.716681
"1.19 sec",0.2903323,0.6900225,0.08399209,-6.981464,0.3674368,-0.03522392,-6.969539,0.6072204,-0.06991792,0.0181083,0.1481697,-0.03024499,0.01182094,0.2407219,0.8117896,0.161028,9.721377,0.02731841,0.0001791648,0.157732,9.570452
"1.2 sec",0.3074545,0.7471502,0.08272071,-6.980367,0.3735211,-0.0359151,-6.969346,0.6095093,-0.06828784,0.02050706,0.1497549,-0.02218467,0.0149443,0.3532286,0.7680115,0.1463692,9.572083,0.03023188,-0.03478023,0.1500412,9.163578
"1.21 sec",0.3074545,0.7471502,0.08272071,-6.980367,0.3796245,-0.03658923,-6.96911,0.6111016,-0.06648825,0.02689824,0.1512599,-0.01938031,0.018678,0.3746738,-0.05864969,0.1511279,9.164119,0.020819,-0.06424857,0.1541171,9.569982
"1.22 sec",0.3074545,0.7471502,0.08272071,-6.980367,0.3857438,-0.03724335,-6.968827,0.6128435,-0.06428312,0.02944385,0.1527984,-0.02494957,0.02099955,0.1303968,-0.8630647,0.1721729,9.569571,0.02100755,-0.0785563,0.1796219,9.862124
"1.23 sec",0.3074545,0.7471502,0.08272071,-6.980367,0.3918844,-0.03787367,-6.968534,0.6154609,-0.06174051,0.02906551,0.1545812,-0.03602779,0.02170028,0.03491139,-1.2153,0.2059083,9.861283,0.02546991,-0.05241493,0.2017704,9.933397
"1.24 sec",0.3074545,0.7471502,0.08272071,-6.980367,0.3980567,-0.03847733,-6.968249,0.6191341,-0.05895717,0.02795722,0.1565873,-0.04474146,0.02229152,0.08633113,-0.5901463,0.2147547,9.932979,0.02178134,-0.04113575,0.2151014,10.13534
"1.25 sec",0.3074545,0.7471502,0.08272071,-6.980367,0.4042693,-0.03905201,-6.967985,0.6234374,-0.05596184,0.02489009,0.1587314,-0.04764097,0.02266093,0.01825422,-0.06496703,0.2163849,10.12965,0.01936001,-0.0263815,0.2159377,10.17353
"1.26 sec",0.3074545,0.7471502,0.08272071,-6.980367,0.4105256,-0.03959646,-6.967753,0.6277868,-0.05293778,0.02140388,0.1608903,-0.04555492,0.02232236,-0.05067226,0.3922324,0.2069972,10.17286,0.02000242,-0.01719646,0.2103056,10.05467
"1.27 sec",0.3074545,0.7471502,0.08272071,-6.980367,0.4168235,-0.0401113,-6.967551,0.6316974,-0.05005535,0.01904465,0.1629961,-0.04008972,0.02171835,-0.04901356,0.6330945,0.196413,10.05573,0.02284963,-0.00861132,0.2021433,9.840962
"1.28 sec",0.3074545,0.7471502,0.08272071,-6.980367,0.4231571,-0.04059833,-6.967362,0.6349039,-0.04737204,0.01877066,0.1650216,-0.03291569,0.02153446,0.01560494,0.748117,0.1859679,9.847467,0.0262149,-0.00194125,0.1926058,9.642815
"1.29 sec",0.3074545,0.7471502,0.08272071,-6.980367,0.4295188,-0.04105932,-6.967166,0.63732,-0.04483824,0.02045496,0.1669527,-0.02515768,0.02213454,0.09663428,0.7651563,0.1756862,9.647197,0.02763163,0.002387706,0.1821458,9.534298
"1.3 sec",0.3269115,0.8071167,0.08437566,-6.97919,0.4359009,-0.04149533,-6.966949,0.638968,-0.0423649,0.02322976,0.16878,-0.0177037,0.02329154,0.1296942,0.7039553,0.165812,9.534961,0.03351668,-0.03379796,0.1770735,9.111582
"1.31 sec",0.3269115,0.8071167,0.08437566,-6.97919,0.4422961,-0.04190699,-6.966682,0.6400339,-0.03994635,0.03014382,0.1705535,-0.01567331,0.02518985,0.226457,-0.1385863,0.1805863,9.11199,0.02747037,-0.06469285,0.1800751,9.566647
"1.32 sec",0.3269115,0.8071167,0.08437566,-6.97919,0.4487024,-0.04229293,-6.966367,0.6413277,-0.03719613,0.03274237,0.1723523,-0.02218114,0.0267003,0.09857196,-0.9591116,0.2056635,9.566247,0.03078149,-0.07553111,0.2017969,9.948086
"1.33 sec",0.3269115,0.8071167,0.08437566,-6.97919,0.455126,-0.04264947,-6.966045,0.6435783,-0.03405822,0.0315349,0.1743585,-0.03377523,0.02769571,0.1049864,-1.231333,0.2358121,9.947524,0.03429319,-0.04326367,0.2201969,10.01695
"1.34 sec",0.3269115,0.8071167,0.08437566,-6.97919,0.4615776,-0.04297297,-6.965739,0.6468693,-0.03059543,0.0295972,0.1765506,-0.04178605,0.02900523,0.1564485,-0.4614661,0.233451,10.01595,0.02965152,-0.03318522,0.2274447,10.20183
"1.35 sec",0.3269115,0.8071167,0.08437566,-6.97919,0.4680651,-0.04326034,-6.965462,0.6506516,-0.02685659,0.02586444,0.1788212,-0.04339708,0.02990047,0.05624766,0.06117427,0.2255033,10.19838,0.02715803,-0.02097361,0.2247863,10.18276
"1.36 sec",0.3269115,0.8071167,0.08437566,-6.97919,0.4745902,-0.04351002,-6.965221,0.654336,-0.02308776,0.02227022,0.1810704,-0.04048232,0.0298418,-0.031777,0.4449839,0.2114086,10.18606,0.02637556,-0.01383882,0.2180195,10.00706
"1.37 sec",0.3269115,0.8071167,0.08437566,-6.97919,0.48115,-0.04372278,-6.965008,0.6575237,-0.01949237,0.02037005,0.1832539,-0.03493243,0.02921411,-0.06700614,0.6140772,0.2000092,10.01042,0.02604285,-0.006249291,0.2097252,9.78411
"1.38 sec",0.3269115,0.8071167,0.08437566,-6.97919,0.4877384,-0.04390083,-6.964803,0.6600487,-0.01615164,0.02066245,0.1853551,-0.02819908,0.02843326,-0.07085004,0.6918052,0.1900216,9.790827,0.0256138,-0.0006314635,0.2006436,9.613288
"1.39 sec",0.3269115,0.8071167,0.08437566,-6.97919,0.4943486,-0.04404673,-6.964587,0.6618798,-0.01306134,0.02265205,0.1873659,-0.02115957,0.02768149,-0.06634804,0.6883918,0.1815884,9.615973,0.02421014,0.00308613,0.1908625,9.545573
"1.4 sec",0.2429931,0.8813667,0.05013331,-6.978631,0.5009738,-0.04416279,-6.964347,0.6630595,-0.01018426,0.02532938,0.1892792,-0.01452377,0.02688778,-0.07885618,0.6242267,0.174096,9.546628,0.02217016,-0.04619237,0.1813654,9.266189
"1.41 sec",0.2429931,0.8813667,0.05013331,-6.978631,0.5076084,-0.04425133,-6.964067,0.6638489,-0.007538706,0.03073698,0.1910978,-0.01475499,0.02588363,-0.1060304,-0.4524246,0.1931438,9.267251,0.01003236,-0.08293977,0.1826265,9.770905
"1.42 sec",0.2429931,0.8813667,0.05013331,-6.978631,0.5142528,-0.04431302,-6.963756,0.6652287,-0.004802183,0.03130559,0.1929247,-0.02524542,0.02342518,-0.3228786,-1.396167,0.215562,9.770475,0.01302849,-0.07430659,0.1923582,9.867823
"1.43 sec",0.2429931,0.8813667,0.05013331,-6.978631,0.5209174,-0.04434738,-6.963446,0.667923,-0.002075745,0.03082747,0.1948455,-0.03877354,0.02037753,-0.2676151,-1.252839,0.217973,9.867259,0.01412785,-0.05861571,0.2005858,10.04475
"1.44 sec",0.2429931,0.8813667,0.05013331,-6.978631,0.5276156,-0.04435439,-6.963148,0.6718722,0.0006695763,0.02864019,0.1968483,-0.04809702,0.01810748,-0.1740046,-0.6650704,0.2125008,10.04122,0.01114998,-0.04021617,0.2052845,10.22529
"1.45 sec",0.2429931,0.8813667,0.05013331,-6.978631,0.5343574,-0.04433396,-6.962881,0.6765398,0.003396236,0.02467674,0.1988991,-0.05091013,0.01626977,-0.1646213,-0.002300886,0.2050857,10.2219,0.01066648,-0.02601663,0.1996789,10.26324
"1.46 sec",0.2429931,0.8813667,0.05013331,-6.978631,0.5411465,-0.04428699,-6.962656,0.6812381,0.00596382,0.02029457,0.2008985,-0.0480416,0.01464196,-0.1371273,0.4744499,0.1924852,10.26261,0.01397836,-0.01764731,0.1883979,10.11138
"1.47 sec",0.2429931,0.8813667,0.05013331,-6.978631,0.5479803,-0.04421561,-6.962468,0.6854222,0.00827704,0.01735583,0.202788,-0.04186999,0.0137499,-0.03814157,0.6894194,0.1787504,10.11385,0.01911288,-0.009281394,0.1744939,9.877908
"1.48 sec",0.2429931,0.8813667,0.05013331,-6.978631,0.5548522,-0.04412224,-6.962298,0.6888354,0.01037691,0.01669814,0.2045401,-0.03424212,0.01412208,0.09785891,0.7808789,0.1634136,9.879336,0.02344829,-0.002902676,0.1590594,9.683456
"1.49 sec",0.2429931,0.8813667,0.05013331,-6.978631,0.5617542,-0.04400844,-6.962125,0.6914099,0.01238121,0.01796921,0.2061393,-0.02624926,0.01572512,0.2033278,0.7783726,0.1468606,9.685891,0.02438794,0.001058077,0.1429,9.590812
"1.5 sec",0.260821,0.947378,0.05720079,-6.974758,0.5686778,-0.04387459,-6.961935,0.6931846,0.01439809,0.02017471,0.2075773,-0.01874027,0.01784886,0.2140585,0.7012343,0.130456,9.591296,0.0336923,-0.0425144,0.1333299,9.050536
"1.51 sec",0.260821,0.947378,0.05720079,-6.974758,0.5756156,-0.04372065,-6.961696,0.6943637,0.01643034,0.02766133,0.2089157,-0.01761062,0.02087444,0.3523564,-0.2863787,0.1392708,9.051043,0.03016033,-0.0822647,0.1394475,9.480725
"1.52 sec",0.260821,0.947378,0.05720079,-6.974758,0.5825663,-0.04354424,-6.961401,0.6958995,0.01893239,0.03111005,0.2103058,-0.02675501,0.02390534,0.2606797,-1.291519,0.1701492,9.48032,0.03923678,-0.07990552,0.1577914,9.862544
"1.53 sec",0.260821,0.947378,0.05720079,-6.974758,0.5895377,-0.04333972,-6.961092,0.6985967,0.02207356,0.0307703,0.2118721,-0.04017367,0.02711783,0.3561157,-1.305979,0.1929139,9.861994,0.03968961,-0.05554482,0.1708914,10.04144
"1.54 sec",0.260821,0.947378,0.05720079,-6.974758,0.5965422,-0.04310049,-6.960794,0.702428,0.0258633,0.02864606,0.2135727,-0.04927985,0.03052842,0.3277517,-0.5914717,0.1887253,10.03739,0.03362927,-0.03737173,0.179253,10.27041
"1.55 sec",0.260821,0.947378,0.05720079,-6.974758,0.6035883,-0.04282061,-6.96053,0.7068262,0.03015656,0.02428403,0.2153606,-0.05122578,0.03266992,0.1421985,0.09294356,0.1760802,10.26321,0.02933678,-0.02218987,0.1755728,10.29163
"1.56 sec",0.260821,0.947378,0.05720079,-6.974758,0.6106782,-0.04249696,-6.96031,0.7110875,0.03456726,0.01965599,0.2171183,-0.04735862,0.033026,-0.02362565,0.5770984,0.1563952,10.28387,0.0256642,-0.01389972,0.1668945,10.07794
"1.57 sec",0.260821,0.947378,0.05720079,-6.974758,0.6178077,-0.04213023,-6.960126,0.7147022,0.03873425,0.01707636,0.2187913,-0.04027205,0.03199453,-0.1398043,0.7733155,0.1420348,10.08305,0.02129493,-0.00471883,0.1568697,9.782894
"1.58 sec",0.260821,0.947378,0.05720079,-6.974758,0.6249694,-0.04172388,-6.959954,0.71749,0.04246942,0.01738203,0.2203642,-0.0318431,0.02993564,-0.231473,0.8582805,0.1310539,9.783854,0.01726168,0.002053756,0.1465228,9.542848
"1.59 sec",0.260821,0.947378,0.05720079,-6.974758,0.6321547,-0.04128262,-6.959767,0.7194498,0.04570736,0.02006744,0.2218335,-0.02312906,0.02714487,-0.2915163,0.8461279,0.1234339,9.544024,0.01384478,0.007203758,0.1356482,9.434813
"1.6 sec",0.2767577,1.016351,0.06627315,-6.973749,0.6393558,-0.04081142,-6.959548,0.7206611,0.0484552,0.02383956,0.2231942,-0.01489416,0.02395452,-0.3184643,0.7751458,0.1169707,9.435404,0.03208261,-0.03667178,0.1301133,8.901208
"1.61 sec",0.2767577,1.016351,0.06627315,-6.973749,0.646566,-0.04031537,-6.959265,0.7213476,0.0507331,0.0328224,0.2244979,-0.01312091,0.02311406,0.08159358,-0.2309271,0.1354683,8.901691,0.02741635,-0.07672316,0.1321212,9.396955
"1.62 sec",0.2767577,1.016351,0.06627315,-6.973749,0.653784,-0.03979577,-6.958915,0.7223758,0.05323771,0.03711913,0.2258177,-0.02183355,0.02405754,0.1024405,-1.258706,0.1623536,9.396531,0.0356822,-0.07910836,0.1496687,9.996966
"1.63 sec",0.2767577,1.016351,0.06627315,-6.973749,0.6610177,-0.03924851,-6.958551,0.7245992,0.0563001,0.03547582,0.2273041,-0.03554773,0.02596011,0.2481044,-1.376919,0.1852105,9.996268,0.0360929,-0.04401876,0.1622081,10.10648
"1.64 sec",0.2767577,1.016351,0.06627315,-6.973749,0.6682799,-0.03866786,-6.95821,0.7279742,0.05990696,0.03266027,0.2289186,-0.04424337,0.02848982,0.2553865,-0.4774244,0.1756567,10.10579,0.03135554,-0.03103212,0.1668441,10.32191
"1.65 sec",0.2767577,1.016351,0.06627315,-6.973749,0.675579,-0.03804886,-6.957908,0.7318322,0.06393027,0.02774559,0.2305845,-0.045397,0.03020759,0.1196603,0.1435796,0.1624164,10.31532,0.02870557,-0.01813778,0.1617093,10.27875
"1.66 sec",0.2767577,1.016351,0.06627315,-6.973749,0.6829159,-0.03738909,-6.957654,0.7354875,0.06801502,0.0231952,0.2322043,-0.04144953,0.03066004,0.004633004,0.5545294,0.1446376,10.27942,0.02566294,-0.01188269,0.1526575,10.04031
"1.67 sec",0.2767577,1.016351,0.06627315,-6.973749,0.6902865,-0.03668944,-6.957433,0.7385234,0.07187793,0.02095144,0.2337353,-0.03493801,0.03006996,-0.08946409,0.6936285,0.131735,10.04149,0.02122794,-0.004066191,0.1424938,9.775157
"1.68 sec",0.2767577,1.016351,0.06627315,-6.973749,0.6976838,-0.03595286,-6.957222,0.7408287,0.07538176,0.0213221,0.2351648,-0.02749552,0.02851507,-0.1854119,0.7504022,0.1210205,9.776372,0.01644609,0.001142754,0.1320169,9.592625
"1.69 sec",0.2767577,1.016351,0.06627315,-6.973749,0.7051007,-0.03518329,-6.956998,0.7424277,0.07846548,0.02351261,0.2364894,-0.01999305,0.02605673,-0.2699905,0.7208019,0.1131474,9.59549,0.01195062,0.005512818,0.1211135,9.537845
"1.7 sec",0.2912182,1.087911,0.0781316,-6.971707,0.7125303,-0.03438504,-6.956749,0.7434029,0.08110742,0.02626141,0.237705,-0.01301716,0.02289582,-0.3291927,0.6540048,0.1060461,9.538641,0.03252703,-0.03906424,0.1159646,8.983934
"1.71 sec",0.2912182,1.087911,0.0781316,-6.971707,0.7199672,-0.03356294,-6.956447,0.7439724,0.08329911,0.03440848,0.2388671,-0.01241481,0.02217238,0.1073975,-0.3404961,0.12352,8.984458,0.02995413,-0.08005688,0.1190473,9.437301
"1.72 sec",0.2912182,1.087911,0.0781316,-6.971707,0.7274112,-0.03271796,-6.956083,0.7449701,0.08576132,0.03828935,0.2400552,-0.02220716,0.02366644,0.1743422,-1.361177,0.1511556,9.4369,0.03834571,-0.07837462,0.1345155,10.02169
"1.73 sec",0.2912182,1.087911,0.0781316,-6.971707,0.734871,-0.03184529,-6.955709,0.7472214,0.08887751,0.03639698,0.2413906,-0.03636253,0.02632786,0.3225653,-1.380006,0.1705923,10.02103,0.03779619,-0.04001474,0.145837,10.15759
"1.74 sec",0.2912182,1.087911,0.0781316,-6.971707,0.7423595,-0.03093817,-6.955361,0.7506064,0.09263171,0.03308198,0.2428418,-0.04451257,0.02943184,0.2976042,-0.386934,0.1570844,10.15625,0.03312846,-0.02663515,0.1483502,10.35528
"1.75 sec",0.2912182,1.087911,0.0781316,-6.971707,0.7498844,-0.02999105,-6.955056,0.7543684,0.09682817,0.02783251,0.2443239,-0.04461594,0.0314864,0.1445478,0.2528712,0.1403275,10.3503,0.03005271,-0.01531112,0.1418811,10.26285
"1.76 sec",0.2912182,1.087911,0.0781316,-6.971707,0.7574458,-0.02900155,-6.9548,0.7578046,0.1010619,0.02342672,0.2457462,-0.03981804,0.0320912,0.01089884,0.6184152,0.1219903,10.26327,0.02513502,-0.008455736,0.1325333,9.983169
"1.77 sec",0.2912182,1.087911,0.0781316,-6.971707,0.7650381,-0.02797087,-6.954575,0.7605515,0.1050295,0.02174029,0.247076,-0.03273834,0.03131368,-0.1259897,0.7422035,0.1092286,9.984124,0.01855766,-0.00103621,0.1226814,9.70918
"1.78 sec",0.2912182,1.087911,0.0781316,-6.971707,0.7726542,-0.02690252,-6.954352,0.762546,0.1085725,0.02276362,0.248307,-0.02492521,0.02910444,-0.2689097,0.7770896,0.09996328,9.710097,0.01223299,0.00487451,0.1129356,9.543962
"1.79 sec",0.2912182,1.087911,0.0781316,-6.971707,0.7802867,-0.02580119,-6.954112,0.7638434,0.1116065,0.02543961,0.24944,-0.01713545,0.02562537,-0.3811593,0.7486732,0.09361865,9.547382,0.007114435,0.009136815,0.1030221,9.512438
"1.8 sec",0.3039136,1.161804,0.09258598,-6.970047,0.787929,-0.02467223,-6.953842,0.7645302,0.1140914,0.02844166,0.2504737,-0.00991152,0.02133478,-0.4391301,0.67464,0.08849082,9.513052,0.03297663,-0.03616726,0.09885495,8.955402
"1.81 sec",0.3039136,1.161804,0.09258598,-6.970047,0.7955759,-0.02352142,-6.953516,0.764836,0.1160519,0.03686678,0.251464,-0.009215102,0.02023503,0.1196268,-0.3401051,0.1057374,8.956034,0.03105811,-0.07755905,0.1008156,9.399246
"1.82 sec",0.3039136,1.161804,0.09258598,-6.970047,0.8032271,-0.02235011,-6.953126,0.765552,0.118282,0.0411175,0.2524703,-0.01908377,0.02215496,0.2344494,-1.374918,0.1311291,9.398843,0.03916437,-0.07768212,0.1167897,10.0672
"1.83 sec",0.3039136,1.161804,0.09258598,-6.970047,0.8108913,-0.02115306,-6.952725,0.7675155,0.1212476,0.03878051,0.2536276,-0.03359548,0.02542794,0.3801115,-1.429816,0.1528527,10.0661,0.03825653,-0.03751547,0.1277163,10.18465
"1.84 sec",0.3039136,1.161804,0.09258598,-6.970047,0.8185814,-0.01992268,-6.952355,0.7706255,0.1249235,0.0351785,0.2548975,-0.04205139,0.02901733,0.3359773,-0.4040482,0.1393101,10.18387,0.03403176,-0.0235945,0.1299029,10.37585
"1.85 sec",0.3039136,1.161804,0.09258598,-6.970047,0.8263051,-0.01865284,-6.952031,0.7741069,0.1290873,0.02971025,0.2561953,-0.04217956,0.03144578,0.1776093,0.2594361,0.1217116,10.3714,0.03012427,-0.01241406,0.1230831,10.26675
"1.86 sec",0.3039136,1.161804,0.09258598,-6.970047,0.8340623,-0.01734083,-6.951756,0.7772462,0.1333065,0.02525094,0.2574298,-0.03728815,0.03225424,0.01987187,0.6282282,0.1027964,10.2673,0.02315952,-0.006261046,0.1137307,9.980312
"1.87 sec",0.3039136,1.161804,0.09258598,-6.970047,0.8418476,-0.0159878,-6.951512,0.7796975,0.1372498,0.02358268,0.2585716,-0.03018941,0.03128324,-0.1652455,0.7376736,0.0905868,9.981247,0.01464282,0.0005219473,0.1041816,9.721496
"1.88 sec",0.3039136,1.161804,0.09258598,-6.970047,0.8496538,-0.01459752,-6.951272,0.7814279,0.1407268,0.02447922,0.2596171,-0.02251355,0.02840715,-0.352387,0.7567884,0.0825555,9.722512,0.007187351,0.006406409,0.09495125,9.58114
"1.89 sec",0.3039136,1.161804,0.09258598,-6.970047,0.857474,-0.01317527,-6.951016,0.7825111,0.1436221,0.02678221,0.2605697,-0.01493615,0.02395934,-0.4835783,0.7268175,0.07736845,9.582911,0.001900754,0.01047139,0.08569343,9.568989
"1.9 sec",0.3147381,1.237852,0.1095601,-6.967772,0.8653021,-0.01172722,-6.950736,0.7830347,0.1458772,0.0292178,0.2614295,-0.007931582,0.01868649,-0.5306114,0.6527203,0.07332691,9.57182,0.03258776,-0.03554511,0.08206164,8.985786
"1.91 sec",0.3147381,1.237852,0.1095601,-6.967772,0.8731334,-0.01025995,-6.950404,0.7832263,0.1475558,0.03732571,0.2622516,-0.00751248,0.01734106,0.1410379,-0.3714457,0.088492,8.986384,0.03134266,-0.07708931,0.08347608,9.370656
"1.92 sec",0.3147381,1.237852,0.1095601,-6.967772,0.880968,-0.008775039,-6.950008,0.783842,0.1495069,0.04184034,0.2630844,-0.01769633,0.01975268,0.2995023,-1.406132,0.1110489,9.370071,0.03951112,-0.07707307,0.1016859,10.05566
"1.93 sec",0.3147381,1.237852,0.1095601,-6.967772,0.8888146,-0.007266888,-6.9496,0.7857048,0.1522572,0.03961524,0.264089,-0.03246932,0.02371203,0.447042,-1.452327,0.1357753,10.05443,0.0386443,-0.03767978,0.1124018,10.18711
"1.94 sec",0.3147381,1.237852,0.1095601,-6.967772,0.8966861,-0.005727133,-6.949222,0.7887166,0.1558026,0.03598463,0.2652055,-0.04119775,0.02792386,0.390947,-0.4342207,0.124385,10.18603,0.03475991,-0.02199606,0.1144202,10.37144
"1.95 sec",0.3147381,1.237852,0.1095601,-6.967772,0.9045902,-0.004148898,-6.948889,0.792098,0.1598962,0.03055283,0.2663485,-0.04140446,0.03087532,0.2244046,0.266133,0.1061846,10.36742,0.0299433,-0.01091681,0.1072058,10.2553
"1.96 sec",0.3147381,1.237852,0.1095601,-6.967772,0.9125268,-0.002528983,-6.948605,0.7951199,0.164081,0.02620129,0.2674245,-0.03638859,0.03199419,0.03759025,0.6430735,0.08661964,10.25597,0.02107649,-0.004333806,0.09782787,9.969611
"1.97 sec",0.3147381,1.237852,0.1095601,-6.967772,0.9204902,-0.0008683561,-6.948351,0.7974408,0.1679915,0.02463592,0.2684072,-0.02908434,0.0309133,-0.1962221,0.7602285,0.07424816,9.970553,0.01086782,0.002911908,0.08857471,9.720984
"1.98 sec",0.3147381,1.237852,0.1095601,-6.967772,0.9284731,0.0008290316,-6.948101,0.799037,0.1713949,0.02553535,0.2692963,-0.02112999,0.02747082,-0.4246341,0.7860415,0.06681807,9.722078,0.002511601,0.009431692,0.07990482,9.592574
"1.99 sec",0.3147381,1.237852,0.1095601,-6.967772,0.9364687,0.002557292,-6.947834,0.7999842,0.1741401,0.02772101,0.2700977,-0.01319527,0.02218678,-0.571682,0.7644317,0.06272844,9.593698,-0.002762989,0.01355164,0.07136985,9.589895
"2 sec",0.4255025,1.296798,0.16398,-6.883005,0.9444709,0.004309386,-6.947546,0.8003657,0.1761526,0.02994358,0.2708135,-0.005822194,0.01608739,-0.6062183,0.6865733,0.060115,9.590828,0.05319958,0.006674909,0.07106531,7.529929
"2.01 sec",0.4255025,1.296798,0.16398,-6.883005,0.9524744,0.00607697,-6.947138,0.8002651,0.1773523,0.05222559,0.2715242,-0.0005414128,0.01702532,0.5639324,0.3977632,0.06441408,7.530228,0.06156001,0.001011977,0.0748163,6.653811
"2.02 sec",0.4255025,1.296798,0.16398,-6.883005,0.9604751,0.007856718,-6.94646,0.799835,0.1786771,0.0835782,0.2722715,0.00185066,0.02535875,0.9767451,0.1232034,0.07178048,6.656467,0.08389111,-0.01066304,0.07911957,6.557839
"2.03 sec",0.3239934,1.315845,0.1290271,-6.965461,0.9684703,0.009652529,-6.945462,0.7991745,0.1806174,0.1161071,0.27306,0.001067383,0.03762599,1.338488,-0.2068533,0.08682428,6.55843,0.07532327,-0.03585832,0.1100171,9.174083
"2.04 sec",0.3239934,1.315845,0.1290271,-6.965461,0.9764571,0.01147698,-6.944262,0.7982048,0.1844926,0.123225,0.2741412,-0.004408804,0.04948364,1.027193,-0.7443753,0.1466198,9.172957,0.05312005,-0.02850166,0.1295468,12.03103
"2.05 sec",0.3239934,1.315845,0.1290271,-6.965461,0.9844347,0.01335284,-6.943133,0.797403,0.1908696,0.1019203,0.2754243,-0.01140668,0.05563339,0.3087649,-0.6242614,0.1643962,12.02893,0.05197217,0.02464444,0.1401285,12.15364
"2.06 sec",0.3239934,1.315845,0.1290271,-6.965461,0.9924065,0.01529645,-6.942229,0.7969357,0.1978722,0.07871855,0.27682,-0.01073849,0.05692143,0.003578549,0.5445757,0.1093186,12.15286,0.04298864,0.04677036,0.1427649,12.06227
"2.07 sec",0.3239934,1.315845,0.1290271,-6.965461,1.000371,0.01730934,-6.941554,0.7958209,0.2046177,0.05636713,0.2782455,-0.001041737,0.05531488,-0.2631106,1.223199,0.07509412,12.06276,0.01787984,0.03667337,0.1286503,11.59788
"2.08 sec",0.3239934,1.315845,0.1290271,-6.965461,1.008319,0.01938511,-6.94108,0.7936065,0.2103591,0.03853326,0.279536,0.01014462,0.04949154,-0.7726197,1.004762,0.07863842,11.59828,-0.006781768,0.03406121,0.1114696,11.01971
"2.09 sec",0.3239934,1.315845,0.1290271,-6.965461,1.016241,0.02151125,-6.940756,0.790706,0.2146273,0.02640962,0.280655,0.0185119,0.03863734,-1.249567,0.6910615,0.08437351,11.02034,-0.023158,0.02769333,0.09543253,10.64386
"2.1 sec",0.3353181,1.393432,0.1523646,-6.969704,1.024133,0.02367198,-6.940534,0.787594,0.2172469,0.01805334,0.2816139,0.02342089,0.02448111,-1.465573,0.3371394,0.08691821,10.64446,0.008629465,-0.02639822,0.08854369,10.43229
"2.11 sec",0.3353181,1.393432,0.1523646,-6.969704,1.031994,0.02585135,-6.940385,0.7847989,0.2184797,0.01182314,0.2825042,0.01949174,0.01446877,-0.6431857,-0.866343,0.101358,10.43935,0.00479817,-0.03302024,0.08457503,9.753992
"2.12 sec",0.4401363,1.378013,0.1903309,-6.968606,1.039833,0.02803988,-6.940266,0.7831348,0.2192033,0.01222515,0.2833546,0.008536134,0.00976037,-0.3340016,-1.197828,0.09647876,9.754872,0.01191606,-0.04166714,0.08698635,9.833488
"2.13 sec",0.4401363,1.378013,0.1903309,-6.968606,1.047661,0.03023555,-6.940144,0.7826791,0.2199625,0.01201497,0.2842244,-0.003998557,0.008147943,-0.03681134,-1.231223,0.09705042,9.833076,0.02233577,-0.03480113,0.09756419,9.701539
"2.14 sec",0.4401363,1.378013,0.1903309,-6.968606,1.05549,0.03244013,-6.940019,0.7833314,0.2210257,0.01307468,0.2851939,-0.01446059,0.009589175,0.2616545,-0.870481,0.1057914,9.702904,0.03518762,-0.02840794,0.1065663,9.751511
"2.15 sec",0.4401363,1.378013,0.1903309,-6.968606,1.06333,0.03465778,-6.939885,0.7847007,0.222604,0.01369452,0.2862536,-0.02094918,0.01401997,0.5485089,-0.4662104,0.1129565,9.750868,0.04187388,-0.02092469,0.1069557,9.795246
"2.16 sec",0.4401363,1.378013,0.1903309,-6.968606,1.071185,0.03689441,-6.939747,0.7863454,0.224833,0.01389267,0.287322,-0.02355873,0.02031095,0.6583453,-0.1064757,0.1090706,9.794682,0.03991246,-0.01267609,0.1012177,9.832747
"2.17 sec",0.4401363,1.378013,0.1903309,-6.968606,1.079057,0.03915658,-6.939609,0.7879039,0.2276928,0.01372894,0.2883373,-0.02289998,0.02625331,0.5270694,0.1836574,0.09645046,9.832232,0.02883301,-0.00339394,0.09227096,9.863401
"2.18 sec",0.4401363,1.378013,0.1903309,-6.968606,1.086942,0.04144965,-6.939474,0.7891397,0.2309569,0.01326196,0.2892651,-0.01961931,0.02948283,0.1729743,0.414901,0.08009515,9.852351,0.01287464,0.006461165,0.08286745,9.896624
"2.19 sec",0.4401363,1.378013,0.1903309,-6.968606,1.094838,0.04377577,-6.939345,0.7899302,0.2342236,0.01246413,0.2900984,-0.01428106,0.02850543,-0.2741391,0.5933149,0.06589527,9.895987,-0.00255968,0.01619055,0.07446432,9.963019
"2.2 sec",0.4490388,1.455726,0.2162265,-6.955441,1.102739,0.04613267,-6.939228,0.790227,0.2370397,0.01099146,0.2908456,-0.007432431,0.02335338,-0.6530591,0.7178618,0.05747691,9.962083,0.02803957,-0.02315157,0.07403407,8.984282
"2.21 sec",0.4490388,1.455726,0.2162265,-6.955441,1.110641,0.04851328,-6.939079,0.7901636,0.239026,0.01902071,0.2915854,-0.005264671,0.02025263,-0.06253421,-0.130324,0.07669211,8.987387,0.03040041,-0.04096697,0.07256542,8.804858
"2.22 sec",0.4490388,1.455726,0.2162265,-6.955441,1.118543,0.05091293,-6.938839,0.7902552,0.2409365,0.02904723,0.2923116,-0.01015808,0.02108218,0.1785874,-0.7069808,0.08742365,8.808909,0.03975184,-0.0570923,0.08092158,9.143547
"2.23 sec",0.4490388,1.455726,0.2162265,-6.955441,1.126448,0.0533336,-6.938514,0.7909385,0.2432879,0.03583058,0.2931151,-0.0195789,0.02424636,0.3970478,-1.053907,0.1062777,9.142774,0.04623616,-0.0630162,0.08917744,9.684895
"2.24 sec",0.4490388,1.455726,0.2162265,-6.955441,1.134365,0.05578161,-6.938148,0.7925143,0.2464455,0.03728549,0.294,-0.03053228,0.02901099,0.5117714,-1.067626,0.1198751,9.684347,0.04485608,-0.03112875,0.09784299,10.09332
"2.25 sec",0.4490388,1.455726,0.2162265,-6.955441,1.142301,0.05826569,-6.937788,0.7948946,0.2504788,0.03466613,0.2949724,-0.03657786,0.03369486,0.4225883,-0.2570646,0.1064359,10.09278,0.0331208,-0.007787802,0.09328911,10.13612
"2.26 sec",0.4490388,1.455726,0.2162265,-6.955441,1.150263,0.06079271,-6.937457,0.7973697,0.2549503,0.03154492,0.2959077,-0.03467982,0.0359665,0.0898895,0.4890794,0.07571768,10.13556,0.01035003,0.00215306,0.08528645,9.886138
"2.27 sec",0.4490388,1.455726,0.2162265,-6.955441,1.158247,0.06336377,-6.937145,0.7993267,0.2591847,0.03083016,0.2967638,-0.02767788,0.0334691,-0.4635508,0.8149799,0.0578262,9.887265,-0.01058121,0.01738289,0.07965411,9.629849
"2.28 sec",0.4490388,1.455726,0.2162265,-6.955441,1.166247,0.06597352,-6.936828,0.8005962,0.262596,0.03263539,0.2975594,-0.01789417,0.02574273,-0.9428556,1.046663,0.05221528,9.631086,-0.02315212,0.02635209,0.0773164,9.481523
"2.29 sec",0.4490388,1.455726,0.2162265,-6.955441,1.174256,0.06861156,-6.936485,0.8011543,0.2647938,0.03591025,0.2983277,-0.006907674,0.01478309,-1.146954,1.084663,0.06064455,9.482877,-0.02536463,0.03472818,0.07639135,9.479417
"2.3 sec",0.4563899,1.53375,0.2438286,-6.95795,1.182268,0.07126494,-6.93611,0.801028,0.2656616,0.03922044,0.2990859,0.003990765,0.003707619,-1.029017,1.043328,0.07196271,9.480286,0.01899539,-0.005031183,0.07991377,9.087276
"2.31 sec",0.4563899,1.53375,0.2438286,-6.95795,1.190275,0.07392134,-6.935682,0.8003819,0.2655425,0.04634957,0.2998815,0.008762119,-0.0002510615,0.05058695,0.07129259,0.07992902,9.087855,0.03160461,-0.0296578,0.07669578,9.322725
"2.32 sec",0.4563899,1.53375,0.2438286,-6.95795,1.198275,0.07657591,-6.935194,0.7996911,0.2654541,0.05128497,0.3006492,0.004685212,0.003743876,0.6162683,-0.7128986,0.07914952,9.321438,0.04213036,-0.05496669,0.07640848,9.990843
"2.33 sec",0.4563899,1.53375,0.2438286,-6.95795,1.206271,0.07923316,-6.934689,0.7994991,0.2661777,0.04965159,0.3014091,-0.006242995,0.01165224,0.8723001,-1.297949,0.0909617,9.990128,0.04893256,-0.02694956,0.0901207,10.255
"2.34 sec",0.4563899,1.53375,0.2438286,-6.95795,1.214268,0.08190364,-6.934214,0.8001371,0.2681185,0.04529034,0.3022986,-0.01590536,0.02085571,0.9116709,-0.6936445,0.1042602,10.25385,0.04571142,-0.005527802,0.09185516,10.27145
"2.35 sec",0.4563899,1.53375,0.2438286,-6.95795,1.222275,0.08459911,-6.933784,0.8011193,0.2711186,0.04072827,0.3032149,-0.0185815,0.02882859,0.6852555,0.03755847,0.09079849,10.26771,0.02921003,-0.000850688,0.08466174,10.16792
"2.36 sec",0.4563899,1.53375,0.2438286,-6.95795,1.23029,0.08732787,-6.933394,0.8018885,0.2746826,0.03718912,0.3040656,-0.01632318,0.03268789,0.1676673,0.3472461,0.07337232,10.16846,0.007710376,0.001481458,0.07642629,10.05892
"2.37 sec",0.4563899,1.53375,0.2438286,-6.95795,1.238311,0.09009258,-6.933034,0.8022977,0.2782056,0.03473469,0.3048337,-0.01232621,0.03070823,-0.4345247,0.4204934,0.06344936,10.05965,-0.01118729,0.006302738,0.06940918,10.01599
"2.38 sec",0.4563899,1.53375,0.2438286,-6.95795,1.246335,0.09288996,-6.932697,0.8024367,0.2811297,0.03270689,0.3055298,-0.007820788,0.02340067,-0.8960841,0.4528174,0.0586211,10.01658,-0.02324419,0.01554628,0.06463802,10.03112
"2.39 sec",0.4563899,1.53375,0.2438286,-6.95795,1.254359,0.0957118,-6.932381,0.8023876,0.2830431,0.0305175,0.3061758,-0.002578948,0.01296673,-1.093855,0.5498312,0.05720441,10.02825,-0.02632088,0.02682523,0.06143468,10.08357
"2.4 sec",0.4640191,1.612534,0.2737855,-6.953986,1.262382,0.0985468,-6.932089,0.8021045,0.2837513,0.02779932,0.3067883,0.003911234,0.002288118,-1.00043,0.686521,0.05950793,10.08284,0.02105012,-0.0137653,0.06353036,9.449692
"2.41 sec",0.4640191,1.612534,0.2737855,-6.953986,1.270401,0.1013837,-6.931795,0.8016174,0.2835642,0.03124177,0.3074216,0.005684044,-0.001107789,0.1234,-0.1760766,0.0633268,9.450508,0.03469103,-0.03878693,0.0594146,9.44113
"2.42 sec",0.4640191,1.612534,0.2737855,-6.953986,1.278415,0.1042187,-6.931464,0.801307,0.2835492,0.03492938,0.3080163,-0.0004775869,0.003750494,0.70837,-0.8853549,0.06242532,9.44322,0.04643448,-0.05120332,0.06420246,9.752937
"2.43 sec",0.4640191,1.612534,0.2737855,-6.953986,1.286429,0.1070578,-6.931111,0.8015978,0.2844602,0.03558472,0.308651,-0.01132823,0.01267163,0.9756032,-1.16858,0.0784291,9.752103,0.05275135,-0.03286988,0.08019625,9.941255
"2.44 sec",0.4640191,1.612534,0.2737855,-6.953986,1.294449,0.1099122,-6.930761,0.8026003,0.2866288,0.03434884,0.30944,-0.02036546,0.0227769,0.9890851,-0.6794227,0.09532111,9.936069,0.0500701,-0.01510443,0.08121485,9.990673
"2.45 sec",0.4640191,1.612534,0.2737855,-6.953986,1.302482,0.1127941,-6.930427,0.8039052,0.289912,0.03261877,0.31025,-0.02355779,0.03146464,0.7496952,-0.05632456,0.08297464,9.989897,0.03328453,-0.009398547,0.07330826,9.938354
"2.46 sec",0.4640191,1.612534,0.2737855,-6.953986,1.310527,0.1157126,-6.930106,0.8050594,0.2938416,0.03140669,0.3109873,-0.02223896,0.03584959,0.2101117,0.2574886,0.06413083,9.939017,0.0091027,-0.00116005,0.06407361,9.880469
"2.47 sec",0.4640191,1.612534,0.2737855,-6.953986,1.318582,0.118671,-6.929796,0.8059113,0.297792,0.03076993,0.3116324,-0.01836099,0.03389913,-0.4581027,0.4615697,0.04834297,9.88124,-0.01351675,0.008195214,0.05675427,9.850583
"2.48 sec",0.4640191,1.612534,0.2737855,-6.953986,1.326644,0.1216663,-6.92949,0.8064622,0.3011056,0.0304164,0.3122014,-0.01270203,0.02581598,-1.006242,0.6126876,0.04063531,9.860155,-0.02858302,0.02156665,0.05280902,9.869788
"2.49 sec",0.4640191,1.612534,0.2737855,-6.953986,1.33471,0.1246893,-6.929188,0.8067128,0.3032655,0.02984523,0.3127271,-0.005297388,0.01386372,-1.266585,0.793909,0.04129045,9.867635,-0.03281478,0.03475381,0.05134125,9.928195
"2.5 sec",0.4704175,1.6918,0.305202,-6.950805,1.342777,0.1277269,-6.928895,0.8065647,0.3040035,0.02868245,0.3132355,0.00379536,0.001360232,-1.180879,0.9454039,0.04947644,9.927365,0.01680812,-0.004531458,0.05518844,9.326566
"2.51 sec",0.4704175,1.6918,0.305202,-6.950805,1.35084,0.1307655,-6.928586,0.80603,0.3036323,0.03336535,0.3137836,0.008102098,-0.003428461,0.01848445,0.06158658,0.05539673,9.327215,0.03434138,-0.02838621,0.0519924,9.334676
"2.52 sec",0.4704175,1.6918,0.305202,-6.950805,1.358898,0.1337996,-6.928228,0.8054808,0.3032822,0.03812241,0.3143041,0.00419713,0.001074909,0.7212679,-0.6786262,0.05248238,9.332621,0.04456577,-0.05043157,0.05090574,9.714152
"2.53 sec",0.4704175,1.6918,0.305202,-6.950805,1.366951,0.136834,-6.927842,0.8053613,0.303795,0.03918074,0.3148091,-0.005953104,0.01016383,0.9936244,-1.194854,0.0624483,9.713456,0.05234259,-0.03444901,0.06464609,9.997005
"2.54 sec",0.4704175,1.6918,0.305202,-6.950805,1.375007,0.1398799,-6.927458,0.8059554,0.3056034,0.03740218,0.3154431,-0.01594448,0.02061665,1.032652,-0.817936,0.08107218,9.99612,0.05005371,-0.01177606,0.06846473,10.04487
"2.55 sec",0.4704175,1.6918,0.305202,-6.950805,1.383072,0.1429501,-6.927096,0.8069353,0.3086076,0.03511596,0.3161236,-0.02003393,0.02980048,0.8001251,-0.1096151,0.071693,10.04428,0.0329893,-0.006602663,0.0609699,9.985525
"2.56 sec",0.4704175,1.6918,0.305202,-6.950805,1.391146,0.1460544,-6.926753,0.8078023,0.312324,0.03341888,0.3167373,-0.01909436,0.03462917,0.2474702,0.2309114,0.05302554,9.98629,0.008447284,-0.0003088013,0.0520609,9.925919
"2.57 sec",0.4704175,1.6918,0.305202,-6.950805,1.399227,0.1491968,-6.926425,0.80839,0.3161054,0.03231828,0.3172622,-0.01562912,0.03295534,-0.4389856,0.4115154,0.03842792,9.926743,-0.01414271,0.008264967,0.04493042,9.906726
"2.58 sec",0.4704175,1.6918,0.305202,-6.950805,1.407313,0.1523745,-6.926106,0.8087219,0.3192839,0.03139898,0.3177131,-0.0105575,0.02501753,-0.9959871,0.5502257,0.03089608,9.911202,-0.02927151,0.02237633,0.04114247,9.933015
"2.59 sec",0.4704175,1.6918,0.305202,-6.950805,1.4154,0.1555787,-6.925798,0.8088089,0.3213292,0.03019502,0.3181224,-0.003655609,0.01313624,-1.262256,0.7538495,0.03075524,9.927918,-0.0336921,0.03549071,0.03997925,9.994456
