Time,desired yaw,desired x,desired y,desired z,WorldPosition_1,WorldPosition_2,WorldPosition_3,WorldVelocity_1,WorldVelocity_2,WorldVelocity_3,EulerZYX_1,EulerZYX_2,EulerZYX_3,BodyAngularRateRPY_1,BodyAngularRateRPY_2,BodyAngularRateRPY_3,Thrust,Roll CS,Pitch CS,Yaw CS,Thrust CS
"0 sec",0.2617994,0.37414,0.1002505,-6.938652,0,0,-7,0,0,0,0,0,0,0,0,0,0,0.1680236,-0.170447,0.5,5.979641
"0.01 sec",0.2617994,0.37414,0.1002505,-6.938652,1.149419e-06,1.137331e-06,-6.999794,0.0004343654,0.0004302935,0.03984202,0.004721938,-0.01987457,0.0195407,3.194482,-3.232759,0.558138,5.979239,0.1672208,-0.1712344,0.5,5.979641
"0.02 sec",0.2617994,0.37414,0.1002505,-6.938652,1.482734e-05,1.472992e-05,-6.999203,0.002655169,0.002643018,0.07823418,0.009658886,-0.05565576,0.05446329,3.565264,-3.605745,0.6899351,5.979245,0.1663776,-0.1720534,0.5,5.979641
"0.03 sec",0.2617994,0.37414,0.1002505,-6.938652,6.125257e-05,6.106825e-05,-6.998228,0.006957633,0.006958387,0.1168547,0.01460128,-0.08956756,0.08720598,2.987383,-3.01036,0.7583908,5.979242,0.1655294,-0.1728689,0.4943962,5.979641
"0.04 sec",0.2617994,0.37414,0.1002505,-6.938652,0.0001598135,0.0001598945,-6.996865,0.01300742,0.01306924,0.1557833,0.01951216,-0.1164157,0.1127281,2.225361,-2.23162,0.7442268,5.979497,0.1646828,-0.1736749,0.4845745,5.979641
"0.05 sec",0.2617994,0.37414,0.1002505,-6.938652,0.0003256918,0.0003269496,-6.995111,0.02034703,0.02053085,0.1950117,0.02434435,-0.1359559,0.1308601,1.553476,-1.550593,0.6870726,5.979434,0.1638459,-0.1744638,0.4749101,5.979641
"0.06 sec",0.2617994,0.37414,0.1002505,-6.938652,0.0005697086,0.0005736647,-6.992964,0.02857672,0.02894164,0.2344849,0.02908987,-0.1495398,0.1429901,1.04076,-1.034348,0.6228259,5.977108,0.07559463,-0.08036525,0.4654191,12.85033
"0.07 sec",0.2617994,0.37414,0.1002505,-6.938652,0.0009456527,0.0009555806,-6.990741,0.04679301,0.04764001,0.2085613,0.03374676,-0.1476929,0.1405554,-0.9843385,1.110109,0.3073169,12.84915,0.06961931,-0.07467414,0.4561053,13.88222
"0.08 sec",0.2617994,0.37414,0.1002505,-6.938652,0.001508098,0.001529334,-6.988842,0.06540358,0.06682231,0.1707075,0.03830187,-0.1332758,0.126451,-1.525792,1.679601,0.2407901,13.87849,0.06927876,-0.07499011,0.446995,13.88222
"0.09 sec",0.2617994,0.37414,0.1002505,-6.938652,0.002246574,0.00228489,-6.987329,0.08193442,0.08393005,0.1320422,0.04276317,-0.1173364,0.1109778,-1.396651,1.530787,0.2749076,13.88004,0.06894384,-0.07529805,0.4380724,13.88222
"0.1 sec",0.208784,0.3859563,0.08430911,-6.960361,0.003140161,0.003201255,-6.986203,0.09648628,0.09904233,0.09291642,0.04713902,-0.1041014,0.09802582,-1.085463,1.185042,0.3205463,13.88027,-0.06365749,-0.06936607,0.32329,13.87139
"0.11 sec",0.208784,0.3859563,0.08430911,-6.960361,0.004171134,0.004258342,-6.985471,0.1094949,0.1117796,0.05350564,0.0504177,-0.09362548,0.07290751,-3.29977,0.9523007,0.2515684,13.87507,-0.07564545,-0.06856238,0.3167326,13.88222
"0.12 sec",0.208784,0.3859563,0.08430911,-6.960361,0.005326576,0.005421754,-6.985135,0.1214495,0.1200666,0.01355679,0.05357309,-0.08547089,0.0370457,-3.565403,0.7099855,0.2881528,13.88019,-0.07586124,-0.06832345,0.3104219,13.88222
"0.13 sec",0.208784,0.3859563,0.08430911,-6.960361,0.00659777,0.006643225,-6.9852,0.1326949,0.1234579,-0.02666112,0.05667001,-0.07953849,0.003864255,-2.952821,0.4948775,0.3067447,13.8802,-0.07607231,-0.06808828,0.304228,13.88222
"0.14 sec",0.208784,0.3859563,0.08430911,-6.960361,0.007978956,0.007877168,-6.985669,0.1434825,0.1227323,-0.06695735,0.05970968,-0.07542225,-0.02205147,-2.186214,0.329688,0.3103078,13.8817,-0.07627875,-0.06785682,0.2981487,13.88222
"0.15 sec",0.208784,0.3859563,0.08430911,-6.960361,0.009466476,0.009087652,-6.986539,0.1539848,0.1189361,-0.1072277,0.06269145,-0.07264391,-0.04068915,-1.521101,0.2125806,0.3060749,13.88155,-0.0764806,-0.06762916,0.2921852,13.88222
"0.16 sec",0.208784,0.3859563,0.08430911,-6.960361,0.01105808,0.01024877,-6.987813,0.1643149,0.1129951,-0.1474365,0.06561505,-0.07079177,-0.05346326,-1.017309,0.133708,0.2989407,13.88184,-0.1089227,-0.0960177,0.286338,9.782368
"0.17 sec",0.208784,0.3859563,0.08430911,-6.960361,0.01273841,0.01135256,-6.989294,0.171728,0.1076174,-0.1477846,0.06848264,-0.07288342,-0.06571537,-1.274182,-0.4600904,0.2562058,9.786414,-0.1792441,-0.1585926,0.2806028,5.979641
"0.18 sec",0.208784,0.3859563,0.08430911,-6.960361,0.01448048,0.01240841,-6.990588,0.1767543,0.1034132,-0.1101007,0.07130452,-0.08531392,-0.08617874,-2.436436,-1.744831,0.1320394,5.981604,-0.179689,-0.1580871,0.274959,5.979641
"0.19 sec",0.208784,0.3859563,0.08430911,-6.960361,0.01627712,0.01341637,-6.991495,0.1827715,0.09794948,-0.07123996,0.07408018,-0.1034019,-0.1108298,-2.324389,-1.799249,0.07716507,5.981106,-0.1801253,-0.1575885,0.2694077,5.979641
"0.2 sec",0.1218115,0.4066832,0.06192764,-6.96822,0.01813971,0.01436309,-6.992012,0.1899222,0.09120116,-0.03212079,0.07679559,-0.1196227,-0.1320589,-1.83513,-1.462518,0.07701833,5.980743,-0.0774261,-0.06654408,0.09003179,13.88222
"0.21 sec",0.1218115,0.4066832,0.06192764,-6.96822,0.0201271,0.01519048,-6.992506,0.2078435,0.07396416,-0.06853842,0.07779119,-0.1214722,-0.1361227,0.613955,0.6549444,0.1800783,13.88046,-0.07749227,-0.06646696,0.08804059,13.88222
"0.22 sec",0.1218115,0.4066832,0.06192764,-6.96822,0.02229384,0.01584451,-6.993384,0.2252576,0.05706345,-0.1071217,0.07867775,-0.1113124,-0.125931,1.263197,1.179943,0.2383355,13.88133,-0.1100345,-0.09447356,0.08626747,9.793991
"0.23 sec",0.1218115,0.4066832,0.06192764,-6.96822,0.02460454,0.01635848,-6.994458,0.2366176,0.04597699,-0.1067275,0.0795457,-0.1026551,-0.1170866,0.6021152,0.584351,0.1553345,9.79598,-0.1568127,-0.1351759,0.08453158,6.891811
"0.24 sec",0.1218115,0.4066832,0.06192764,-6.96822,0.02700941,0.01678031,-6.995382,0.2442884,0.03845065,-0.07745612,0.08039252,-0.1031024,-0.1184023,-0.6078795,-0.4848763,0.02713309,6.892817,-0.1744207,-0.1505025,0.08283792,6.206584
"0.25 sec",0.1218115,0.4066832,0.06192764,-6.96822,0.02948781,0.01712984,-6.995975,0.2514647,0.03137696,-0.04077611,0.0812259,-0.1112885,-0.1283711,-1.198835,-1.013112,-0.04713975,6.207656,-0.1597005,-0.1372526,0.08117117,6.777905
"0.26 sec",0.1218115,0.4066832,0.06192764,-6.96822,0.03204414,0.0174024,-6.996224,0.2599237,0.0230128,-0.009254138,0.08204334,-0.1199495,-0.1387674,-0.8669922,-0.7318071,-0.02049124,6.777404,-0.1380747,-0.1181171,0.07953629,7.836498
"0.27 sec",0.1218115,0.4066832,0.06192764,-6.96822,0.03469451,0.01758189,-6.996209,0.270237,0.01279467,0.01211277,0.08284086,-0.1237948,-0.1435817,-0.1811188,-0.1441093,0.05893154,7.831994,-0.1218456,-0.1038631,0.07794125,8.880028
"0.28 sec",0.1218115,0.4066832,0.06192764,-6.96822,0.03745583,0.01765137,-6.996031,0.2820364,0.001091286,0.02325396,0.0836213,-0.1222228,-0.1421159,0.3779219,0.3327365,0.1258155,8.875647,-0.1121127,-0.09531561,0.07638037,9.653639
"0.29 sec",0.1218115,0.4066832,0.06192764,-6.96822,0.04033896,0.0176,-6.99578,0.2945299,-0.01130614,0.02663844,0.08438729,-0.1171534,-0.136566,0.6643687,0.57557,0.1558608,9.652434,-0.1046013,-0.09118931,0.07484838,10.09658
"0.3 sec",0.1303018,0.4316624,0.06831114,-6.975115,0.04334707,0.01742463,-6.995519,0.3069935,-0.02366447,0.02542594,0.08513892,-0.1108314,-0.1291865,0.7676486,0.6153736,0.155204,10.09616,0.06569536,-0.07814711,0.09032577,13.88222
"0.31 sec",0.1303018,0.4316624,0.06831114,-6.975115,0.04649746,0.01711071,-6.99545,0.3229825,-0.03860624,-0.01257302,0.0860439,-0.1035155,-0.1022592,3.885763,0.7523282,0.1690172,13.88037,0.06562468,-0.07820644,0.0885158,13.88222
"0.32 sec",0.1303018,0.4316624,0.06831114,-6.975115,0.04980205,0.01666939,-6.995773,0.3376971,-0.04871845,-0.05213176,0.08694529,-0.09630833,-0.0610867,4.096644,0.6498637,0.1294177,13.88116,0.06942705,-0.08291407,0.08671303,13.10898
"0.33 sec",0.1303018,0.4316624,0.06831114,-6.975115,0.05324339,0.01615623,-6.996458,0.3503717,-0.0530822,-0.08462491,0.08782393,-0.09109651,-0.02308167,3.436085,0.4030658,0.09642035,13.11025,0.1026416,-0.1232055,0.08495574,8.866109
"0.34 sec",0.1303018,0.4316624,0.06831114,-6.975115,0.05678858,0.01562366,-6.997265,0.3585515,-0.05291487,-0.07589559,0.0886727,-0.09258447,0.01068884,3.192543,-0.5161747,0.08930571,8.868083,0.1297445,-0.1565808,0.0832582,7.014293
"0.35 sec",0.1303018,0.4316624,0.06831114,-6.975115,0.0604071,0.01510504,-6.997887,0.3651981,-0.05043736,-0.0480531,0.08949003,-0.1029313,0.04233183,3.011038,-1.332289,0.1372767,7.015187,0.1331914,-0.1610956,0.08162355,6.82712
"0.36 sec",0.1303018,0.4316624,0.06831114,-6.975115,0.064094,0.01462162,-6.998217,0.3723083,-0.0459241,-0.01774776,0.09028696,-0.1171724,0.0696791,2.434579,-1.407563,0.1777046,6.83078,0.121107,-0.1464554,0.0800297,7.49734
"0.37 sec",0.1303018,0.4316624,0.06831114,-6.975115,0.06785937,0.01419503,-6.998273,0.3808967,-0.03912561,0.006357485,0.09107596,-0.1284925,0.0892086,1.551549,-0.8756921,0.1572798,7.49655,0.1075438,-0.1300282,0.07845169,8.430533
"0.38 sec",0.1303018,0.4316624,0.06831114,-6.975115,0.07171895,0.01384772,-6.998133,0.3911014,-0.030158,0.02149646,0.0918579,-0.1336198,0.09994679,0.7171422,-0.2267105,0.1007801,8.428201,0.09773655,-0.118221,0.0768878,9.264663
"0.39 sec",0.1303018,0.4316624,0.06831114,-6.975115,0.07568663,0.01359838,-6.997882,0.4024433,-0.01963139,0.02846839,0.0926275,-0.1331427,0.1036331,0.1325812,0.2441115,0.05124436,9.262945,0.09341068,-0.09645055,0.07534862,9.828629
"0.4 sec",0.2555207,0.4576714,0.112178,-6.962382,0.0797701,0.01345851,-6.99759,0.4141732,-0.008342484,0.02978682,0.09338158,-0.1275445,0.1031269,-0.1557857,0.7557087,-0.003139627,9.828071,0.1514904,-0.1852671,0.3242782,5.979641
"0.41 sec",0.2555207,0.4576714,0.112178,-6.962382,0.08394751,0.01341057,-6.997106,0.4212202,-0.001296838,0.06792668,0.09649555,-0.1300737,0.1078358,0.9214128,-0.8824015,0.4185747,5.981616,0.150916,-0.1857335,0.3180503,5.979641
"0.42 sec",0.2555207,0.4576714,0.112178,-6.962382,0.0881959,0.01343443,-6.996231,0.4285558,0.006181405,0.1071558,0.09967366,-0.1417126,0.1177525,1.066147,-1.227426,0.4616192,5.982247,0.1503284,-0.1862075,0.3116941,5.979641
"0.43 sec",0.2555207,0.4576714,0.112178,-6.962382,0.09252076,0.01353651,-6.994962,0.4365214,0.01434327,0.1465571,0.102788,-0.1540088,0.1272378,0.9026095,-1.094282,0.4500172,5.980276,0.106918,-0.1324024,0.3054654,8.359836
"0.44 sec",0.2555207,0.4576714,0.112178,-6.962382,0.0969438,0.01373923,-6.99341,0.4482058,0.02632635,0.163374,0.1058447,-0.1578723,0.1296378,-0.1394009,0.1822232,0.2804512,8.359278,0.06855602,-0.08509047,0.2993521,12.9741
"0.45 sec",0.2555207,0.4576714,0.112178,-6.962382,0.1015147,0.01409368,-6.99191,0.4659489,0.04453342,0.1354559,0.1088371,-0.1485839,0.1214902,-1.156588,1.44252,0.1212557,12.97377,0.06382713,-0.07967928,0.2933673,13.88222
"0.46 sec",0.2555207,0.4576714,0.112178,-6.962382,0.106263,0.01463016,-6.990745,0.4833992,0.0624538,0.09724428,0.1117626,-0.1326386,0.1081008,-1.33116,1.661821,0.1109519,13.87923,0.06521606,-0.0659722,0.2875163,13.86959
"0.47 sec",0.2555207,0.4576714,0.112178,-6.962382,0.1111757,0.01533585,-6.989966,0.4987906,0.0783597,0.05842645,0.1146293,-0.1157102,0.09548938,-1.095601,1.668873,0.126048,13.87159,0.07846038,0.02578678,0.2817829,13.34659
"0.48 sec",0.2555207,0.4576714,0.112178,-6.962382,0.1162281,0.01618895,-6.989553,0.511109,0.09200627,0.02420117,0.117439,-0.09002111,0.0872389,-0.5551107,3.084281,0.01097585,13.34703,0.09401397,0.07445925,0.2761633,11.82716
"0.49 sec",0.2555207,0.4576714,0.112178,-6.962382,0.1213794,0.01716525,-6.989412,0.5184144,0.1030897,0.004391688,0.1201984,-0.05372415,0.08482586,0.01453964,3.847375,-0.05044772,11.82805,0.1056623,0.08329508,0.2706446,10.55029
"0.5 sec",0.1705598,0.5120247,0.08463007,-6.96078,0.1265796,0.01824365,-6.989406,0.5209564,0.1125279,-0.002879845,0.1229118,-0.01635411,0.08728499,0.4054777,3.504131,-0.03429256,10.55132,-0.163288,-0.1288812,0.09529604,6.859224
"0.51 sec",0.1705598,0.5120247,0.08463007,-6.96078,0.1317892,0.01939826,-6.989295,0.5209277,0.1179898,0.02589985,0.123955,-0.009954981,0.06034964,-4.663958,-1.314457,0.1776576,6.863716,-0.1299627,-0.1019153,0.09320946,8.611032
"0.52 sec",0.1705598,0.5120247,0.08463007,-6.96078,0.1370026,0.02059765,-6.988971,0.5221109,0.1212562,0.03841731,0.1249318,-0.02802909,0.01214587,-4.69787,-2.049852,0.1230372,8.610164,-0.114091,-0.08913645,0.09125593,9.810061
"0.53 sec",0.1705598,0.5120247,0.08463007,-6.96078,0.1422406,0.02181106,-6.988584,0.5258811,0.1208048,0.03880604,0.1258856,-0.04657729,-0.02880101,-3.488206,-1.637236,0.0470561,9.808994,-0.1078226,-0.08402174,0.08934838,10.38566
"0.54 sec",0.1705598,0.5120247,0.08463007,-6.96078,0.1475284,0.02300223,-6.988222,0.5319825,0.1169656,0.03345232,0.1268011,-0.06005303,-0.05750473,-2.308908,-1.093245,0.02775627,10.38513,-0.1065134,-0.08283423,0.08751741,10.52028
"0.55 sec",0.1705598,0.5120247,0.08463007,-6.96078,0.1528855,0.02414252,-6.98792,0.539618,0.1107888,0.02684528,0.1276861,-0.06878152,-0.07613328,-1.463636,-0.6898199,0.03549038,10.51901,-0.1076501,-0.08357374,0.08574727,10.41674
"0.56 sec",0.1705598,0.5120247,0.08463007,-6.96078,0.1583235,0.02521352,-6.987679,0.5480987,0.1032232,0.02137418,0.1285481,-0.07432352,-0.08800819,-0.9343044,-0.4454815,0.04676006,10.41732,-0.1097406,-0.08506157,0.08402327,10.22588
"0.57 sec",0.1705598,0.5120247,0.08463007,-6.96078,0.1638486,0.02620466,-6.987484,0.557009,0.0948853,0.01789808,0.1293908,-0.07802495,-0.09579016,-0.625123,-0.3124,0.05424158,10.23006,-0.1118151,-0.08653554,0.08233789,10.04345
"0.58 sec",0.1705598,0.5120247,0.08463007,-6.96078,0.1694642,0.02710998,-6.987313,0.5661575,0.08610061,0.01632038,0.1302159,-0.08072075,-0.1011824,-0.4447087,-0.2395744,0.05822477,10.04664,-0.1032092,-0.005964321,0.08068785,9.863537
"0.59 sec",0.1705598,0.5120247,0.08463007,-6.96078,0.175171,0.02792605,-6.987148,0.5750916,0.07705938,0.01656118,0.1310228,-0.07331175,-0.1039352,-0.1370321,1.349936,0.2216125,9.866645,-0.08738033,0.1144457,0.07907394,9.863513
"0.6 sec",0.1894425,0.5645359,0.1021975,-6.951552,0.1809606,0.02865014,-6.986982,0.5823213,0.06771436,0.01673942,0.1318161,-0.04382697,-0.1027983,0.2858846,3.854197,0.477553,9.864351,0.1443033,-0.190893,0.1152526,5.979641
"0.61 sec",0.1894425,0.5645359,0.1021975,-6.951552,0.1867991,0.02929926,-6.986631,0.5852692,0.06250584,0.05434554,0.1329486,-0.03929513,-0.07244463,4.762707,-1.89524,-0.02621244,5.981574,0.1440883,-0.1910545,0.1129876,5.979641
"0.62 sec",0.1894425,0.5645359,0.1021975,-6.951552,0.1926681,0.02990974,-6.985895,0.5887343,0.06014268,0.09280512,0.1340068,-0.06754489,-0.02066313,5.228364,-3.326256,0.03514384,5.980954,0.1438873,-0.1912051,0.1108714,5.979641
"0.63 sec",0.1894425,0.5645359,0.1021975,-6.951552,0.1985789,0.03051318,-6.984775,0.5936834,0.06106889,0.1313297,0.1350337,-0.1005158,0.02766834,4.354783,-3.119918,0.1896006,5.980728,0.08634683,-0.1140277,0.1088175,9.929003
"0.64 sec",0.1894425,0.5645359,0.1021975,-6.951552,0.2045654,0.03115034,-6.983454,0.6039442,0.06695206,0.1318712,0.1360875,-0.1195338,0.05876479,2.139363,-0.9766152,0.1644882,9.927087,0.06664151,-0.088032,0.1067099,12.84064
"0.65 sec",0.1894425,0.5645359,0.1021975,-6.951552,0.2106752,0.03187072,-6.982274,0.6180933,0.0774499,0.103534,0.1371529,-0.121365,0.07155006,0.6570247,0.3752637,0.07941467,12.8395,0.06315472,-0.08358759,0.104579,13.52953
"0.66 sec",0.1894425,0.5645359,0.1021975,-6.951552,0.2169289,0.03270496,-6.981416,0.6325119,0.08945078,0.06782421,0.1382006,-0.1149101,0.074168,0.002651474,0.8084595,0.04410297,13.52845,0.06594509,-0.08749126,0.1024837,12.9399
"0.67 sec",0.1894425,0.5645359,0.1021975,-6.951552,0.2233192,0.03365693,-6.98089,0.6453647,0.100888,0.03752231,0.1392261,-0.1072361,0.07316133,-0.146869,0.7129774,0.04985189,12.94043,0.08886072,0.02493135,0.1004327,11.84284
"0.68 sec",0.1894425,0.5645359,0.1021975,-6.951552,0.2298269,0.03471729,-6.980614,0.6557631,0.1111287,0.01781553,0.1402325,-0.08789776,0.0741142,0.271298,2.674277,-0.09791686,11.84459,0.06096694,0.08489999,0.09841993,10.8312
"0.69 sec",0.1894425,0.5645359,0.1021975,-6.951552,0.2364204,0.03587453,-6.980487,0.6622777,0.1202079,0.007926376,0.1412176,-0.05285304,0.07405865,-0.1813932,3.899664,-0.1911399,10.83247,0.01352851,0.09859751,0.0964497,10.06511
"0.7 sec",0.1910033,0.6271732,0.1113883,-6.953337,0.2430578,0.03711553,-6.98042,0.6645612,0.1277443,0.005493635,0.1421678,-0.01343405,0.06598494,-1.188957,3.781901,-0.1555512,10.06635,0.06569725,-0.08788516,0.09767112,12.92036
"0.71 sec",0.1910033,0.6271732,0.1113883,-6.953337,0.2497012,0.03843326,-6.980513,0.6638905,0.1356743,-0.02463084,0.1431367,-0.0009859867,0.05931607,-0.281654,-0.5269781,0.1292005,12.91851,0.08221224,-0.1103721,0.0957332,10.31574
"0.72 sec",0.1910033,0.6271732,0.1113883,-6.953337,0.2563381,0.0398209,-6.98079,0.6637731,0.1418776,-0.03016872,0.1440939,-0.0167023,0.06040567,0.3699645,-2.191597,0.2280516,10.3164,0.09550116,-0.1286644,0.09381875,8.872437
"0.73 sec",0.1910033,0.6271732,0.1113883,-6.953337,0.2629828,0.04126874,-6.981047,0.6655117,0.1478129,-0.02094562,0.1450254,-0.04202625,0.06654153,0.7549661,-2.626255,0.2679512,8.873304,0.08451398,-0.1335708,0.09195578,8.395852
"0.74 sec",0.1910033,0.6271732,0.1113883,-6.953337,0.2696548,0.0427786,-6.981185,0.6692183,0.154289,-0.006592283,0.1459376,-0.06741082,0.07282047,0.5212661,-2.339224,0.2620006,8.396272,-0.001128936,-0.1190946,0.09013146,8.495135
"0.75 sec",0.1910033,0.6271732,0.1113883,-6.953337,0.2763736,0.04435648,-6.981183,0.6748368,0.1612434,0.007054907,0.1468441,-0.08655357,0.06707558,-1.278144,-1.5184,0.1929989,8.494566,-0.07521499,-0.1025367,0.08831844,8.931437
"0.76 sec",0.1910033,0.6271732,0.1113883,-6.953337,0.2831579,0.04600151,-6.981065,0.6822311,0.1674398,0.01647826,0.1477403,-0.09693439,0.04331855,-2.994056,-0.6530119,0.117344,8.931014,-0.1211832,-0.0903508,0.08652604,9.39978
"0.77 sec",0.1910033,0.6271732,0.1113883,-6.953337,0.2900236,0.04769755,-6.980876,0.6910356,0.1712207,0.02119601,0.1486121,-0.09982625,0.007401151,-3.813837,-0.02543184,0.0863754,9.399366,-0.09116416,0.09008293,0.08478239,9.680607
"0.78 sec",0.1910033,0.6271732,0.1113883,-6.953337,0.2969798,0.04941448,-6.980655,0.6999456,0.1715903,0.02298023,0.149428,-0.07784726,-0.02538412,-2.749194,3.598455,0.170849,9.679573,-0.08500719,0.1156752,0.08315074,9.893238
"0.79 sec",0.1910033,0.6271732,0.1113883,-6.953337,0.3040132,0.05111868,-6.980427,0.7060862,0.1687824,0.02244142,0.1502113,-0.03520728,-0.04767069,-1.765426,4.504309,0.2938763,9.886627,-0.08439665,0.115026,0.08158404,9.954061
"0.8 sec",0.2064689,0.6945938,0.1331087,-6.963914,0.3110881,0.052782,-6.980209,0.708222,0.1635439,0.02118716,0.1509958,0.007476155,-0.0617982,-1.106936,3.890413,0.3201648,9.953051,0.06041607,-0.08229341,0.110946,13.88222
"0.81 sec",0.2064689,0.6945938,0.1331087,-6.963914,0.3181663,0.05437407,-6.980189,0.707157,0.1549731,-0.01825585,0.1520878,0.0187993,-0.05373386,2.06183,-0.8027633,0.06723236,13.88033,0.06032626,-0.08235919,0.1087621,13.88222
"0.82 sec",0.2064689,0.6945938,0.1331087,-6.963914,0.3252328,0.05589075,-6.980575,0.706429,0.1489923,-0.05884181,0.1531567,0.002557579,-0.02894141,2.644257,-2.110172,0.04489379,13.88116,0.06023829,-0.08242349,0.1066244,13.88222
"0.83 sec",0.2064689,0.6945938,0.1331087,-6.963914,0.3323024,0.05736725,-6.981367,0.7079077,0.1469623,-0.09953483,0.1541959,-0.01911068,-0.003806029,2.309378,-2.105669,0.09605697,13.88138,0.08043459,-0.1105027,0.1045458,10.3867
"0.84 sec",0.2064689,0.6945938,0.1331087,-6.963914,0.3393949,0.05884099,-6.982399,0.7109032,0.1482349,-0.1061421,0.1552164,-0.04150932,0.01887657,2.140031,-2.223923,0.1439902,10.38973,0.1225727,-0.1697077,0.1025049,6.816154
"0.85 sec",0.2064689,0.6945938,0.1331087,-6.963914,0.3465197,0.06033515,-6.983319,0.714288,0.1508965,-0.07698105,0.1562094,-0.06886903,0.04287234,2.473185,-2.946428,0.2250182,6.8182,0.1396338,-0.1943153,0.1005189,5.979641
"0.86 sec",0.2064689,0.6945938,0.1331087,-6.963914,0.3536837,0.06186304,-6.983898,0.7187513,0.1549663,-0.03858351,0.1571757,-0.09996605,0.06791444,2.422669,-3.056551,0.3043097,5.980188,0.1324402,-0.1844426,0.09858629,6.294003
"0.87 sec",0.2064689,0.6945938,0.1331087,-6.963914,0.3609013,0.06344144,-6.984105,0.7250183,0.1609823,-0.002737027,0.1581324,-0.1269427,0.08890764,1.800602,-2.301408,0.3011393,6.293114,0.05532708,0.1286039,0.09667283,7.398424
"0.88 sec",0.2064689,0.6945938,0.1331087,-6.963914,0.3681918,0.06509212,-6.984004,0.7328879,0.1692177,0.02254872,0.1590987,-0.1101281,0.09498069,-0.2100283,4.302936,-0.3137801,7.396935,-0.0364324,0.1233678,0.0947403,8.646801
"0.89 sec",0.2064689,0.6945938,0.1331087,-6.963914,0.3755541,0.06682935,-6.983714,0.7388936,0.1779045,0.0351612,0.1600057,-0.05886405,0.07848295,-2.53472,5.427884,-0.3389798,8.645169,-0.08638686,0.1202238,0.09292638,9.595593
"0.9 sec",0.2108162,0.7656968,0.1505484,-6.958925,0.3829571,0.0686437,-6.983347,0.7410018,0.1843225,0.03780235,0.1608496,-0.007656029,0.04514781,-3.715766,4.665721,-0.1267576,9.594311,0.1387363,-0.194953,0.09993333,5.979641
"0.91 sec",0.2108162,0.7656968,0.1505484,-6.958925,0.3903653,0.07049853,-6.982787,0.740633,0.1865106,0.07522103,0.1618251,-0.00342034,0.03531229,0.9132704,-2.466372,0.1862024,5.982792,0.1385473,-0.1950866,0.09798232,5.979641
"0.92 sec",0.2108162,0.7656968,0.1505484,-6.958925,0.3977738,0.07237609,-6.981843,0.7414019,0.189232,0.1135951,0.1627752,-0.03953598,0.05242066,2.175393,-4.204535,0.3140323,5.980478,0.08394842,-0.1174855,0.09608206,9.835724
"0.93 sec",0.2108162,0.7656968,0.1505484,-6.958925,0.405208,0.07430039,-6.980697,0.7459394,0.1960232,0.1146742,0.1637083,-0.07214061,0.06821024,1.110325,-2.44887,0.261872,9.833833,0.0678591,-0.09500248,0.09421599,12.147
"0.94 sec",0.2108162,0.7656968,0.1505484,-6.958925,0.4127071,0.07631044,-6.979658,0.7542111,0.2062064,0.09261283,0.1646451,-0.08853832,0.07432505,0.2578222,-0.9968587,0.1681879,12.14666,0.0345992,-0.08580847,0.09234238,12.68651
"0.95 sec",0.2108162,0.7656968,0.1505484,-6.958925,0.4202981,0.07842813,-6.97887,0.7641189,0.217289,0.06486113,0.1655699,-0.09383685,0.07108903,-0.6880013,-0.1749827,0.1047019,12.686,-0.0532155,-0.07397909,0.09049267,12.26028
"0.96 sec",0.2108162,0.7656968,0.1505484,-6.958925,0.4279892,0.08065076,-6.978341,0.7741238,0.2268485,0.04103383,0.1664744,-0.09253495,0.05272701,-2.513803,0.3400584,0.07187133,12.26071,-0.08969724,-0.006061035,0.08868369,11.44973
"0.97 sec",0.2108162,0.7656968,0.1505484,-6.958925,0.435777,0.08295225,-6.978012,0.7832983,0.2328178,0.0249577,0.1673441,-0.0805824,0.02208013,-3.281349,1.723148,0.04750746,11.45106,-0.07662126,0.1081916,0.08694437,10.7055
"0.98 sec",0.2108162,0.7656968,0.1505484,-6.958925,0.4436471,0.08529304,-6.977808,0.7902207,0.2347127,0.01606103,0.1681678,-0.04898364,-0.007733881,-2.629868,3.985587,0.1122564,10.70699,-0.08118304,0.1148894,0.08529684,10.09345
"0.99 sec",0.2108162,0.7656968,0.1505484,-6.958925,0.4515682,0.08763519,-6.977662,0.7933838,0.2332146,0.01313958,0.1689717,-0.007649282,-0.03096154,-2.003384,4.035254,0.2060626,10.09403,-0.08413282,0.1193069,0.08368903,9.729315
"1 sec",0.2245452,0.8417464,0.1772523,-6.969632,0.4595026,0.08994903,-6.977527,0.7929309,0.2291781,0.01394475,0.1697752,0.02968225,-0.04832701,-1.476888,3.34299,0.2428204,9.730005,0.05886188,-0.0834109,0.1095399,13.88222
"1.01 sec",0.2245452,0.8417464,0.1772523,-6.969632,0.4674137,0.09220327,-6.97758,0.7891399,0.2217087,-0.02545785,0.1708514,0.03521082,-0.04406997,1.688643,-1.37243,0.04803013,13.88033,0.05877218,-0.08347406,0.1073874,13.88222
"1.02 sec",0.2245452,0.8417464,0.1772523,-6.969632,0.4752896,0.09439129,-6.978037,0.7864629,0.2164723,-0.06604995,0.1719035,0.0137433,-0.02266074,2.343032,-2.575047,0.04597531,13.88037,0.05868443,-0.08353571,0.1052832,13.88222
"1.03 sec",0.2245452,0.8417464,0.1772523,-6.969632,0.4831525,0.09654519,-6.978901,0.7866222,0.214927,-0.1067564,0.1729275,-0.01195277,-0.0001153673,2.089617,-2.446864,0.1023243,13.88124,0.0828396,-0.1184511,0.1032353,9.825603
"1.04 sec",0.2245452,0.8417464,0.1772523,-6.969632,0.4910282,0.09869961,-6.97998,0.7888629,0.2163749,-0.1079112,0.1739325,-0.03801589,0.02119363,2.064038,-2.589723,0.1553094,9.827579,0.1255713,-0.1810401,0.1012253,6.482315
"1.05 sec",0.2245452,0.8417464,0.1772523,-6.969632,0.4989308,0.1008755,-6.9809,0.7919042,0.2190821,-0.07536077,0.1749087,-0.06914522,0.04484678,2.468508,-3.312323,0.2455401,6.484799,0.1095766,-0.1921884,0.099273,5.95469
"1.06 sec",0.2245452,0.8417464,0.1772523,-6.969632,0.5068706,0.1030859,-6.981461,0.7963446,0.2232626,-0.03662721,0.1758658,-0.1020072,0.06613154,1.812938,-3.096391,0.301098,5.955123,-0.03322462,-0.01525889,0.09735867,6.092564
"1.07 sec",0.2245452,0.8417464,0.1772523,-6.969632,0.5148626,0.1053447,-6.981638,0.802121,0.2284981,0.001083381,0.1768342,-0.1092582,0.06462389,-1.456657,0.9288926,0.03628658,6.091105,-0.1069112,0.1546382,0.09542197,7.576694
"1.08 sec",0.2245452,0.8417464,0.1772523,-6.969632,0.5229172,0.1076574,-6.98151,0.8084365,0.2336272,0.02424444,0.1777379,-0.07336008,0.0364984,-3.583912,5.227372,-0.1050161,7.575853,-0.09213448,0.1332535,0.09361455,8.776151
"1.09 sec",0.2245452,0.8417464,0.1772523,-6.969632,0.5310234,0.1100084,-6.981212,0.8121507,0.2359551,0.03501522,0.1785789,-0.02011777,0.001535229,-3.268979,5.140678,0.07692826,8.775126,-0.0838845,0.1214195,0.09193248,9.625289
"1.1 sec",0.2331153,0.9205782,0.2029281,-6.970685,0.5391475,0.1123642,-6.98085,0.8120413,0.234634,0.03710033,0.1794313,0.02505833,-0.02664766,-2.383043,3.880501,0.1904574,9.623539,0.06717791,-0.09724659,0.1073679,11.9992
"1.11 sec",0.2331153,0.9205782,0.2029281,-6.970685,0.5472524,0.1146893,-6.980582,0.808807,0.2303084,0.01594007,0.180486,0.03249317,-0.02900491,1.22455,-1.422018,0.06535581,11.9986,0.07485976,-0.1086937,0.1052586,10.75345
"1.12 sec",0.2331153,0.9205782,0.2029281,-6.970685,0.5553291,0.1169774,-6.980473,0.8069085,0.2277254,0.006238727,0.1815166,0.00812445,-0.0100684,2.255021,-3.013122,0.07149275,10.75454,0.08127645,-0.1183538,0.1031973,9.891356
"1.13 sec",0.2331153,0.9205782,0.2029281,-6.970685,0.5633995,0.1192537,-6.980416,0.8076177,0.22801,0.005213629,0.1825122,-0.02342096,0.01314704,2.26011,-3.101815,0.1403241,9.892964,0.0848039,-0.1238053,0.1012061,9.46716
"1.14 sec",0.2331153,0.9205782,0.2029281,-6.970685,0.5714895,0.1215462,-6.980348,0.8107737,0.2308999,0.008634711,0.1834936,-0.05243561,0.03408789,1.890602,-2.624027,0.1880071,9.467584,0.0855969,-0.1252391,0.0992434,9.366287
"1.15 sec",0.2331153,0.9205782,0.2029281,-6.970685,0.5796217,0.1238788,-6.980238,0.8159761,0.2359398,0.01332962,0.1844667,-0.07558924,0.05060792,1.423989,-1.987106,0.1982435,9.366917,0.03616387,-0.1151143,0.0972971,9.415677
"1.16 sec",0.2331153,0.9205782,0.2029281,-6.970685,0.5878145,0.1262701,-6.980083,0.8227892,0.2424642,0.01776011,0.1854346,-0.09132487,0.05682924,0.06349691,-1.207097,0.1656637,9.415037,-0.05631762,0.02876754,0.09536147,9.547009
"1.17 sec",0.2331153,0.9205782,0.2029281,-6.970685,0.5960804,0.1287283,-6.979889,0.83032,0.2489454,0.02094319,0.1863824,-0.08411443,0.04396168,-2.126472,2.001055,0.005033921,9.54568,-0.08125694,0.1195715,0.09346578,9.823826
"1.18 sec",0.2331153,0.9205782,0.2029281,-6.970685,0.6044161,0.1312417,-6.979678,0.8363532,0.253213,0.02116265,0.1872719,-0.04923307,0.01750008,-2.864337,4.334831,0.01118187,9.822708,-0.08049651,0.11867,0.09168673,9.903501
"1.19 sec",0.2331153,0.9205782,0.2029281,-6.970685,0.6127957,0.133781,-6.97947,0.8389359,0.2540564,0.02029662,0.1881277,-0.005487974,-0.009892355,-2.523807,4.196273,0.1276644,9.90307,-0.08024297,0.1185117,0.08997509,9.922243
"1.2 sec",0.2429391,1.00177,0.2306345,-6.97209,0.6211829,0.1363121,-6.979273,0.8379555,0.2516942,0.01921902,0.1889838,0.03238068,-0.03216189,-1.924615,3.327098,0.1936312,9.918135,0.0637909,-0.09423116,0.1079106,12.46061
"1.21 sec",0.2429391,1.00177,0.2306345,-6.97209,0.6295435,0.1388036,-6.979206,0.8340937,0.2465812,-0.006469339,0.1900457,0.03622924,-0.03171075,1.371056,-1.632503,0.05511753,12.45987,0.0752393,-0.1115224,0.1057869,10.55088
"1.22 sec",0.2429391,1.00177,0.2306345,-6.97209,0.637872,0.1412529,-6.979312,0.8320075,0.2437524,-0.014304,0.1910782,0.009921448,-0.01159684,2.347322,-3.186866,0.06504426,10.5518,0.0842704,-0.1253154,0.1037217,9.408054
"1.23 sec",0.2429391,1.00177,0.2306345,-6.97209,0.6461929,0.1436889,-6.979438,0.8326203,0.2439191,-0.01056843,0.1920749,-0.02361326,0.01266044,2.367423,-3.30862,0.1415313,9.409597,0.08830253,-0.1316604,0.1017283,8.966251
"1.24 sec",0.2429391,1.00177,0.2306345,-6.97209,0.6545326,0.14614,-6.979502,0.8356903,0.2467102,-0.002143048,0.1930576,-0.05467435,0.03466452,1.991563,-2.817437,0.1964008,8.966915,0.0880363,-0.1315393,0.09976307,8.980187
"1.25 sec",0.2429391,1.00177,0.2306345,-6.97209,0.6629139,0.1486306,-6.979481,0.8408831,0.2517297,0.006452138,0.1940335,-0.07938181,0.05196447,1.48332,-2.108843,0.207615,8.977599,0.03075426,-0.1174227,0.09781119,9.17674
"1.26 sec",0.2429391,1.00177,0.2306345,-6.97209,0.6713561,0.1511802,-6.979382,0.8478079,0.2583364,0.01333652,0.1950064,-0.09562639,0.05772676,-0.0508542,-1.207108,0.1673006,9.172228,-0.05926226,0.07749354,0.09586537,9.470275
"1.27 sec",0.2429391,1.00177,0.2306345,-6.97209,0.679873,0.1537977,-6.979228,0.8553942,0.2649023,0.0173451,0.1959542,-0.08224162,0.043775,-2.225272,3.007032,-0.03934166,9.46921,-0.08034169,0.1206889,0.09396982,9.795738
"1.28 sec",0.2429391,1.00177,0.2306345,-6.97209,0.6884571,0.1564704,-6.979051,0.860871,0.269068,0.01782327,0.1968403,-0.04182894,0.01689667,-2.86662,4.554585,0.01024793,9.794937,-0.07923468,0.1192406,0.09219766,9.91914
"1.29 sec",0.2429391,1.00177,0.2306345,-6.97209,0.6970781,0.1591673,-6.978878,0.862695,0.2697328,0.01679362,0.1977008,0.002346874,-0.01029049,-2.489936,4.117552,0.1292025,9.917959,-0.07886324,0.1188991,0.09047669,9.952909
"1.3 sec",0.2525141,1.085403,0.259826,-6.974091,0.7056994,0.1618543,-6.978717,0.8610313,0.267192,0.01542423,0.198564,0.03890923,-0.03216253,-1.883723,3.167434,0.189201,9.940645,0.05773987,-0.08703592,0.1079002,13.5699
"1.31 sec",0.2525141,1.085403,0.259826,-6.974091,0.7142854,0.1644975,-6.978741,0.8560958,0.2614169,-0.02103011,0.1996265,0.04194424,-0.032185,1.265133,-1.656955,0.05358254,13.56795,0.07215338,-0.1091608,0.1057752,10.84518
"1.32 sec",0.2525141,1.085403,0.259826,-6.974091,0.7228307,0.1670936,-6.979009,0.8534075,0.2582614,-0.03199597,0.2006596,0.01510991,-0.01296379,2.272516,-3.256259,0.05981314,10.84564,0.08480916,-0.1287816,0.103709,9.215467
"1.33 sec",0.2525141,1.085403,0.259826,-6.974091,0.7313636,0.1696735,-6.979303,0.8536179,0.2582044,-0.02646107,0.201655,-0.0198193,0.01109923,2.385697,-3.489283,0.1381179,9.216328,0.0909145,-0.1384609,0.1017183,8.585211
"1.34 sec",0.2525141,1.085403,0.259826,-6.974091,0.7399113,0.1722662,-6.979508,0.8563262,0.2607477,-0.01428866,0.202634,-0.05312124,0.03369269,2.074924,-3.060672,0.2014726,8.585977,0.09062201,-0.1383062,0.09976017,8.600074
"1.35 sec",0.2525141,1.085403,0.259826,-6.974091,0.7484975,0.174896,-6.979589,0.8612317,0.2655509,-0.00190823,0.2036066,-0.08015478,0.05187365,1.570465,-2.323163,0.218268,8.597169,0.02740947,-0.1208886,0.09781504,8.887518
"1.36 sec",0.2525141,1.085403,0.259826,-6.974091,0.7571425,0.1775833,-6.979559,0.868014,0.2720465,0.007890041,0.2045787,-0.09791043,0.0577431,-0.09220731,-1.30796,0.1731603,8.886465,-0.06127084,0.1124872,0.09587079,9.330059
"1.37 sec",0.2525141,1.085403,0.259826,-6.974091,0.7658613,0.1803378,-6.979452,0.8755205,0.2785837,0.01333859,0.2055231,-0.08074829,0.04332598,-2.272885,3.690785,-0.06845419,9.329643,-0.07989579,0.1225469,0.09398201,9.708899
"1.38 sec",0.2525141,1.085403,0.259826,-6.974091,0.7746447,0.1831468,-6.979311,0.8805544,0.2826328,0.01467318,0.2064035,-0.03647392,0.0162903,-2.860955,4.720602,0.01007875,9.70829,-0.07826697,0.1202579,0.09222126,9.8972
"1.39 sec",0.2525141,1.085403,0.259826,-6.974091,0.7834597,0.1859786,-6.979168,0.8818225,0.2831463,0.01386919,0.2072639,0.008123313,-0.01068137,-2.459478,4.073728,0.1304779,9.892709,-0.07761692,0.1194757,0.09050044,9.966784
"1.4 sec",0.262078,1.171036,0.2904023,-6.97634,0.7922696,0.188799,-6.979037,0.8796588,0.2804545,0.01238715,0.208129,0.04383579,-0.03219159,-1.846083,3.058544,0.1859646,9.965635,0.05562421,-0.08560123,0.1078981,13.88222
"1.41 sec",0.262078,1.171036,0.2904023,-6.97634,0.8010386,0.1915733,-6.979105,0.8740754,0.2743767,-0.02708368,0.2091917,0.04585626,-0.03224505,1.23386,-1.748538,0.05047581,13.88031,0.06967492,-0.1076132,0.1057726,11.06788
"1.42 sec",0.262078,1.171036,0.2904023,-6.97634,0.8097616,0.1942979,-6.979445,0.8709877,0.2710197,-0.04028454,0.2102247,0.01823543,-0.01347855,2.218942,-3.32246,0.05724786,11.06875,0.08364948,-0.1296957,0.1037067,9.207498
"1.43 sec",0.262078,1.171036,0.2904023,-6.97634,0.818469,0.1970048,-6.979823,0.8709649,0.2708455,-0.0347291,0.2112197,-0.01753333,0.01021111,2.360672,-3.581477,0.1358957,9.208392,0.09088198,-0.1413512,0.1017168,8.463522
"1.44 sec",0.262078,1.171036,0.2904023,-6.97634,0.8271893,0.1997233,-6.980104,0.8734829,0.2732699,-0.02137687,0.2121975,-0.05195183,0.03276522,2.085213,-3.1805,0.202416,8.464825,0.09085189,-0.1416093,0.09976101,8.453516
"1.45 sec",0.262078,1.171036,0.2904023,-6.97634,0.8359461,0.2024778,-6.980249,0.8782279,0.2779576,-0.007546724,0.2131687,-0.08017421,0.05113912,1.594883,-2.435952,0.2222041,8.456022,0.02707048,-0.1229907,0.09781867,8.761642
"1.46 sec",0.262078,1.171036,0.2904023,-6.97634,0.8447606,0.2052887,-6.980269,0.8849065,0.2843797,0.003508088,0.2141404,-0.09880174,0.05719099,-0.07893944,-1.373728,0.1761853,8.760699,-0.06324748,0.124856,0.09587538,9.258185
"1.47 sec",0.262078,1.171036,0.2904023,-6.97634,0.8536481,0.2081665,-6.980203,0.8923523,0.2908958,0.009687206,0.2150836,-0.08046252,0.04268233,-2.296674,3.927114,-0.07647054,9.257744,-0.0791564,0.1239853,0.09398887,9.655914
"1.48 sec",0.262078,1.171036,0.2904023,-6.97634,0.8625991,0.2110983,-6.980095,0.8972257,0.294884,0.01154734,0.2159621,-0.03473413,0.01567633,-2.840299,4.797456,0.01171222,9.655331,-0.07728505,0.1212631,0.09223199,9.875688
"1.49 sec",0.262078,1.171036,0.2904023,-6.97634,0.8715798,0.2140523,-6.979983,0.8983059,0.2953207,0.01096326,0.2168227,0.01020644,-0.01099406,-2.424631,4.077594,0.1318691,9.868416,-0.07650419,0.120256,0.0905107,9.962873
"1.5 sec",0.2716347,1.258336,0.3222136,-6.977948,0.8805537,0.216994,-6.97988,0.8959733,0.2925528,0.009531554,0.2176887,0.04578891,-0.03214329,-1.811105,3.034715,0.1851314,9.962423,0.05903881,-0.09281571,0.107892,12.88759
"1.51 sec",0.2716347,1.258336,0.3222136,-6.977948,0.889487,0.2198911,-6.97993,0.8906444,0.286852,-0.0202566,0.2187512,0.04660856,-0.03160898,1.305764,-1.92808,0.04572933,12.88561,0.07104125,-0.1120792,0.1057669,10.69516
"1.52 sec",0.2716347,1.258336,0.3222136,-6.977948,0.8983763,0.2227414,-6.980182,0.887684,0.2836828,-0.02957653,0.2197819,0.01737727,-0.01235691,2.249488,-3.463269,0.05901114,10.69546,0.08100642,-0.1282402,0.1037055,9.366637
"1.53 sec",0.3735934,1.243749,0.3593677,-7.020045,0.9072511,0.2255755,-6.980459,0.8877564,0.2836309,-0.02547588,0.2207766,-0.01890821,0.01106433,2.296433,-3.570161,0.1389461,9.367626,0.0545385,-0.08629601,0.3056336,13.88222
"1.54 sec",0.3735934,1.243749,0.3593677,-7.020045,0.9161457,0.2284282,-6.980906,0.8917049,0.2874652,-0.06492441,0.2237021,-0.04670375,0.02890794,1.369773,-2.103148,0.3647043,13.88188,0.06537899,-0.03840173,0.2997826,13.84978
"1.55 sec",0.3735934,1.243749,0.3593677,-7.020045,0.9250926,0.2313332,-6.981756,0.8978451,0.2938586,-0.105042,0.2266955,-0.05753956,0.04070887,1.023795,-0.3230333,0.3124851,13.86135,0.08648973,0.05423031,0.2937958,13.88222
"1.56 sec",0.3735934,1.243749,0.3593677,-7.020045,0.9341018,0.2343104,-6.983008,0.9036766,0.3017814,-0.1454095,0.2296421,-0.046407,0.05166347,1.118885,2.055122,0.1887165,13.87758,0.08664905,0.05397496,0.2879026,13.88222
"1.57 sec",0.3735934,1.243749,0.3593677,-7.020045,0.9431561,0.2373717,-6.984664,0.9066055,0.3105867,-0.1858165,0.2325362,-0.02332953,0.06192425,0.9314145,2.392814,0.141153,13.88103,0.08680483,0.0537237,0.2821145,13.88222
"1.58 sec",0.3735934,1.243749,0.3593677,-7.020045,0.9522223,0.2405238,-6.986724,0.906081,0.3198957,-0.2262218,0.2353697,-0.001086662,0.07000256,0.6911139,2.030048,0.1412022,13.88177,0.1403283,0.08671939,0.2764474,8.619766
"1.59 sec",0.3735934,1.243749,0.3593677,-7.020045,0.961273,0.2437538,-6.988939,0.9037386,0.3261049,-0.2154144,0.2381499,0.02037315,0.0820678,1.493941,2.149529,0.102164,8.620188,0.2033644,0.1259851,0.2708869,5.979641
"1.6 sec",0.40294,1.329908,0.4003287,-7.02214,0.9702957,0.247039,-6.990907,0.9005419,0.3310602,-0.1774967,0.240889,0.0445597,0.1045884,2.644728,2.51298,0.01173684,5.979979,0.1228176,-0.2052759,0.324102,5.979641
"1.61 sec",0.40294,1.329908,0.4003287,-7.02214,0.9792801,0.2503788,-6.992488,0.8964559,0.3370849,-0.1387466,0.2440971,0.02938518,0.1215294,0.9498519,-4.096396,0.8245553,5.980525,0.1221631,-0.2056625,0.3176859,5.979641
"1.62 sec",0.40294,1.329908,0.4003287,-7.02214,0.9882318,0.2537845,-6.993681,0.8943524,0.3442331,-0.09997066,0.2472629,-0.02124107,0.1269017,0.232577,-5.349069,1.001978,5.979982,0.121516,-0.206042,0.3113542,5.979641
"1.63 sec",0.40294,1.329908,0.4003287,-7.02214,0.9971772,0.2572665,-6.994487,0.8952233,0.3522955,-0.06110757,0.250378,-0.07307889,0.127479,-0.03588663,-4.694238,0.9149234,5.981868,0.1208781,-0.2064133,0.305124,5.979641
"1.64 sec",0.40294,1.329908,0.4003287,-7.02214,1.006145,0.2608326,-6.994903,0.8987903,0.3610335,-0.02205053,0.2534354,-0.1152362,0.1263358,-0.1111433,-3.57409,0.7598313,5.980196,0.1202509,-0.2067759,0.2990091,5.979641
"1.65 sec",0.40294,1.329908,0.4003287,-7.02214,1.01516,0.2644887,-6.994927,0.904435,0.3702435,0.01723945,0.2564318,-0.146214,0.1247753,-0.1113276,-2.527705,0.6154497,5.981147,0.1420632,-0.1202873,0.2930164,5.984994
"1.66 sec",0.40294,1.329908,0.4003287,-7.02214,1.024238,0.2682386,-6.994558,0.9113369,0.3797798,0.05665968,0.2593653,-0.1576184,0.1259092,0.3368776,-0.07166431,0.3007424,5.983969,0.05927987,0.1025105,0.2871495,8.777387
"1.67 sec",0.40294,1.329908,0.4003287,-7.02214,1.033401,0.2721052,-6.993924,0.9207668,0.3934447,0.06930341,0.2622281,-0.1279299,0.1198041,-1.153244,4.914065,-0.3076489,8.776189,-0.06682385,0.1162917,0.2814239,10.58167
"1.68 sec",0.40294,1.329908,0.4003287,-7.02214,1.042648,0.2761114,-6.993259,0.9279637,0.40712,0.06320664,0.2649663,-0.07203662,0.09153519,-3.783371,5.785635,-0.2604556,10.58079,-0.06234889,0.1091434,0.2759473,11.28617
"1.69 sec",0.40294,1.329908,0.4003287,-7.02214,1.051945,0.280233,-6.992696,0.9306485,0.4162469,0.04904853,0.2676203,-0.01861976,0.05248278,-3.789152,4.798729,0.01465992,11.28514,-0.06204263,0.1092776,0.2706394,11.28925
"1.7 sec",0.4284616,1.417033,0.4469266,-7.020604,1.061247,0.284418,-6.992279,0.929257,0.4199156,0.03433878,0.2702534,0.02304276,0.01801503,-3.057574,3.551836,0.2008969,11.28812,0.08527074,-0.1515654,0.3164163,8.18068
"1.71 sec",0.4284616,1.417033,0.4469266,-7.020604,1.070527,0.2886188,-6.991862,0.926821,0.4201384,0.04987258,0.2733825,0.0225209,0.008823929,0.5591301,-2.487101,0.3377272,8.182957,0.07051337,-0.1260084,0.3101583,9.834275
"1.72 sec",0.4284616,1.417033,0.4469266,-7.020604,1.079788,0.292824,-6.99136,0.9257491,0.4212007,0.05006913,0.2764713,-0.008679987,0.01913462,1.300193,-3.39481,0.3729365,9.833413,0.06429482,-0.1156506,0.3039806,10.72461
"1.73 sec",0.4284616,1.417033,0.4469266,-7.020604,1.089052,0.2970509,-6.990903,0.9275635,0.4245576,0.04122413,0.279494,-0.04013006,0.03160347,1.166765,-2.813244,0.3911291,10.7224,0.06251813,-0.113239,0.2979352,10.96918
"1.74 sec",0.4284616,1.417033,0.4469266,-7.020604,1.098348,0.3013224,-6.990547,0.9320109,0.4300479,0.02992637,0.2824636,-0.06441392,0.04162532,0.8714387,-2.032423,0.381316,10.96785,0.06289414,-0.1147308,0.2919959,10.84519
"1.75 sec",0.4284616,1.417033,0.4469266,-7.020604,1.107698,0.3056566,-6.990298,0.9382765,0.4370105,0.01994989,0.2853801,-0.081701,0.04884344,0.6236197,-1.41654,0.3601719,10.84584,-0.02018656,-0.001973285,0.286163,10.48408
"1.76 sec",0.4284616,1.417033,0.4469266,-7.020604,1.117116,0.3100637,-6.99013,0.9452079,0.4442982,0.0135998,0.2882425,-0.0804077,0.04415087,-1.147522,1.193403,0.2321372,10.48477,-0.06519645,0.1206151,0.2804381,10.35264
"1.77 sec",0.4284616,1.417033,0.4469266,-7.020604,1.126598,0.3145366,-6.99002,0.9508753,0.4498204,0.008448457,0.2910206,-0.05038594,0.02492278,-2.327156,4.100875,0.1731087,10.35403,-0.06632554,0.1235422,0.274882,10.12451
"1.78 sec",0.4284616,1.417033,0.4469266,-7.020604,1.136122,0.3190483,-6.989952,0.9533021,0.4519292,0.005307724,0.2937199,-0.007257343,0.001285224,-2.267207,4.258844,0.264373,10.1318,-0.06705483,0.1257274,0.2694834,9.964373
"1.79 sec",0.4284616,1.417033,0.4469266,-7.020604,1.145653,0.3235639,-6.989906,0.9523354,0.450657,0.003742595,0.2963751,0.03201148,-0.01930091,-1.828849,3.512599,0.3338382,9.966369,-0.0672792,0.1269648,0.264173,9.88192
"1.8 sec",0.4550312,1.504899,0.4991712,-7.036728,1.15516,0.3280524,-6.989872,0.9485927,0.446658,0.003158645,0.298994,0.06271693,-0.035025,-1.347679,2.612578,0.3535242,9.882355,0.04763822,-0.09028195,0.3120744,13.88222
"1.81 sec",0.4550312,1.504899,0.4991712,-7.036728,1.16461,0.3324818,-6.990032,0.9414967,0.4392591,-0.03615615,0.3020841,0.05954026,-0.03282662,1.23978,-2.305253,0.234645,13.88035,0.0473594,-0.09042823,0.3058941,13.88222
"1.82 sec",0.4550312,1.504899,0.4991712,-7.036728,1.173997,0.3368455,-6.990596,0.9365453,0.4340568,-0.07668506,0.3051213,0.02924621,-0.0165052,1.799848,-3.389107,0.2467232,13.88177,0.0470849,-0.09057118,0.2998198,13.88222
"1.83 sec",0.4550312,1.504899,0.4991712,-7.036728,1.183353,0.3411754,-6.991567,0.9352042,0.432525,-0.1173846,0.3080928,-0.003611312,0.0009554677,1.623465,-3.064756,0.3001444,13.88051,0.04681594,-0.09071023,0.2938768,13.88222
"1.84 sec",0.4550312,1.504899,0.4991712,-7.036728,1.192713,0.3455074,-6.992944,0.9372027,0.4343977,-0.1580743,0.3110139,-0.03087255,0.01532301,1.253193,-2.364103,0.328449,13.88062,0.08023433,-0.1572351,0.2880345,8.060057
"1.85 sec",0.4550312,1.504899,0.4991712,-7.036728,1.202098,0.3498643,-6.994452,0.9400882,0.4372474,-0.1419634,0.313877,-0.05882014,0.02980344,1.535276,-2.94286,0.3731176,8.060345,0.1667853,-0.03844061,0.2823083,5.896113
"1.86 sec",0.4550312,1.504899,0.4991712,-7.036728,1.211514,0.3542533,-6.99568,0.9431762,0.440805,-0.1031906,0.3166862,-0.07294532,0.05421983,2.974047,-0.2878908,0.2970199,5.896401,-0.08138573,0.2054868,0.2766901,5.954569
"1.87 sec",0.4550312,1.504899,0.4991712,-7.036728,1.220959,0.3586842,-6.996518,0.9455895,0.4452659,-0.06440233,0.3194476,-0.0422225,0.05493248,-1.870355,5.22444,-0.0150256,5.95385,-0.106456,0.2141277,0.2711672,5.979641
"1.88 sec",0.4550312,1.504899,0.4991712,-7.036728,1.230417,0.3631522,-6.99697,0.945565,0.4478783,-0.02602568,0.3220761,0.0167683,0.02570009,-3.497384,6.090199,0.1038256,5.973005,-0.09405812,0.1899672,0.2659101,6.729632
"1.89 sec",0.4550312,1.504899,0.4991712,-7.036728,1.23986,0.3676317,-6.997074,0.9425157,0.4474637,0.005053605,0.3246435,0.07092583,-0.007712441,-3.101831,4.706431,0.2939463,6.72829,-0.07462797,0.1511968,0.2607754,8.433537
"1.9 sec",0.4859853,1.59543,0.5549532,-7.019689,1.249254,0.3720883,-6.996949,0.9358987,0.4433504,0.0196244,0.3272049,0.1065714,-0.03270747,-2.014412,2.612643,0.3421317,8.432681,0.1048045,-0.2149313,0.3175607,5.979641
"1.91 sec",0.4859853,1.59543,0.5549532,-7.019689,1.258586,0.3765014,-6.996565,0.9307424,0.4394452,0.0576483,0.3303325,0.08376645,-0.02780399,2.114937,-5.50361,0.1579141,5.980297,0.104137,-0.2152517,0.3113055,5.979641
"1.92 sec",0.4859853,1.59543,0.5549532,-7.019689,1.267877,0.3808842,-6.995796,0.9280845,0.4375896,0.09605254,0.3333588,0.01824356,-0.0005920301,2.981995,-6.961177,0.2964605,5.979955,0.1034902,-0.2155597,0.305253,5.979641
"1.93 sec",0.4859853,1.59543,0.5549532,-7.019689,1.277159,0.3852632,-6.994644,0.928687,0.4386899,0.1343828,0.3363158,-0.04785646,0.02813505,2.676754,-6.052174,0.4669245,5.981928,0.1028572,-0.2158588,0.2993389,5.979641
"1.94 sec",0.4859853,1.59543,0.5549532,-7.019689,1.286461,0.389667,-6.993108,0.932153,0.4424697,0.1729148,0.339246,-0.1012773,0.05166972,2.06454,-4.582358,0.5302841,5.980211,0.04890973,-0.1025146,0.2934785,12.48163
"1.95 sec",0.4859853,1.59543,0.5549532,-7.019689,1.295835,0.3941471,-6.991491,0.9433011,0.4540747,0.1489251,0.3421648,-0.1271238,0.0626889,0.4557881,-1.07497,0.3588872,12.48056,0.06111962,-0.04380624,0.287641,13.84912
"1.96 sec",0.4859853,1.59543,0.5549532,-7.019689,1.305336,0.3987587,-6.990193,0.9568025,0.4682972,0.1102837,0.345044,-0.1235363,0.06484284,0.1039455,1.342913,0.1988776,13.84817,0.007880745,0.07397092,0.2818826,13.8483
"1.97 sec",0.4859853,1.59543,0.5549532,-7.019689,1.314964,0.4035102,-6.989286,0.9682009,0.4816297,0.07101907,0.3478554,-0.09312593,0.05862371,-1.03295,4.069631,0.04011621,13.83636,-0.04317822,0.09249336,0.2762598,13.88222
"1.98 sec",0.4859853,1.59543,0.5549532,-7.019689,1.324685,0.4083801,-6.988777,0.9750741,0.4916132,0.03085204,0.3505813,-0.04883796,0.04091924,-2.156285,4.479034,0.08779319,13.88145,-0.0429263,0.09261029,0.2708079,13.88222
"1.99 sec",0.4859853,1.59543,0.5549532,-7.019689,1.33445,0.4133264,-6.988671,0.977222,0.4968263,-0.009742913,0.3532451,-0.007393134,0.01909835,-2.087436,3.733339,0.1954553,13.88122,-0.04750674,0.1032612,0.2654803,12.47262
"2 sec",0.513203,1.684814,0.6102515,-7.019619,1.344217,0.4183009,-6.988905,0.9756466,0.4974613,-0.03671055,0.3558684,0.02631872,-0.0002871937,-1.75314,2.970949,0.2635175,12.47356,0.05599092,-0.1226724,0.3146691,10.52399
"2.01 sec",0.513203,1.684814,0.6102515,-7.019619,1.353959,0.4232682,-6.989312,0.9728067,0.4959675,-0.04430107,0.3589837,0.02555433,-0.003473438,0.653411,-2.139484,0.3065156,10.52492,0.06139226,-0.1357258,0.3084385,9.53376
"2.02 sec",0.513203,1.684814,0.6102515,-7.019619,1.36368,0.428225,-6.989744,0.9717367,0.495722,-0.04178128,0.3620541,-0.005170404,0.007739276,1.381488,-3.559379,0.3335095,9.536955,0.06362045,-0.1418599,0.3022978,9.138061
"2.03 sec",0.513203,1.684814,0.6102515,-7.019619,1.373402,0.4331903,-6.990129,0.9732355,0.4977445,-0.03512365,0.3650543,-0.04097851,0.02191305,1.389067,-3.418775,0.3746094,9.13864,0.0632703,-0.1422171,0.2962974,9.12734
"2.04 sec",0.513203,1.684814,0.6102515,-7.019619,1.383152,0.4381874,-6.990445,0.9771618,0.502027,-0.02811003,0.3680002,-0.07189952,0.03438704,1.122892,-2.709333,0.3873548,9.129563,0.06160026,-0.1395381,0.2904055,9.312641
"2.05 sec",0.513203,1.684814,0.6102515,-7.019619,1.392953,0.4432375,-6.990699,0.9831266,0.5082605,-0.02268726,0.370896,-0.09496979,0.04368638,0.7977422,-1.904082,0.3718463,9.309245,0.1084187,0.07103654,0.2846138,9.525471
"2.06 sec",0.513203,1.684814,0.6102515,-7.019619,1.402818,0.4483575,-6.990909,0.9897797,0.5158737,-0.01924838,0.3737502,-0.08635489,0.05552383,1.434251,2.715997,0.1348534,9.520068,-0.05795125,0.1332785,0.2789055,9.769801
"2.07 sec",0.513203,1.684814,0.6102515,-7.019619,1.41274,0.4535552,-6.991096,0.9939312,0.5233295,-0.01840353,0.376531,-0.0456867,0.05021305,-1.806666,4.808552,0.03303247,9.761844,-0.0568702,0.1317763,0.273344,9.891864
"2.08 sec",0.513203,1.684814,0.6102515,-7.019619,1.422685,0.4588137,-6.991283,0.9944825,0.5277409,-0.01907752,0.379213,0.001788723,0.0276454,-2.4489,4.49528,0.1434589,9.891027,-0.0562854,0.1313809,0.26798,9.932628
"2.09 sec",0.513203,1.684814,0.6102515,-7.019619,1.432618,0.4640972,-6.99148,0.9918119,0.5283501,-0.02024649,0.3818464,0.04195425,0.004240641,-2.169708,3.509196,0.2488982,9.932048,-0.05597355,0.1316065,0.2627131,9.92672
"2.1 sec",0.5421107,1.778377,0.6716614,-6.999945,1.442513,0.4693698,-6.991688,0.9867065,0.5256802,-0.02124204,0.384446,0.07198791,-0.01480035,-1.661652,2.516638,0.2971356,9.928308,0.09243826,-0.2204627,0.3153294,5.979641
"2.11 sec",0.5421107,1.778377,0.6716614,-6.999945,1.452361,0.4746135,-6.991718,0.9832306,0.523229,0.01619998,0.3875591,0.05199936,-0.0114957,1.632104,-4.971855,0.2538973,5.981613,0.09175705,-0.2207433,0.3091031,5.979641
"2.12 sec",0.5421107,1.778377,0.6716614,-6.999945,1.462185,0.4798407,-6.991364,0.9819726,0.5226192,0.05452991,0.39059,-0.007508653,0.009653988,2.334835,-6.334926,0.3627059,5.980999,0.09109302,-0.2210144,0.3030413,5.979641
"2.13 sec",0.5421107,1.778377,0.6716614,-6.999945,1.47201,0.4850749,-6.990627,0.9836065,0.5246608,0.09290101,0.3935536,-0.06776287,0.03210577,2.102332,-5.519277,0.4737799,5.980759,0.09044296,-0.2212776,0.2971142,5.979641
"2.14 sec",0.5421107,1.778377,0.6716614,-6.999945,1.481866,0.4903419,-6.989505,0.9877807,0.5291036,0.131523,0.3964807,-0.1165266,0.05049594,1.622879,-4.184095,0.5034652,5.98078,0.05559029,-0.1362163,0.29126,9.651463
"2.15 sec",0.5421107,1.778377,0.6716614,-6.999945,1.491789,0.4956801,-6.988168,0.9972687,0.5389158,0.1350316,0.3993812,-0.1422905,0.05994007,0.5051957,-1.333009,0.3684867,9.649511,0.09451677,0.03853655,0.2854589,13.88222
"2.16 sec",0.5421107,1.778377,0.6716614,-6.999945,1.501834,0.5011457,-6.987003,1.011441,0.5543435,0.09699834,0.402243,-0.1287877,0.06656037,0.8031984,3.130206,0.07618606,13.88011,-0.03809403,0.09469554,0.2797354,13.88222
"2.17 sec",0.5421107,1.778377,0.6716614,-6.999945,1.512004,0.5067627,-6.98623,1.021718,0.5684949,0.05739418,0.4050258,-0.08535841,0.05869737,-1.77585,4.977976,-0.01780179,13.88078,-0.03783076,0.09480077,0.2741697,13.88222
"2.18 sec",0.5421107,1.778377,0.6716614,-6.999945,1.52225,0.5124997,-6.985857,1.02678,0.5779895,0.01710621,0.4077174,-0.03662352,0.0374849,-2.231066,4.586857,0.09681361,13.88112,-0.03757584,0.09490183,0.2687866,13.88222
"2.19 sec",0.5421107,1.778377,0.6716614,-6.999945,1.532524,0.5183049,-6.985889,1.027262,0.5822251,-0.02353822,0.4103624,0.004269755,0.01628429,-1.941089,3.569374,0.2070455,13.88109,-0.04177324,0.1063752,0.2634965,12.40472
"2.2 sec",0.5699223,1.872922,0.7357001,-6.979775,1.542785,0.5241291,-6.986258,1.024533,0.5820106,-0.04982668,0.4129707,0.03607262,-0.00127583,-1.559137,2.770072,0.2646039,12.40561,0.08616538,-0.2229545,0.3139033,5.97964
"2.21 sec",0.5699223,1.872922,0.7357001,-6.979775,1.55302,0.5299436,-6.98658,1.02266,0.5809981,-0.01313289,0.4160744,0.02137063,0.0002508431,1.289208,-4.275396,0.3123251,5.979959,0.0854787,-0.2232149,0.3076959,5.979641
"2.22 sec",0.5699223,1.872922,0.7357001,-6.979775,1.563245,0.5357544,-6.98652,1.022661,0.5815429,0.02518095,0.4191097,-0.03098653,0.01735376,1.920613,-5.635509,0.3999167,5.980113,0.0848064,-0.2234675,0.3016252,5.979641
"2.23 sec",0.5699223,1.872922,0.7357001,-6.979775,1.573482,0.5415823,-6.986076,1.025198,0.5844314,0.06361638,0.4220778,-0.0849015,0.03583594,1.745095,-4.956004,0.4739956,5.979975,0.0841483,-0.2237126,0.2956891,5.979641
"2.24 sec",0.5699223,1.872922,0.7357001,-6.979775,1.583756,0.5474502,-6.985247,1.029984,0.5894599,0.1023301,0.4250028,-0.1288145,0.05103845,1.351886,-3.774055,0.483839,5.981709,0.05999443,-0.160072,0.289839,8.317663
"2.25 sec",0.5703824,1.871587,0.7350581,-7.020797,1.594099,0.5533887,-6.984138,1.038788,0.5985323,0.1188281,0.427892,-0.1536342,0.05940042,0.5177282,-1.457231,0.3732252,8.317188,0.02612402,0.06753936,0.2849807,13.84628
"2.26 sec",0.5703824,1.871587,0.7350581,-7.020797,1.604563,0.5594536,-6.98313,1.053878,0.6144181,0.08164808,0.4307409,-0.1361196,0.05817972,-0.4788513,3.866796,0.05658438,13.846,-0.03538447,0.09573834,0.2792829,13.88222
"2.27 sec",0.5703824,1.871587,0.7350581,-7.020797,1.615162,0.5656673,-6.98251,1.065026,0.6275696,0.04202132,0.4335028,-0.08758573,0.04446453,-1.860815,5.308825,0.03716744,13.86742,-0.03512032,0.09583529,0.2737591,13.88222
"2.28 sec",0.5703824,1.871587,0.7350581,-7.020797,1.625845,0.5719874,-6.982291,1.070746,0.635526,0.001665827,0.436191,-0.03662222,0.02475098,-1.928972,4.723933,0.1519152,13.87913,-0.03486295,0.09592895,0.2683827,13.88222
"2.29 sec",0.5703824,1.871587,0.7350581,-7.020797,1.636561,0.5783607,-6.982478,1.071691,0.6383554,-0.0390118,0.4388385,0.00516153,0.00703484,-1.57774,3.618518,0.2399186,13.88143,-0.03460926,0.09602053,0.2630878,13.88222
"2.3 sec",0.5985853,1.96997,0.8048441,-7.017883,1.647267,0.5847408,-6.983071,1.069009,0.6370714,-0.07969572,0.4414497,0.03593706,-0.006584953,-1.162902,2.566398,0.2782581,13.88101,0.0343588,-0.0961102,0.3142712,13.88222
"2.31 sec",0.5985853,1.96997,0.8048441,-7.017883,1.657935,0.5910944,-6.984071,1.064631,0.6336452,-0.1203064,0.4445625,0.03489518,-0.008250159,0.4971978,-1.912957,0.2978723,13.88073,0.04256196,-0.1203648,0.3080456,11.11036
"2.32 sec",0.5985853,1.96997,0.8048441,-7.017883,1.668569,0.5974214,-6.985346,1.062642,0.6321531,-0.1339881,0.4476336,0.006146048,0.0004723981,1.075701,-3.393934,0.3077929,11.11129,0.07388823,-0.2123497,0.3019034,6.348333
"2.33 sec",0.5985853,1.96997,0.8048441,-7.017883,1.679197,0.6037453,-6.986525,1.063282,0.6329762,-0.1005775,0.4506236,-0.03825172,0.01499353,1.649241,-4.935742,0.3716301,6.350528,0.07778353,-0.2259707,0.2959234,5.979641
"2.34 sec",0.5985853,1.96997,0.8048441,-7.017883,1.689842,0.6100878,-6.987339,1.066071,0.6358799,-0.06222647,0.4535445,-0.08769877,0.03141107,1.593776,-4.704603,0.438961,5.980421,0.07972977,-0.2211371,0.2900816,5.973991
"2.35 sec",0.5985853,1.96997,0.8048441,-7.017883,1.700525,0.6164698,-6.987768,1.070913,0.6408314,-0.02345984,0.4564171,-0.1295689,0.04576851,1.316383,-3.615791,0.4511693,5.975863,0.09209327,0.1416707,0.2843364,5.997426
"2.36 sec",0.5985853,1.96997,0.8048441,-7.017883,1.711263,0.622909,-6.987809,1.076518,0.6470762,0.01526137,0.4592677,-0.1182665,0.05830219,1.212463,4.313416,0.03348123,5.993007,-0.05741632,0.1707826,0.2786352,7.895571
"2.37 sec",0.5985853,1.96997,0.8048441,-7.017883,1.722053,0.6294177,-6.987554,1.080895,0.654273,0.03535806,0.4620375,-0.06058595,0.05146139,-1.894981,6.496554,-0.06226509,7.894647,-0.04824615,0.1445804,0.2730956,9.317791
"2.38 sec",0.5985853,1.96997,0.8048441,-7.017883,1.73287,0.6359869,-6.987171,1.081655,0.6588674,0.04077765,0.4647029,-0.0004522583,0.02925732,-2.327234,5.414044,0.1082147,9.316904,-0.04383337,0.1324355,0.2677648,10.17354
"2.39 sec",0.5985853,1.96997,0.8048441,-7.017883,1.743674,0.6425817,-6.986779,1.078671,0.6594288,0.03741763,0.4673315,0.04522344,0.007795793,-1.935954,3.785985,0.2341456,10.1715,-0.04197541,0.1279133,0.2625077,10.53946
"2.4 sec",0.6276432,2.06923,0.877552,-7.036799,1.754434,0.6491634,-6.986439,1.07292,0.6564087,0.03042314,0.469932,0.07598389,-0.00871851,-1.409667,2.449976,0.2813228,10.53881,0.03161212,-0.09704573,0.3154222,13.88222
"2.41 sec",0.6276432,2.06923,0.877552,-7.036799,1.765118,0.6556963,-6.986328,1.064204,0.6501434,-0.009023472,0.4730554,0.06952491,-0.01177988,0.418482,-2.718902,0.282106,13.88027,0.03130933,-0.09714356,0.3091755,13.88222
"2.42 sec",0.6276432,2.06923,0.877552,-7.036799,1.775727,0.662173,-6.986621,1.058185,0.6457342,-0.04953758,0.4761373,0.03495663,-0.004344416,0.9029839,-3.798937,0.2907029,13.8804,0.03101027,-0.09723917,0.3030117,13.88222
"2.43 sec",0.6276432,2.06923,0.877552,-7.036799,1.786296,0.6686225,-6.987319,1.056156,0.6447288,-0.09023284,0.4791532,-0.001638872,0.004830541,0.8779957,-3.393321,0.3178503,13.88121,0.03071733,-0.09733184,0.29698,13.88222
"2.44 sec",0.6276432,2.06923,0.877552,-7.036799,1.796862,0.6750784,-6.988425,1.057718,0.6469418,-0.1309231,0.4821136,-0.03173449,0.01271125,0.7004126,-2.603751,0.329012,13.88096,0.03901775,-0.1250708,0.2910592,10.82767
"2.45 sec",0.6276432,2.06923,0.877552,-7.036799,1.807455,0.6815654,-6.989793,1.061198,0.6507617,-0.1417565,0.4850183,-0.05716216,0.01960757,0.6731681,-2.373675,0.3363916,10.82937,0.1972549,0.08194599,0.2852498,6.158418
"2.46 sec",0.6276432,2.06923,0.877552,-7.036799,1.81808,0.688089,-6.991039,1.063629,0.6541247,-0.1062992,0.4878806,-0.05426328,0.04395508,3.542051,2.094545,0.1964549,6.158809,-0.0693865,0.2286469,0.2795252,5.979641
"2.47 sec",0.6276432,2.06923,0.877552,-7.036799,1.828721,0.6946495,-6.99191,1.064039,0.657811,-0.06791984,0.4906893,-0.009702187,0.05046638,-1.322401,5.863078,-0.01981004,5.984185,-0.06874962,0.2288361,0.2739077,5.979641
"2.48 sec",0.6276432,2.06923,0.877552,-7.036799,1.839352,0.7012379,-6.992397,1.061805,0.6593835,-0.0295442,0.4933677,0.05077501,0.02923891,-2.578669,5.899996,0.0934068,5.980922,-0.06682613,0.224503,0.2685509,6.097188
"2.49 sec",0.6276432,2.06923,0.877552,-7.036799,1.849949,0.7078272,-6.992506,1.057133,0.6579952,0.007817679,0.4959858,0.1039227,0.003753037,-2.44638,4.674166,0.2436927,6.096518,-0.05127347,0.1732056,0.2633147,7.874988
"2.5 sec",0.6568796,2.169876,0.9529639,-7.026221,1.860481,0.7143842,-6.992324,1.048952,0.6529362,0.02822181,0.4985843,0.138087,-0.01615259,-1.642974,2.400416,0.2975638,7.874121,0.06695665,-0.2293586,0.3165905,5.979641
"2.51 sec",0.6568796,2.169876,0.9529639,-7.026221,1.870937,0.720889,-6.991852,1.042583,0.6482134,0.06656643,0.5017116,0.1087209,-0.01546757,1.161674,-6.423151,0.2117243,5.980559,0.06624536,-0.2295618,0.310336,5.979641
"2.52 sec",0.6568796,2.169876,0.9529639,-7.026221,1.881342,0.7273561,-6.990993,1.039028,0.6457168,0.1050432,0.5047566,0.0334918,0.0006119485,1.802073,-7.9189,0.3076208,5.980844,0.06555217,-0.2297574,0.3042459,5.979641
"2.53 sec",0.6568796,2.169876,0.9529639,-7.026221,1.891729,0.7338139,-6.989752,1.039004,0.6463584,0.143365,0.5077338,-0.04137222,0.01820622,1.655482,-6.836485,0.4226643,5.98066,0.03838855,-0.1351611,0.2982916,10.10055
"2.54 sec",0.6568796,2.169876,0.9529639,-7.026221,1.90214,0.7403021,-6.988321,1.043818,0.6518795,0.1417944,0.5106877,-0.0904926,0.02968529,0.7865351,-3.363483,0.3956991,10.09863,0.02825361,-0.1004439,0.2923838,13.57994
"2.55 sec",0.6568796,2.169876,0.9529639,-7.026221,1.912626,0.7468718,-6.987079,1.053718,0.6624333,0.1057671,0.5136094,-0.1104826,0.03373877,0.1792178,-0.9635645,0.3232146,13.57535,0.09829096,0.02748422,0.2865404,13.88222
"2.56 sec",0.6568796,2.169876,0.9529639,-7.026221,1.923217,0.753555,-6.98622,1.064186,0.6742558,0.06602615,0.516483,-0.09985792,0.04207975,1.290062,2.401891,0.1856632,13.88116,-0.02706931,0.09840569,0.2807932,13.88222
"2.57 sec",0.6568796,2.169876,0.9529639,-7.026221,1.933898,0.7603545,-6.98576,1.071216,0.6851997,0.02592278,0.5192916,-0.06342432,0.04109736,-0.9955509,4.329364,0.1003031,13.88138,-0.02945505,0.1083067,0.2751759,12.62803
"2.58 sec",0.6568796,2.169876,0.9529639,-7.026221,1.944625,0.7672423,-6.985643,1.073572,0.6916048,-0.002383086,0.5220154,-0.01929848,0.02727809,-1.562146,4.273861,0.1551599,12.62914,-0.03264297,0.1213992,0.2697284,11.28124
"2.59 sec",0.6568796,2.169876,0.9529639,-7.026221,1.955357,0.7741706,-6.985744,1.072352,0.693433,-0.01741062,0.5246828,0.02091691,0.01159233,-1.50217,3.669263,0.2242892,11.28219,-0.03544395,0.1333046,0.2643937,10.28725
"2.6 sec",0.6849512,2.268056,1.027792,-7.027635,1.966064,0.7810996,-6.985944,1.068712,0.691854,-0.02235534,0.5273053,0.05447669,-0.002210951,-1.251661,2.988016,0.2686811,10.29037,0.02939425,-0.1116138,0.3152918,12.28171
"2.61 sec",0.6849512,2.268056,1.027792,-7.027635,1.976722,0.7879978,-6.986285,1.062945,0.6877617,-0.04635698,0.5304282,0.0518181,-0.00543274,0.2944961,-2.460525,0.3011668,12.28142,0.03511098,-0.1351759,0.309046,10.16096
"2.62 sec",0.6849512,2.268056,1.027792,-7.027635,1.987334,0.7948629,-6.986771,1.059959,0.6856892,-0.05033952,0.5335103,0.0163156,0.0009850906,0.8303221,-4.123495,0.3113199,10.16195,0.03903826,-0.1523568,0.3028818,9.031083
"2.63 sec",0.6849512,2.268056,1.027792,-7.027635,1.997932,0.8017209,-6.987238,1.060092,0.6863421,-0.04283015,0.5365226,-0.02634738,0.01003368,0.9178048,-4.160091,0.3425862,9.03271,0.04001911,-0.1582092,0.2968572,8.706691
"2.64 sec",0.6849512,2.268056,1.027792,-7.027635,2.008545,0.808598,-6.987612,1.062905,0.6894839,-0.03177254,0.5394773,-0.06494386,0.01856756,0.7947717,-3.467268,0.3592855,8.707935,0.05360385,-0.1314491,0.2909478,8.833795
"2.65 sec",0.6849512,2.268056,1.027792,-7.027635,2.019197,0.815518,-6.987879,1.067895,0.6948215,-0.02167259,0.5423782,-0.09207875,0.0269529,0.8691513,-2.063281,0.34455,8.83303,0.1188966,0.05597998,0.285146,9.190376
"2.66 sec",0.6849512,2.268056,1.027792,-7.027635,2.029906,0.8225006,-6.988062,1.073571,0.7018756,-0.0149361,0.5452375,-0.0864123,0.04235994,1.967288,2.337248,0.1874223,9.189667,-0.03507834,0.1437968,0.2794273,9.591445
"2.67 sec",0.6849512,2.268056,1.027792,-7.027635,2.040661,0.8295567,-6.988197,1.0769,0.7090249,-0.01231587,0.5480372,-0.04662348,0.04421247,-0.9991235,4.920266,0.05935967,9.590891,-0.03378021,0.1401445,0.2738279,9.845976
