Time,desired yaw,desired x,desired y,desired z,WorldPosition_1,WorldPosition_2,WorldPosition_3,WorldVelocity_1,WorldVelocity_2,WorldVelocity_3,EulerZYX_1,EulerZYX_2,EulerZYX_3,BodyAngularRateRPY_1,BodyAngularRateRPY_2,BodyAngularRateRPY_3,Thrust,Roll CS,Pitch CS,Yaw CS,Thrust CS
"0 sec",0.4712389,0.348944,0.1777958,-6.979475,0,0,-7,0,0,0,0,0,0,0,0,0,0,0.06868772,-0.149263,0.08055536,-0.552527
"0.01 sec",0.4712389,0.348944,0.1777958,-6.979475,-9.31687e-08,-4.290886e-08,-6.999483,-3.522749e-05,-1.622816e-05,0.1034834,0.0007564848,-0.01738334,0.007995234,1.304943,-2.834118,0.1014002,-0.5525036,0.1678952,-0.1705734,0.5,5.979641
"0.02 sec",0.4712389,0.348944,0.1777958,-6.979475,7.607707e-06,4.127006e-06,-6.99824,0.00194095,0.001129023,0.143511,0.005498481,-0.05107922,0.03384588,3.357502,-3.557011,0.614071,5.979375,0.1289195,0.03345898,0.4932628,8.070432
"0.03 sec",0.4712389,0.348944,0.1777958,-6.979475,5.00462e-05,3.329608e-05,-6.996712,0.006691359,0.005125965,0.1616864,0.01041434,-0.06123981,0.06349544,2.609482,0.7958252,0.4435762,8.068067,0.1027521,-0.04401977,0.5090203,12.32101
"0.04 sec",0.4712389,0.348944,0.1777958,-6.979475,0.0001519802,0.0001279193,-6.995207,0.01361602,0.01425574,0.1382076,0.01550284,-0.05499537,0.0824684,1.374487,0.5403181,0.4656831,12.32077,0.0893105,-0.001716301,0.516103,13.31897
"0.05 sec",0.4712389,0.348944,0.1777958,-6.979475,0.000321858,0.0003280634,-6.993995,0.0201564,0.02597659,0.1040537,0.02066377,-0.04601695,0.09079208,0.4693367,1.168041,0.4116066,13.3175,0.07794077,0.04948317,0.5241404,13.43518
"0.06 sec",0.4712389,0.348944,0.1777958,-6.979475,0.0005494647,0.0006498625,-6.993132,0.024961,0.03840121,0.06849598,0.02590176,-0.02861625,0.09181076,-0.1200726,2.114441,0.3313237,13.43467,0.07067654,0.04394329,0.5282807,13.21495
"0.07 sec",0.4712389,0.348944,0.1777958,-6.979475,0.0008117426,0.00109434,-6.992615,0.02704409,0.05040722,0.034957,0.03117924,-0.008581712,0.08863311,-0.4223168,1.90079,0.3610152,13.22165,0.06506104,0.02744036,0.5305743,12.47996
"0.08 sec",0.4712389,0.348944,0.1777958,-6.979475,0.001082328,0.001652848,-6.992398,0.02676526,0.06116134,0.008532701,0.03647998,0.006008983,0.08353453,-0.5459818,1.158698,0.4350849,12.48114,0.05930559,0.021439,0.5293013,11.08882
"0.09 sec",0.4712389,0.348944,0.1777958,-6.979475,0.001343158,0.002309729,-6.992379,0.02525325,0.07007155,-0.004244107,0.04177119,0.014057,0.07769988,-0.5915684,0.5941547,0.4844201,11.08969,0.04155178,-0.008080582,0.506833,9.491715
"0.1 sec",0.4161545,0.3599851,0.1614467,-7.008365,0.001586999,0.003046168,-6.992408,0.02351518,0.07706553,-0.001197734,0.04685078,0.01458728,0.07023361,-0.8297451,-0.2529293,0.5259359,9.492551,-0.01326175,-0.04413328,0.4645016,9.91945
"0.11 sec",0.4161545,0.3599851,0.1614467,-7.008365,0.001814385,0.00384926,-6.992423,0.02210948,0.08332569,-0.00197374,0.05152356,0.006156401,0.05591039,-1.781958,-1.150467,0.5306573,9.919045,-0.0305994,-0.04366483,0.4252397,9.59059
"0.12 sec",0.4161545,0.3599851,0.1614467,-7.008365,0.002033227,0.004706196,-6.992432,0.02187173,0.08774585,0.0002406722,0.05580864,-0.006191666,0.03589056,-2.056746,-1.199111,0.4698575,9.591291,-0.04922288,-0.02977357,0.3934476,9.551133
"0.13 sec",0.4161545,0.3599851,0.1614467,-7.008365,0.002255818,0.005597651,-6.992416,0.02281502,0.09021179,0.002858062,0.05977012,-0.0156898,0.01447268,-2.090987,-0.7198362,0.4046686,9.552416,-0.05163406,-0.05090513,0.3549234,9.703146
"0.14 sec",0.4161545,0.3599851,0.1614467,-7.008365,0.002492599,0.006504039,-6.992382,0.024693,0.09076156,0.003986274,0.06334724,-0.02381531,-0.004939026,-1.736274,-0.8353913,0.3514622,9.701159,-0.04514055,-0.07137671,0.3362522,9.729238
"0.15 sec",0.4161545,0.3599851,0.1614467,-7.008365,0.002752945,0.007407534,-6.992338,0.02755825,0.08971692,0.004848164,0.0667269,-0.03398818,-0.01936941,-1.159816,-1.10071,0.3154757,9.721377,-0.0347625,-0.06728141,0.3326474,9.769
"0.16 sec",0.4161545,0.3599851,0.1614467,-7.008365,0.003047533,0.008294905,-6.992287,0.03153218,0.0876359,0.005373955,0.07005982,-0.04396175,-0.02771082,-0.5519735,-0.8941192,0.3079485,9.768341,-0.02300257,-0.06246627,0.3241096,9.919764
"0.17 sec",0.4161545,0.3599851,0.1614467,-7.008365,0.003386899,0.009158555,-6.992238,0.03646334,0.08506259,0.00447093,0.07330651,-0.05105282,-0.03033313,-0.02704672,-0.566402,0.3066728,9.917493,-0.01257049,-0.05407117,0.3075828,10.02207
"0.18 sec",0.4161545,0.3599851,0.1614467,-7.008365,0.003778857,0.009996132,-6.992202,0.04198536,0.08249062,0.002562271,0.0763906,-0.05451304,-0.028512,0.3434179,-0.1958427,0.3016346,10.02147,-0.00438169,-0.04896812,0.2869376,10.05242
"0.19 sec",0.4161545,0.3599851,0.1614467,-7.008365,0.004227227,0.01080957,-6.992188,0.04769019,0.08027783,0.0003299673,0.07927047,-0.05491607,-0.02387985,0.5499003,0.05414358,0.287894,10.04255,-5.267317e-05,-0.04826359,0.2656032,10.01268
"0.2 sec",0.4468665,0.3583771,0.1810688,-6.995562,0.004732248,0.01160355,-6.992194,0.05328775,0.07861713,-0.00153169,0.08193775,-0.0538062,-0.01812367,0.5910985,0.1348208,0.2677461,10.0215,0.002071247,-0.04494549,0.2479562,9.532552
"0.21 sec",0.4468665,0.3583771,0.1810688,-6.995562,0.005291113,0.0123841,-6.992196,0.05844283,0.07758247,0.0012626,0.08442686,-0.05199991,-0.01255191,0.5307199,0.1968433,0.2501636,9.532964,-0.001228743,-0.04121011,0.2344874,9.525414
"0.22 sec",0.4468665,0.3583771,0.1810688,-6.995562,0.005900298,0.01315679,-6.992168,0.06335085,0.07701932,0.004235252,0.08677914,-0.04963115,-0.008342028,0.3473426,0.2488979,0.2363259,9.527088,-0.004893956,-0.03776481,0.2222508,9.576127
"0.23 sec",0.4468665,0.3583771,0.1810688,-6.995562,0.006557345,0.01392548,-6.992113,0.06801172,0.07675283,0.006700323,0.08900824,-0.04685139,-0.006065184,0.1542735,0.2820528,0.2237422,9.575464,-0.008273221,-0.03517589,0.2096284,9.618302
"0.24 sec",0.4468665,0.3583771,0.1810688,-6.995562,0.007259671,0.01469223,-6.992036,0.07240604,0.07660246,0.008728744,0.09111108,-0.04391084,-0.005517426,0.001063035,0.2863986,0.2110078,9.617747,-0.01070567,-0.03369193,0.1970298,9.650794
"0.25 sec",0.4468665,0.3583771,0.1810688,-6.995562,0.008004612,0.01545743,-6.99194,0.07653894,0.07642531,0.01041488,0.09308774,-0.04111584,-0.006165068,-0.09200674,0.2597729,0.1984542,9.638561,-0.01217269,-0.03333394,0.1850584,9.677927
"0.26 sec",0.4468665,0.3583771,0.1810688,-6.995562,0.008789697,0.01622035,-6.991829,0.08044236,0.07613593,0.01182477,0.0949443,-0.03875247,-0.007421672,-0.1299419,0.2072108,0.1864467,9.677308,-0.01277911,-0.03395642,0.174185,9.707591
"0.27 sec",0.4468665,0.3583771,0.1810688,-6.995562,0.009612896,0.01697967,-6.991705,0.08417246,0.07570264,0.01292669,0.09669159,-0.03702916,-0.008809539,-0.1270002,0.1381672,0.1752792,9.697375,-0.01283047,-0.0353063,0.1650615,9.73448
"0.28 sec",0.4468665,0.3583771,0.1810688,-6.995562,0.0104728,0.01773395,-6.991572,0.08779463,0.07513399,0.01376034,0.09834682,-0.03604823,-0.01002182,-0.1013483,0.0636506,0.1655965,9.733879,-0.01241706,-0.03700974,0.1581918,9.760852
"0.29 sec",0.4468665,0.3583771,0.1810688,-6.995562,0.01136867,0.018482,-6.991431,0.09137848,0.07446144,0.01432481,0.09993225,-0.03579526,-0.0108993,-0.06475352,-0.004723571,0.1580484,9.752746,-0.0117414,-0.03860895,0.1538022,9.782743
"0.3 sec",0.466901,0.3624022,0.1956999,-7.000183,0.01230045,0.01922297,-6.991286,0.09498394,0.07372693,0.01467199,0.1014725,-0.03613938,-0.01139044,-0.02684013,-0.05583673,0.1530768,9.773748,-0.008719338,-0.04386051,0.155054,9.94905
"0.31 sec",0.466901,0.3624022,0.1956999,-7.000183,0.01326888,0.01995644,-6.991146,0.0987246,0.0729724,0.01339894,0.1030224,-0.03734035,-0.01126075,0.04886565,-0.160949,0.1531404,9.946104,-0.006691853,-0.04231153,0.1602546,9.924484
"0.32 sec",0.466901,0.3624022,0.1956999,-7.000183,0.01427538,0.02068265,-6.991017,0.1025966,0.07228637,0.01232777,0.1046223,-0.03880809,-0.01048913,0.1028679,-0.1331639,0.1587398,9.929444,-0.005398573,-0.04227908,0.1649631,9.911512
"0.33 sec",0.466901,0.3624022,0.1956999,-7.000183,0.01532119,0.02140256,-6.990899,0.1065833,0.07171749,0.01139088,0.1062694,-0.03994666,-0.00935765,0.1256276,-0.0981284,0.1639147,9.915334,-0.004687157,-0.04205522,0.1690549,9.898639
"0.34 sec",0.466901,0.3624022,0.1956999,-7.000183,0.01640729,0.02211745,-6.990789,0.1106477,0.0712833,0.01058555,0.1079578,-0.0407319,-0.008149965,0.1231825,-0.06398559,0.1683952,9.902128,-0.004468448,-0.04059635,0.1724814,9.885523
"0.35 sec",0.466901,0.3624022,0.1956999,-7.000183,0.01753427,0.02282866,-6.990686,0.1147514,0.07097635,0.009912649,0.1096808,-0.04106615,-0.007072506,0.1040046,-0.01330312,0.1722456,9.888969,-0.004559839,-0.03770459,0.1745049,9.872697
"0.36 sec",0.466901,0.3624022,0.1956999,-7.000183,0.01870228,0.02353732,-6.99059,0.1188421,0.0707715,0.00936738,0.1114249,-0.04074265,-0.006238913,0.0773955,0.05985741,0.1747389,9.876086,-0.004741231,-0.03415843,0.174224,9.858177
"0.37 sec",0.466901,0.3624022,0.1956999,-7.000183,0.01991083,0.02424431,-6.990498,0.1228499,0.07063471,0.008963598,0.1131673,-0.03963618,-0.005671692,0.05180045,0.138159,0.1748764,9.861994,-0.004831482,-0.03067528,0.1714386,9.839948
"0.38 sec",0.466901,0.3624022,0.1956999,-7.000183,0.02115874,0.02495014,-6.99041,0.1267013,0.07053281,0.008735258,0.1148831,-0.03781642,-0.005322299,0.03305473,0.2015688,0.1723935,9.845096,-0.004770913,-0.02784831,0.1666102,9.81935
"0.39 sec",0.466901,0.3624022,0.1956999,-7.000183,0.02244414,0.025655,-6.990323,0.1303391,0.07044082,0.008704344,0.1165517,-0.03552586,-0.005108526,0.022782,0.2354942,0.1677117,9.826043,-0.004661195,-0.02593676,0.1605392,9.800778
"0.4 sec",0.4839741,0.3707982,0.2087849,-6.999348,0.02376471,0.02635894,-6.990235,0.1337355,0.07034469,0.008850684,0.1181602,-0.03309041,-0.004960987,0.01794451,0.2362313,0.1616261,9.807252,-0.004257233,-0.03159776,0.1554584,9.733055
"0.41 sec",0.4839741,0.3707982,0.2087849,-6.999348,0.02511804,0.02706188,-6.990142,0.1369054,0.07024433,0.009652904,0.1197174,-0.03159398,-0.004807636,0.02132679,0.08269287,0.1557807,9.733472,-0.005172469,-0.035141,0.1539789,9.751591
"0.42 sec",0.4839741,0.3707982,0.2087849,-6.999348,0.0265026,0.02776385,-6.990043,0.1400063,0.07015153,0.01029002,0.121258,-0.03154145,-0.004758399,0.001736837,-0.04869,0.1536725,9.747739,-0.005616853,-0.03836303,0.1568913,9.773908
"0.43 sec",0.4839741,0.3707982,0.2087849,-6.999348,0.02791837,0.02846493,-6.989938,0.1431668,0.07006597,0.01070703,0.1228254,-0.03260339,-0.00487628,-0.01201448,-0.1414398,0.1561216,9.766949,-0.005429182,-0.04037771,0.1632981,9.79388
"0.44 sec",0.4839741,0.3707982,0.2087849,-6.999348,0.02936644,0.02916519,-6.98983,0.1464738,0.06998757,0.01092918,0.1244551,-0.03429363,-0.005037168,-0.009040988,-0.1811432,0.1622936,9.786646,-0.004620045,-0.04039734,0.1712275,9.813621
"0.45 sec",0.4839741,0.3707982,0.2087849,-6.999348,0.03084846,0.02986474,-6.98972,0.1499595,0.06992526,0.01095998,0.1261633,-0.03601062,-0.005071312,0.01052031,-0.1586961,0.1703141,9.806326,-0.003375913,-0.03804753,0.1781704,9.831961
"0.46 sec",0.4839741,0.3707982,0.2087849,-6.999348,0.03236614,0.03056381,-6.989611,0.1535938,0.06989551,0.01081246,0.1279415,-0.03712866,-0.004850319,0.03971956,-0.07626336,0.1776787,9.82534,-0.001916207,-0.03367392,0.1818796,9.843816
"0.47 sec",0.4839741,0.3707982,0.2087849,-6.999348,0.03392055,0.03126281,-6.989504,0.1572865,0.06991621,0.01054732,0.1297584,-0.03714742,-0.004324012,0.07018086,0.04722993,0.1819614,9.839847,-0.0003671273,-0.02840469,0.1812811,9.842852
"0.48 sec",0.4839741,0.3707982,0.2087849,-6.999348,0.03551164,0.03196234,-6.9894,0.1609088,0.07000131,0.0102861,0.1315715,-0.03586187,-0.003508614,0.09652743,0.1764615,0.1817922,9.842077,0.001177784,-0.02364816,0.1768603,9.826511
"0.49 sec",0.4839741,0.3707982,0.2087849,-6.999348,0.03713804,0.03266308,-6.989298,0.1643304,0.07015977,0.01017757,0.1333425,-0.03345196,-0.002459145,0.1160823,0.2725661,0.1774467,9.829722,0.002452527,-0.0202746,0.1700335,9.801094
"0.5 sec",0.5010826,0.3826493,0.2216966,-6.998777,0.03879725,0.0333658,-6.989195,0.1674584,0.0703969,0.01031166,0.1350465,-0.03039473,-0.001270705,0.1243396,0.3133742,0.1703718,9.809336,0.002521412,-0.02635097,0.1640446,9.719518
"0.51 sec",0.5010826,0.3826493,0.2216966,-6.998777,0.04048611,0.03407128,-6.989088,0.1702749,0.07071319,0.01123492,0.1366902,-0.02817455,-0.0001627617,0.1045226,0.1495729,0.1640116,9.719967,0.0007995676,-0.02946681,0.1612179,9.743069
"0.52 sec",0.5010826,0.3826493,0.2216966,-6.998777,0.04220228,0.03478032,-6.988972,0.1729466,0.07110455,0.01194614,0.1383038,-0.02749065,0.0005072458,0.04597992,0.01027028,0.1611521,9.737397,-0.0005703262,-0.03231343,0.1624655,9.772095
"0.53 sec",0.5010826,0.3826493,0.2216966,-6.998777,0.04394504,0.03549352,-6.98885,0.1756149,0.0715377,0.01237134,0.1399278,-0.0279955,0.0006134034,-0.006310283,-0.08911794,0.1624572,9.771502,-0.00120966,-0.03407933,0.1670117,9.793556
"0.54 sec",0.5010826,0.3826493,0.2216966,-6.998777,0.0457149,0.0362111,-6.988725,0.178377,0.07197837,0.01257997,0.1415957,-0.02920168,0.0003398594,-0.03238474,-0.136187,0.1669897,9.788011,-0.001069001,-0.03407692,0.1731845,9.811417
"0.55 sec",0.5010826,0.3826493,0.2216966,-6.998777,0.04751305,0.03693305,-6.988599,0.1812759,0.07240923,0.01261415,0.1433244,-0.03052945,-3.292942e-05,-0.03025792,-0.124225,0.1731023,9.805752,-0.0002131935,-0.03203778,0.1787352,9.826468
"0.56 sec",0.5010826,0.3826493,0.2216966,-6.998777,0.04934083,0.03765925,-6.988474,0.184294,0.0728314,0.01250086,0.1451089,-0.03139812,-0.0002528534,-0.006155686,-0.05754945,0.1786331,9.821779,0.001165918,-0.02834393,0.1816787,9.835404
"0.57 sec",0.5010826,0.3826493,0.2216966,-6.998777,0.0511991,0.03838969,-6.98835,0.1873584,0.07325895,0.01229828,0.1469242,-0.03136338,-0.0001533584,0.02991783,0.04458559,0.1815965,9.832606,0.002867051,-0.02398033,0.181096,9.833769
"0.58 sec",0.5010826,0.3826493,0.2216966,-6.998777,0.0530878,0.03912452,-6.988228,0.1903621,0.07371208,0.01210763,0.1487354,-0.03025495,0.0003341253,0.0685881,0.1505799,0.1809671,9.832996,0.004630398,-0.02005113,0.1773799,9.820846
"0.59 sec",0.5010826,0.3826493,0.2216966,-6.998777,0.05500577,0.03986409,-6.988107,0.1931968,0.07421228,0.01203892,0.1505112,-0.02822727,0.001187753,0.1014696,0.2288833,0.1770481,9.823361,0.006068947,-0.0171888,0.1716654,9.803054
"0.6 sec",0.4138843,0.4158744,0.1982687,-6.998563,0.0569509,0.04060898,-6.987986,0.195785,0.07477831,0.01214019,0.152231,-0.02566643,0.002295915,0.1197694,0.2630666,0.1710203,9.807606,-0.003607428,-0.0410103,0.1603219,9.715605
"0.61 sec",0.4138843,0.4158744,0.1982687,-6.998563,0.05892075,0.04135982,-6.98786,0.1981904,0.07538911,0.01309237,0.15384,-0.02598755,0.002252399,-0.08119079,-0.2299147,0.1607954,9.716075,-0.0105902,-0.06013801,0.164857,9.757524
"0.62 sec",0.4138843,0.4158744,0.1982687,-6.998563,0.0609157,0.0421166,-6.987726,0.2008907,0.07594946,0.01366673,0.1554868,-0.03124838,0.0002778502,-0.2591184,-0.7017928,0.1650658,9.756959,-0.01213425,-0.05962497,0.1891856,9.761857
"0.63 sec",0.4138843,0.4158744,0.1982687,-6.998563,0.06294088,0.04287833,-6.987587,0.2042692,0.0763679,0.01420885,0.1573673,-0.03846741,-0.002647124,-0.2906649,-0.7022215,0.1872984,9.761089,-0.0108662,-0.05677852,0.2127701,9.842411
"0.64 sec",0.4138843,0.4158744,0.1982687,-6.998563,0.06500359,0.04364341,-6.987446,0.2083777,0.07662378,0.0139918,0.1594838,-0.04451358,-0.005271631,-0.2166035,-0.5116825,0.2099287,9.841982,-0.008345092,-0.04968408,0.2266915,9.924858
"0.65 sec",0.4138843,0.4158744,0.1982687,-6.998563,0.06711031,0.04441039,-6.987311,0.2130269,0.07675604,0.01297349,0.1617439,-0.04796342,-0.006894154,-0.100464,-0.2182605,0.2249462,9.924419,-0.005092638,-0.04309366,0.2278078,9.973864
"0.66 sec",0.4138843,0.4158744,0.1982687,-6.998563,0.06926495,0.04517834,-6.987189,0.2179137,0.07683163,0.01146721,0.1640214,-0.04860516,-0.007306408,0.01934653,0.04046208,0.2278404,9.973235,-0.00139131,-0.03709218,0.2205416,9.968222
"0.67 sec",0.4138843,0.4158744,0.1982687,-6.998563,0.07146838,0.04594708,-6.987081,0.2227436,0.07692654,0.01000123,0.1662306,-0.04702986,-0.006570403,0.1248326,0.2268625,0.2218048,9.969701,0.002133025,-0.02931931,0.2090653,9.922092
"0.68 sec",0.4138843,0.4158744,0.1982687,-6.998563,0.07371885,0.04671717,-6.986987,0.2272892,0.07710974,0.008972685,0.1683274,-0.04369454,-0.004915977,0.2014145,0.3881629,0.2108126,9.922832,0.005332901,-0.02363684,0.1947974,9.854889
"0.69 sec",0.4138843,0.4158744,0.1982687,-6.998563,0.07601262,0.04748973,-6.986899,0.2313841,0.07742775,0.008592341,0.1702832,-0.0391885,-0.002646703,0.2474361,0.4706038,0.1959503,9.855846,0.007316293,-0.02043112,0.1796682,9.78719
"0.7 sec",0.4335618,0.4341605,0.2129873,-6.994337,0.07834473,0.04826625,-6.986812,0.2349539,0.07790581,0.008869505,0.1720883,-0.03437678,-0.0001455209,0.2515817,0.465451,0.1796876,9.788218,0.006563823,-0.03242135,0.167527,9.537498
"0.71 sec",0.4335618,0.4341605,0.2129873,-6.994337,0.08070982,0.04904832,-6.98671,0.2380117,0.07853493,0.0115817,0.1737701,-0.03155287,0.002006989,0.1899714,0.1454974,0.1671666,9.538807,0.001515754,-0.0399825,0.1635675,9.596185
"0.72 sec",0.4335618,0.4341605,0.2129873,-6.994337,0.08310455,0.04983744,-6.986583,0.2409361,0.07930584,0.01378201,0.1754078,-0.03172512,0.002980473,0.03875715,-0.1259096,0.1638592,9.59525,-0.001948041,-0.04808485,0.1700286,9.684886
"0.73 sec",0.4335618,0.4341605,0.2129873,-6.994337,0.0855291,0.05063466,-6.986438,0.2440186,0.08013856,0.0151087,0.1771049,-0.03433539,0.002592502,-0.08022019,-0.339559,0.1708246,9.684415,-0.003192395,-0.05474065,0.1846913,9.747371
"0.74 sec",0.4335618,0.4341605,0.2129873,-6.994337,0.08798619,0.05144019,-6.986283,0.2474711,0.08096278,0.01581566,0.1789445,-0.03860818,0.001435981,-0.1231952,-0.466146,0.1852559,9.746511,-0.002288526,-0.04928783,0.2034335,9.803576
"0.75 sec",0.4335618,0.4341605,0.2129873,-6.994337,0.0904801,0.05225381,-6.986125,0.2513767,0.08175603,0.01597546,0.1809695,-0.04245369,0.0002721488,-0.09281801,-0.3110587,0.203353,9.802798,-0.0004398924,-0.04343013,0.2140222,9.866717
"0.76 sec",0.4335618,0.4341605,0.2129873,-6.994337,0.09301485,0.05307523,-6.985967,0.2556035,0.08252345,0.01551805,0.1831044,-0.04430296,-0.0003784801,-0.02782442,-0.0908884,0.2137803,9.865829,0.002160111,-0.03591876,0.2148658,9.89659
"0.77 sec",0.4335618,0.4341605,0.2129873,-6.994337,0.09559248,0.05390427,-6.985816,0.2599148,0.08328655,0.01475455,0.1852526,-0.04383334,-0.0002908936,0.04903449,0.1380153,0.2147014,9.887246,0.00546223,-0.02616998,0.2083665,9.881739
"0.78 sec",0.4335618,0.4341605,0.2129873,-6.994337,0.09821255,0.05474104,-6.985671,0.2640493,0.08407494,0.01412584,0.1873397,-0.04100651,0.0006019254,0.1273536,0.3675325,0.2079903,9.883184,0.009660705,-0.01867739,0.1969136,9.822944
"0.79 sec",0.4335618,0.4341605,0.2129873,-6.994337,0.100872,0.05558595,-6.98553,0.2677667,0.08492304,0.01405532,0.1893151,-0.03635716,0.002322746,0.2073142,0.5096975,0.1956501,9.823842,0.01345425,-0.01450614,0.183552,9.740176
"0.8 sec",0.4529044,0.4561148,0.228005,-6.993705,0.103566,0.05643984,-6.985386,0.2709241,0.08587664,0.01478821,0.1911581,-0.03097239,0.004739166,0.264134,0.533948,0.181005,9.740605,0.01424524,-0.02574565,0.173262,9.561369
"0.81 sec",0.4529044,0.4561148,0.228005,-6.993705,0.1062886,0.05730393,-6.985226,0.2735297,0.08697082,0.01727136,0.1928965,-0.02739053,0.007290624,0.2456513,0.224208,0.1715956,9.565135,0.009832549,-0.03231234,0.1679777,9.648173
"0.82 sec",0.4529044,0.4561148,0.228005,-6.993705,0.1090359,0.0581799,-6.985045,0.275917,0.08824761,0.01894883,0.1945791,-0.02672059,0.008931508,0.108803,-0.04026433,0.1682823,9.647757,0.006088398,-0.03935627,0.1700887,9.759317
"0.83 sec",0.4529044,0.4561148,0.228005,-6.993705,0.1118071,0.05906931,-6.984852,0.2783656,0.08964405,0.0195248,0.1962789,-0.02842532,0.009181698,-0.02508459,-0.2480933,0.1723091,9.758513,0.003914238,-0.04508992,0.1791807,9.819093
"0.84 sec",0.4529044,0.4561148,0.228005,-6.993705,0.1146041,0.0599729,-6.984657,0.2810822,0.09107315,0.01949725,0.1980661,-0.03175868,0.008399381,-0.1016437,-0.3728948,0.1822501,9.818271,0.003414887,-0.03992411,0.1928523,9.854981
"0.85 sec",0.4529044,0.4561148,0.228005,-6.993705,0.11743,0.0608907,-6.984464,0.2841544,0.09247875,0.01911468,0.1999879,-0.0347981,0.007217837,-0.1132151,-0.2405827,0.1944932,9.854401,0.004182713,-0.03538833,0.2006322,9.885845
"0.86 sec",0.4529044,0.4561148,0.228005,-6.993705,0.120288,0.06182229,-6.984276,0.2874751,0.09382896,0.01842642,0.2019903,-0.03621641,0.006194038,-0.07839297,-0.06611558,0.2009176,9.874522,0.006043209,-0.02981685,0.2017786,9.891382
"0.87 sec",0.4529044,0.4561148,0.228005,-6.993705,0.1231797,0.06276708,-6.984096,0.2908612,0.09512117,0.01768244,0.2040075,-0.03584667,0.005698585,-0.01548493,0.1070585,0.2010405,9.887821,0.008804777,-0.02243218,0.1975395,9.869339
"0.88 sec",0.4529044,0.4561148,0.228005,-6.993705,0.1261048,0.06372458,-6.983922,0.2941183,0.09637839,0.01714712,0.2059851,-0.03369364,0.005934844,0.06061461,0.2804899,0.1957725,9.873296,0.01220024,-0.01653555,0.189306,9.819481
"0.89 sec",0.4529044,0.4561148,0.228005,-6.993705,0.1290611,0.06469464,-6.98375,0.297065,0.09763797,0.01709106,0.2078825,-0.03013749,0.006967745,0.1376086,0.3919569,0.1865185,9.820199,0.01508506,-0.01292559,0.1791402,9.760867
"0.9 sec",0.4716545,0.481284,0.2438067,-6.9934,0.1320447,0.0656775,-6.983577,0.2995878,0.09894746,0.01760885,0.2096795,-0.02595425,0.008651556,0.1898712,0.4190308,0.1755,9.761651,0.01528548,-0.02560912,0.1717583,9.598629
"0.91 sec",0.4716545,0.481284,0.2438067,-6.9934,0.1350513,0.06667382,-6.98339,0.3016972,0.1003379,0.01971468,0.2114011,-0.0235854,0.01045925,0.173279,0.1052414,0.1706289,9.601113,0.01193477,-0.03282678,0.1693691,9.704825
"0.92 sec",0.4716545,0.481284,0.2438067,-6.9934,0.1380783,0.06768478,-6.983188,0.3037108,0.1018736,0.02082593,0.213096,-0.024085,0.01157531,0.07137111,-0.149561,0.1710576,9.704247,0.009593505,-0.03959444,0.1740908,9.814853
"0.93 sec",0.4716545,0.481284,0.2438067,-6.9934,0.1411261,0.06871171,-6.982979,0.3058888,0.1035237,0.02084366,0.2148345,-0.0267368,0.0117186,-0.01760983,-0.3276893,0.1778848,9.814104,0.008696923,-0.0386098,0.1850661,9.864572
"0.94 sec",0.4716545,0.481284,0.2438067,-6.9934,0.1441972,0.06975546,-6.982773,0.3083788,0.1052319,0.020357,0.2166796,-0.02995924,0.01124042,-0.05734401,-0.299977,0.1883774,9.863911,0.008902756,-0.03331285,0.1948731,9.889479
"0.95 sec",0.4716545,0.481284,0.2438067,-6.9934,0.1472947,0.07081639,-6.982573,0.3111512,0.1069515,0.01962086,0.2186234,-0.032035,0.01061573,-0.05297776,-0.1317737,0.1961877,9.882626,0.009993627,-0.02983689,0.19857,9.89603
"0.96 sec",0.4716545,0.481284,0.2438067,-6.9934,0.1504207,0.07189443,-6.982381,0.3140557,0.1086529,0.01882056,0.2206072,-0.03252564,0.01021236,-0.01916153,0.01268758,0.1983456,9.893276,0.01176079,-0.02344247,0.1977059,9.881473
"0.97 sec",0.4716545,0.481284,0.2438067,-6.9934,0.1535757,0.07298937,-6.982196,0.3169283,0.1103323,0.01815949,0.2225847,-0.0314084,0.01025033,0.02979879,0.1769694,0.1958061,9.883919,0.01408198,-0.01732982,0.1927029,9.842237
"0.98 sec",0.4716545,0.481284,0.2438067,-6.9934,0.1567585,0.07410102,-6.982016,0.3195982,0.1119987,0.01787695,0.2245143,-0.02879301,0.01082977,0.08408745,0.3100209,0.189288,9.842834,0.01632221,-0.01304483,0.1851176,9.78768
"0.99 sec",0.4716545,0.481284,0.2438067,-6.9934,0.1599665,0.07522935,-6.981836,0.3219322,0.1136722,0.01812839,0.2263696,-0.02524133,0.01190981,0.1275995,0.3727103,0.180655,9.788358,0.01754866,-0.01056632,0.1764182,9.747747
"1 sec",0.490372,0.509011,0.2609935,-6.992706,0.1631959,0.07637457,-6.981651,0.3238732,0.115379,0.01877498,0.2281385,-0.02146557,0.01325467,0.1398111,0.3669921,0.1715534,9.748323,0.01639343,-0.02425802,0.1709359,9.577112
"1.01 sec",0.490372,0.509011,0.2609935,-6.992706,0.1664427,0.07753698,-6.981452,0.3254693,0.117114,0.02108995,0.2298508,-0.0197564,0.01438047,0.09473248,0.03411472,0.1704315,9.58085,0.01326505,-0.03187339,0.1700615,9.711308
"1.02 sec",0.490372,0.509011,0.2609935,-6.992706,0.1697052,0.07871722,-6.981236,0.3270497,0.1189456,0.02214022,0.2315518,-0.02099104,0.01475983,0.003485556,-0.2202266,0.1732934,9.710258,0.01159992,-0.03835367,0.1755926,9.838165
"1.03 sec",0.490372,0.509011,0.2609935,-6.992706,0.1729846,0.07991618,-6.981016,0.328871,0.1208547,0.02192651,0.233305,-0.0242558,0.01438955,-0.05610388,-0.3788908,0.1810239,9.837012,0.0114548,-0.03341006,0.1865646,9.889004
"1.04 sec",0.490372,0.509011,0.2609935,-6.992706,0.1762839,0.08113445,-6.9808,0.3310439,0.1228021,0.02119274,0.2351651,-0.02745001,0.01370881,-0.064964,-0.2598706,0.1900849,9.88833,0.01217168,-0.0283779,0.1934929,9.903467
"1.05 sec",0.490372,0.509011,0.2609935,-6.992706,0.1796063,0.08237223,-6.980592,0.3334661,0.1247501,0.02030998,0.2370965,-0.02902221,0.01313751,-0.04001806,-0.07603431,0.1944294,9.900431,0.01360181,-0.02479902,0.1948267,9.89323
"1.06 sec",0.490372,0.509011,0.2609935,-6.992706,0.1829534,0.08362938,-6.980393,0.3359609,0.126679,0.01952662,0.2390441,-0.02896876,0.01293685,0.003872579,0.06445631,0.193927,9.895226,0.015384,-0.01880753,0.1925227,9.866234
"1.07 sec",0.490372,0.509011,0.2609935,-6.992706,0.1863252,0.08490574,-6.980201,0.338369,0.1285925,0.01900502,0.2409706,-0.02743997,0.01321283,0.05152093,0.2098472,0.1896983,9.867036,0.01719169,-0.01385612,0.1871869,9.819285
"1.08 sec",0.490372,0.509011,0.2609935,-6.992706,0.18972,0.0862012,-6.980011,0.3405433,0.1304986,0.01894269,0.2428453,-0.02470166,0.01393585,0.09122477,0.3086509,0.1828591,9.819883,0.01835159,-0.01060949,0.1801285,9.772953
"1.09 sec",0.490372,0.509011,0.2609935,-6.992706,0.193135,0.08751573,-6.97982,0.3423893,0.1324101,0.01933746,0.2446503,-0.02135327,0.01493534,0.1081696,0.3413146,0.1750271,9.773544,0.01839251,-0.008061852,0.1723415,9.753119
"1.1 sec",0.5087673,0.5388997,0.2797827,-6.991751,0.1965666,0.08884945,-6.979623,0.3438798,0.1343361,0.01993271,0.2463779,-0.01791626,0.0159221,0.09331894,0.3337446,0.1670364,9.75781,0.01676251,-0.02246353,0.167944,9.568696
"1.11 sec",0.5087673,0.5388997,0.2797827,-6.991751,0.2000115,0.09020232,-6.979412,0.3450744,0.1362436,0.02232476,0.2480596,-0.01659887,0.01652448,0.0398133,-0.006657223,0.1680539,9.572697,0.01417359,-0.02993281,0.1673697,9.71492
"1.12 sec",0.5087673,0.5388997,0.2797827,-6.991751,0.2034682,0.09157457,-6.979184,0.3462972,0.1382128,0.02333936,0.2497337,-0.01820426,0.01645659,-0.03316208,-0.2525952,0.1715266,9.713559,0.01321275,-0.03570909,0.1722757,9.854877
"1.13 sec",0.5087673,0.5388997,0.2797827,-6.991751,0.2069384,0.09296682,-6.978952,0.3477934,0.1402424,0.02295876,0.251454,-0.02166748,0.01587484,-0.06663395,-0.3889413,0.1784466,9.853318,0.01366657,-0.02903243,0.1816986,9.907544
"1.14 sec",0.5087673,0.5388997,0.2797827,-6.991751,0.2104253,0.09437957,-6.978727,0.3496458,0.1423097,0.02203598,0.2532663,-0.02471064,0.01522299,-0.05409707,-0.2280766,0.1851443,9.906827,0.01466403,-0.02426757,0.1864284,9.909278
"1.15 sec",0.5087673,0.5388997,0.2797827,-6.991751,0.213932,0.09581304,-6.978511,0.3517154,0.1443829,0.021087,0.2551281,-0.02594707,0.01483003,-0.01950697,-0.04245814,0.1870166,9.90869,0.01603833,-0.02067002,0.1864243,9.885861
"1.16 sec",0.5087673,0.5388997,0.2797827,-6.991751,0.2174597,0.09726718,-6.978304,0.3538192,0.146446,0.02036788,0.2569924,-0.02558491,0.01483501,0.022107,0.09244243,0.1850128,9.891426,0.01738647,-0.01543561,0.1834793,9.851756
"1.17 sec",0.5087673,0.5388997,0.2797827,-6.991751,0.221008,0.09874191,-6.978103,0.3558085,0.1484995,0.01998181,0.2588287,-0.02390276,0.01522983,0.05705212,0.2163066,0.1801588,9.852354,0.01829527,-0.01139877,0.1782878,9.80572
"1.18 sec",0.5087673,0.5388997,0.2797827,-6.991751,0.2245751,0.1002371,-6.977902,0.3575623,0.1505425,0.0200498,0.2606144,-0.02125547,0.01588225,0.0745145,0.2898198,0.1736765,9.806277,0.01837304,-0.008536273,0.1718368,9.772157
"1.19 sec",0.5087673,0.5388997,0.2797827,-6.991751,0.2281583,0.1017527,-6.9777,0.3590145,0.152573,0.02045468,0.2623361,-0.01817306,0.01656876,0.06716061,0.3110036,0.1666884,9.784887,0.01761515,-0.005796672,0.1647654,9.769904
"1.2 sec",0.5264549,0.5706294,0.3002307,-6.990606,0.2317543,0.1032885,-6.977493,0.3601515,0.1545825,0.02087993,0.2639875,-0.01501229,0.01704974,0.03752194,0.3094005,0.1595004,9.773026,0.01594573,-0.02061608,0.1611549,9.566071
"1.21 sec",0.5264549,0.5706294,0.3002307,-6.990606,0.2353604,0.104844,-6.977273,0.3610344,0.1565198,0.02329122,0.2656009,-0.01395381,0.01711758,-0.0105055,-0.03235742,0.1617169,9.571424,0.01407949,-0.02768036,0.1605504,9.715852
"1.22 sec",0.5264549,0.5706294,0.3002307,-6.990606,0.2389752,0.106419,-6.977035,0.3619746,0.1584821,0.02429378,0.2672068,-0.01574805,0.0166918,-0.05831314,-0.2660653,0.1650028,9.714485,0.01389122,-0.0326209,0.1645301,9.86441
"1.23 sec",0.5264549,0.5706294,0.3002307,-6.990606,0.2426008,0.1080139,-6.976794,0.3632004,0.160492,0.0238158,0.2688501,-0.01921239,0.01602428,-0.06449758,-0.3801515,0.170627,9.862507,0.01495558,-0.02545537,0.1721486,9.91911
"1.24 sec",0.5264549,0.5706294,0.3002307,-6.990606,0.2462405,0.1096291,-6.976561,0.3647712,0.1625465,0.02277277,0.2705678,-0.02207539,0.01552045,-0.0324821,-0.2048199,0.1753111,9.918344,0.01618943,-0.02094531,0.1753714,9.910018
"1.25 sec",0.5264549,0.5706294,0.3002307,-6.990606,0.2498969,0.1112649,-6.976338,0.3665317,0.1646231,0.02180834,0.2723199,-0.02310168,0.01539513,0.008237911,-0.02407791,0.1757161,9.911878,0.01736026,-0.01752171,0.1746472,9.878155
"1.26 sec",0.5264549,0.5706294,0.3002307,-6.990606,0.2535711,0.1129215,-6.976123,0.3683019,0.1667085,0.02115902,0.2740667,-0.02260146,0.01564754,0.04229912,0.1024257,0.1730228,9.889784,0.01811581,-0.01294564,0.1715256,9.842771
"1.27 sec",0.5264549,0.5706294,0.3002307,-6.990606,0.2572625,0.1145991,-6.975913,0.3699469,0.1687971,0.02085535,0.2757836,-0.02092094,0.01614989,0.05954716,0.2092333,0.1681365,9.843431,0.01811181,-0.009544687,0.1666502,9.80136
"1.28 sec",0.5264549,0.5706294,0.3002307,-6.990606,0.2609693,0.1162974,-6.975704,0.3713672,0.170874,0.02096343,0.2774527,-0.01844422,0.01669198,0.05357466,0.2667329,0.1621988,9.801907,0.01731272,-0.006357861,0.1607748,9.77971
"1.29 sec",0.5264549,0.5706294,0.3002307,-6.990606,0.2646889,0.1180164,-6.975493,0.3725141,0.1729196,0.0212902,0.2790635,-0.01556386,0.01704765,0.02629125,0.29356,0.1557771,9.785143,0.01594518,-0.003567188,0.1542529,9.78194
"1.3 sec",0.5430989,0.6039413,0.3222939,-6.989325,0.2684186,0.1197556,-6.975278,0.3733738,0.1749052,0.02159416,0.2806094,-0.0125438,0.01705361,-0.01320906,0.2980264,0.1491778,9.782772,0.01442098,-0.01868077,0.1512981,9.562619
"1.31 sec",0.5430989,0.6039413,0.3222939,-6.989325,0.2721556,0.1215141,-6.97505,0.3740092,0.1767709,0.02403348,0.2821239,-0.01160964,0.01666325,-0.05170933,-0.04528367,0.1520646,9.569083,0.013258,-0.02529017,0.1506199,9.71442
"1.32 sec",0.5430989,0.6039413,0.3222939,-6.989325,0.2758991,0.1232911,-6.974805,0.3747186,0.178629,0.02504659,0.2836305,-0.01346919,0.01596754,-0.07524369,-0.2684018,0.1549223,9.713069,0.01377666,-0.02950133,0.1537262,9.869673
"1.33 sec",0.5430989,0.6039413,0.3222939,-6.989325,0.279651,0.1250868,-6.974557,0.3757145,0.1805244,0.02451274,0.2851663,-0.01684712,0.01527948,-0.05728008,-0.3649638,0.1593112,9.867474,0.01539123,-0.02249661,0.1597649,9.926149
"1.34 sec",0.5430989,0.6039413,0.3222939,-6.989325,0.2834145,0.1269018,-6.974318,0.3770389,0.1824736,0.0233941,0.2867609,-0.01955473,0.0149568,-0.008898346,-0.1902567,0.1625998,9.925344,0.01680057,-0.01823379,0.1620356,9.909529
"1.35 sec",0.5430989,0.6039413,0.3222939,-6.989325,0.2871923,0.1287364,-6.974088,0.3785327,0.1844649,0.02242687,0.2883801,-0.02047609,0.01510379,0.03546864,-0.01728031,0.1622808,9.91277,0.01771485,-0.01510158,0.1609927,9.873242
"1.36 sec",0.5430989,0.6039413,0.3222939,-6.989325,0.2909851,0.1305911,-6.973867,0.3800234,0.1864872,0.02181643,0.2899905,-0.01996057,0.01558746,0.06032863,0.09992304,0.1594252,9.873833,0.01787349,-0.01106733,0.1579542,9.836781
"1.37 sec",0.5430989,0.6039413,0.3222939,-6.989325,0.2947923,0.1324662,-6.97365,0.3813891,0.1885266,0.0215699,0.2915717,-0.01838161,0.01617317,0.05974045,0.1940071,0.1548155,9.837276,0.01714169,-0.008063248,0.1534856,9.804922
"1.38 sec",0.5430989,0.6039413,0.3222939,-6.989325,0.2986122,0.1343616,-6.973434,0.3825482,0.1905556,0.02164335,0.2931089,-0.01611179,0.01660428,0.03427735,0.2429395,0.1494564,9.817013,0.01575877,-0.0045415,0.1481791,9.796607
"1.39 sec",0.5430989,0.6039413,0.3222939,-6.989325,0.3024425,0.1362772,-6.973217,0.383462,0.1925391,0.0217976,0.2945934,-0.01342287,0.01668464,-0.006446955,0.2780431,0.1435456,9.801184,0.01398915,-0.001657818,0.1422063,9.799233
"1.4 sec",0.5584933,0.6386194,0.3458748,-6.987887,0.3062806,0.1382121,-6.972999,0.384113,0.1944313,0.02192538,0.2960185,-0.01051471,0.0163251,-0.05141967,0.2898068,0.1374779,9.799764,0.01265868,-0.01695726,0.1398705,9.564017
"1.41 sec",0.5584933,0.6386194,0.3458748,-6.987887,0.310124,0.1401652,-6.972767,0.384563,0.1961688,0.02434194,0.2974184,-0.009660159,0.01560349,-0.08053716,-0.0532428,0.1407137,9.565372,0.01211417,-0.02308494,0.1392355,9.70927
"1.42 sec",0.5584933,0.6386194,0.3458748,-6.987887,0.3139721,0.1421354,-6.972518,0.3850974,0.1978736,0.02540236,0.2988111,-0.01153238,0.01473943,-0.08385809,-0.2656685,0.1431692,9.708308,0.01321697,-0.02663171,0.141714,9.867865
"1.43 sec",0.5584933,0.6386194,0.3458748,-6.987887,0.3178269,0.1441228,-6.972267,0.3859128,0.19961,0.02488271,0.3002271,-0.01478447,0.01408369,-0.04695134,-0.3469012,0.1466079,9.865437,0.01525761,-0.0201942,0.1465275,9.926051
"1.44 sec",0.5584933,0.6386194,0.3458748,-6.987887,0.3216915,0.1461279,-6.972023,0.3870381,0.2014105,0.02376027,0.3016899,-0.01736145,0.0139453,0.01323679,-0.1817882,0.1490543,9.92521,0.01677109,-0.01613396,0.1482483,9.906409
"1.45 sec",0.5584933,0.6386194,0.3458748,-6.987887,0.3255682,0.1481512,-6.971791,0.3883182,0.2032734,0.0228182,0.3031715,-0.0182446,0.01433348,0.05879311,-0.0173455,0.1484869,9.910488,0.01742953,-0.01319784,0.1471407,9.869228
"1.46 sec",0.5584933,0.6386194,0.3458748,-6.987887,0.3294578,0.1501935,-6.971566,0.3895893,0.2051882,0.02224226,0.3046435,-0.0177659,0.01500717,0.0744957,0.09344891,0.1457346,9.869824,0.01710624,-0.009558452,0.1443069,9.835476
"1.47 sec",0.5584933,0.6386194,0.3458748,-6.987887,0.3333596,0.1522551,-6.971344,0.3907397,0.2071331,0.02200812,0.3060881,-0.01630126,0.01565339,0.05904954,0.1792572,0.1415042,9.848971,0.01585621,-0.006198319,0.1402667,9.813927
"1.48 sec",0.5584933,0.6386194,0.3458748,-6.987887,0.3372719,0.1543361,-6.971124,0.3916977,0.209069,0.02198382,0.3074929,-0.01413715,0.0159944,0.01918997,0.235197,0.1365104,9.81454,0.01397314,-0.002632947,0.1353934,9.802443
"1.49 sec",0.5584933,0.6386194,0.3458748,-6.987887,0.3411928,0.1564363,-6.970904,0.3924229,0.2109424,0.02207751,0.3088492,-0.01149735,0.01585625,-0.03262234,0.2747545,0.1310397,9.804748,0.01191023,0.0002148542,0.1298868,9.80949
"1.5 sec",0.4679377,0.6948274,0.3352879,-6.986942,0.3451196,0.1585546,-6.970683,0.3928979,0.2126978,0.02210042,0.3101509,-0.008611788,0.0152073,-0.08154976,0.2877907,0.1255079,9.808318,0.01336263,-0.0291421,0.1225936,9.598829
"1.51 sec",0.4679377,0.6948274,0.3352879,-6.986942,0.3490502,0.1606896,-6.970452,0.39324,0.2143052,0.02417372,0.3113805,-0.009407124,0.01453117,-0.0531966,-0.3215393,0.1272826,9.603662,0.0112306,-0.04972082,0.1223472,9.833189
"1.52 sec",0.4679377,0.6948274,0.3352879,-6.986942,0.3529856,0.1628411,-6.970211,0.3939561,0.2160027,0.02401644,0.3126044,-0.01590577,0.01384107,-0.07385166,-0.8388927,0.1339884,9.82656,0.01288768,-0.03941505,0.1425274,9.916735
"1.53 sec",0.4679377,0.6948274,0.3352879,-6.986942,0.3569318,0.1650103,-6.969975,0.3954084,0.2178844,0.02300084,0.3140195,-0.02333427,0.01330334,-0.03297653,-0.6398931,0.1510282,9.916306,0.0150122,-0.03141103,0.1573399,9.948537
"1.54 sec",0.4679377,0.6948274,0.3352879,-6.986942,0.3608958,0.1671993,-6.969752,0.3974474,0.2199347,0.02166304,0.3155853,-0.02785643,0.01329711,0.02802972,-0.3004906,0.1612858,9.937565,0.01700102,-0.02730663,0.1610189,9.959832
"1.55 sec",0.4679377,0.6948274,0.3352879,-6.986942,0.3648817,0.1694094,-6.969543,0.3997597,0.2221102,0.02021973,0.3171936,-0.02948131,0.01385933,0.08045896,-0.05773582,0.1617622,9.954629,0.01860636,-0.02377754,0.1582476,9.93171
"1.56 sec",0.4679377,0.6948274,0.3352879,-6.986942,0.368891,0.1716418,-6.969347,0.402092,0.2243753,0.01905139,0.3187775,-0.02915228,0.01483469,0.1124026,0.09661508,0.1567692,9.937187,0.01929571,-0.01802171,0.1523607,9.888491
"1.57 sec",0.4679377,0.6948274,0.3352879,-6.986942,0.372923,0.1738971,-6.96916,0.4042754,0.2267013,0.01830566,0.3203042,-0.02733061,0.01595651,0.114102,0.2355885,0.1485763,9.889153,0.01870374,-0.01308177,0.1442714,9.829213
"1.58 sec",0.4679377,0.6948274,0.3352879,-6.986942,0.3769756,0.1761758,-6.968977,0.4061828,0.2290397,0.01814473,0.3217512,-0.02437058,0.01689129,0.08148756,0.3271118,0.1387359,9.829999,0.01683111,-0.009830656,0.1350205,9.778802
"1.59 sec",0.4679377,0.6948274,0.3352879,-6.986942,0.3810455,0.1784778,-6.968794,0.4077506,0.2313325,0.01848326,0.3231063,-0.02086561,0.01732099,0.02006769,0.3538614,0.1288845,9.779484,0.0141455,-0.006559659,0.1253214,9.762127
"1.6 sec",0.4821922,0.732396,0.3625616,-6.981414,0.3851295,0.1808022,-6.968607,0.408978,0.2335199,0.01899077,0.3243644,-0.01723772,0.01704904,-0.05387475,0.3555134,0.1192489,9.765778,0.01604274,-0.02562938,0.119025,9.350173
"1.61 sec",0.4821922,0.732396,0.3625616,-6.981414,0.3892241,0.1831473,-6.968395,0.409929,0.2355012,0.02350839,0.3255579,-0.01624252,0.01661981,-0.03016874,-0.07516488,0.1202762,9.350596,0.0145283,-0.03628717,0.1180841,9.49889
"1.62 sec",0.4821922,0.732396,0.3625616,-6.981414,0.3933284,0.1855123,-6.968144,0.410991,0.2375062,0.0266841,0.3267393,-0.01900708,0.01619615,-0.04514239,-0.3965818,0.1245119,9.496696,0.01489944,-0.04524246,0.1262632,9.785996
"1.63 sec",0.4821922,0.732396,0.3625616,-6.981414,0.3974454,0.187898,-6.967875,0.4124783,0.2396613,0.02703325,0.3279978,-0.02428599,0.01577854,-0.03296367,-0.5887643,0.1355443,9.785026,0.01668529,-0.03443968,0.1406645,9.939427
"1.64 sec",0.4821922,0.732396,0.3625616,-6.981414,0.4015798,0.1903062,-6.967611,0.4144892,0.2419945,0.02582574,0.3293971,-0.02876529,0.01568076,0.01255914,-0.3279326,0.1457658,9.93682,0.01815642,-0.02454953,0.145581,9.955138
"1.65 sec",0.4821922,0.732396,0.3625616,-6.981414,0.4057361,0.1927383,-6.96736,0.4167764,0.2444424,0.02443445,0.3308504,-0.03011699,0.01601568,0.05329521,0.005587393,0.145444,9.951195,0.01875447,-0.0201982,0.1422917,9.894227
"1.66 sec",0.4821922,0.732396,0.3625616,-6.981414,0.4099152,0.1951951,-6.967119,0.4190278,0.2469234,0.02363451,0.332275,-0.02894405,0.016608,0.06760595,0.1913975,0.1390783,9.894993,0.01825331,-0.01363268,0.1359709,9.810638
"1.67 sec",0.4821922,0.732396,0.3625616,-6.981414,0.4141158,0.1976767,-6.966883,0.4210489,0.2493765,0.02365813,0.333638,-0.0261063,0.01715511,0.04977893,0.3369541,0.130171,9.811075,0.01640648,-0.00924721,0.1279898,9.716895
"1.68 sec",0.4821922,0.732396,0.3625616,-6.981414,0.418335,0.2001823,-6.966641,0.4227229,0.2517359,0.0246083,0.334922,-0.02227562,0.01732755,-0.0003387422,0.4001054,0.1210428,9.71742,0.0136161,-0.00485891,0.1193948,9.660742
"1.69 sec",0.4821922,0.732396,0.3625616,-6.981414,0.422569,0.2027109,-6.966388,0.4240169,0.2539428,0.02612049,0.3361203,-0.01802664,0.0168793,-0.06878057,0.4252464,0.1121982,9.661483,0.01049429,-0.001837277,0.1104676,9.652637
"1.7 sec",0.4950112,0.7716792,0.3914332,-6.980345,0.4268141,0.2052605,-6.966119,0.4249422,0.2559401,0.02771753,0.3372293,-0.01377892,0.0157416,-0.1359528,0.4076058,0.1040249,9.654571,0.01241505,-0.02104682,0.1053586,9.361428
"1.71 sec",0.4950112,0.7716792,0.3914332,-6.980345,0.4310669,0.2078287,-6.96582,0.4255951,0.2576717,0.03214662,0.3382854,-0.0123597,0.01458781,-0.0937747,-0.04203051,0.1059764,9.362372,0.01170292,-0.03191908,0.1033143,9.6059
"1.72 sec",0.4950112,0.7716792,0.3914332,-6.980345,0.4353264,0.2104139,-6.965487,0.4263521,0.2593776,0.03426795,0.3393197,-0.01488021,0.01372057,-0.07551882,-0.3800502,0.1085427,9.604744,0.01284813,-0.04124865,0.1075849,9.951994
"1.73 sec",0.4950112,0.7716792,0.3914332,-6.980345,0.4395954,0.2130167,-6.965151,0.4275302,0.2612093,0.03296083,0.3403935,-0.02007948,0.01318714,-0.03265028,-0.5879234,0.1153376,9.951262,0.01581499,-0.02448404,0.1184251,10.07959
"1.74 sec",0.4950112,0.7716792,0.3914332,-6.980345,0.4438787,0.2156387,-6.964834,0.429202,0.2632117,0.03033133,0.3415722,-0.02388136,0.01329719,0.04441279,-0.2190941,0.121311,10.07819,0.01775153,-0.01741593,0.1196206,10.03165
"1.75 sec",0.4950112,0.7716792,0.3914332,-6.980345,0.44818,0.2182813,-6.964542,0.4310451,0.2653197,0.02814211,0.3427678,-0.02436024,0.0140476,0.09715743,0.07308375,0.1185731,10.03227,0.01803811,-0.01635039,0.1154042,9.926943
"1.76 sec",0.4950112,0.7716792,0.3914332,-6.980345,0.4524992,0.2209452,-6.964266,0.4327815,0.2674737,0.02698443,0.3439241,-0.02302939,0.01503867,0.1004377,0.1703578,0.1128327,9.927667,0.01692696,-0.01220876,0.1096379,9.849613
"1.77 sec",0.4950112,0.7716792,0.3914332,-6.980345,0.4568349,0.2236308,-6.963998,0.4343061,0.2696382,0.026604,0.3450235,-0.02082858,0.01580498,0.06101293,0.246345,0.1057413,9.850032,0.01452218,-0.009123737,0.1029016,9.795575
"1.78 sec",0.4950112,0.7716792,0.3914332,-6.980345,0.4611845,0.2263378,-6.963732,0.4355732,0.2717551,0.02676557,0.346056,-0.01810048,0.01598427,-0.00868394,0.2807512,0.09840842,9.796271,0.01148683,-0.006026198,0.09568658,9.776825
"1.79 sec",0.4950112,0.7716792,0.3914332,-6.980345,0.4655454,0.2290655,-6.963462,0.436579,0.2737561,0.02711913,0.3470165,-0.01513659,0.01540267,-0.08624685,0.295659,0.09111942,9.781113,0.008510562,-0.003224094,0.08815874,9.788714
"1.8 sec",0.5056123,0.8127629,0.421617,-6.978164,0.4699152,0.2318123,-6.96319,0.4373388,0.2755729,0.02735326,0.3479017,-0.01210719,0.01411167,-0.1500475,0.2958996,0.08396213,9.786629,0.01075013,-0.02283229,0.08406146,9.462149
"1.81 sec",0.5056123,0.8127629,0.421617,-6.978164,0.4742916,0.234576,-6.9629,0.4379327,0.2771438,0.03076372,0.3487444,-0.01171132,0.01287724,-0.09798703,-0.1340002,0.08579472,9.463089,0.01070763,-0.0335229,0.08318859,9.64778
"1.82 sec",0.5056123,0.8127629,0.421617,-6.978164,0.4786745,0.2373552,-6.962584,0.4387096,0.2787039,0.03244783,0.3495768,-0.01500489,0.01207147,-0.06313292,-0.4445272,0.08856674,9.642933,0.01245298,-0.04039156,0.08937098,9.92733
"1.83 sec",0.5056123,0.8127629,0.421617,-6.978164,0.4830674,0.2401506,-6.962264,0.4399473,0.2804089,0.03136968,0.3504675,-0.02044741,0.01175501,-0.006176413,-0.5845698,0.09623388,9.92626,0.01569184,-0.02376352,0.1007105,10.03676
"1.84 sec",0.5056123,0.8127629,0.421617,-6.978164,0.4874752,0.2429641,-6.961961,0.4416654,0.282309,0.02916299,0.3514687,-0.02410181,0.01216738,0.0751456,-0.1979267,0.1030897,10.03603,0.01757896,-0.01729591,0.101852,9.986509
"1.85 sec",0.5056123,0.8127629,0.421617,-6.978164,0.4919011,0.2457972,-6.961679,0.4435259,0.2843379,0.02742332,0.3524866,-0.024421,0.01320312,0.1221566,0.08420928,0.1007231,9.987158,0.01745141,-0.01472744,0.09799404,9.884293
"1.86 sec",0.5056123,0.8127629,0.421617,-6.978164,0.4963452,0.248651,-6.961408,0.4452549,0.2864282,0.02669143,0.3534686,-0.02283014,0.01436609,0.1108248,0.204667,0.09504922,9.884949,0.01561239,-0.01041385,0.09250624,9.802977
"1.87 sec",0.5056123,0.8127629,0.421617,-6.978164,0.5008054,0.2515258,-6.961141,0.4467389,0.2885226,0.0267744,0.3543966,-0.02025018,0.01511794,0.05092218,0.284372,0.08820554,9.803404,0.01243402,-0.006762727,0.08617407,9.750558
"1.88 sec",0.5056123,0.8127629,0.421617,-6.978164,0.505279,0.2544212,-6.96087,0.4479351,0.2905435,0.02738377,0.3552616,-0.01710034,0.01508002,-0.03793482,0.3231876,0.08129086,9.751232,0.008790302,-0.003190917,0.07943492,9.737659
"1.89 sec",0.5056123,0.8127629,0.421617,-6.978164,0.5097631,0.2573361,-6.960592,0.4488435,0.2924055,0.02812648,0.3560592,-0.01368394,0.01412863,-0.1273589,0.3401149,0.07460742,9.740359,0.005513102,-0.0004894579,0.07242154,9.760057
"1.9 sec",0.5144237,0.8553888,0.4530709,-6.976103,0.514255,0.2602685,-6.960309,0.4494836,0.2940311,0.02864554,0.3567868,-0.01025518,0.01240948,-0.1925834,0.3303255,0.068291,9.755705,0.00866285,-0.02056116,0.06895249,9.430432
"1.91 sec",0.5144237,0.8553888,0.4530709,-6.976103,0.5187522,0.2632157,-6.960004,0.4499473,0.2953716,0.03236869,0.357478,-0.009616494,0.01089467,-0.1154257,-0.1182934,0.07024869,9.431212,0.009065445,-0.03117482,0.06789929,9.632874
"1.92 sec",0.5144237,0.8553888,0.4530709,-6.976103,0.5232545,0.2661759,-6.959671,0.450583,0.2966802,0.03420109,0.3581576,-0.01279108,0.0100332,-0.06099324,-0.4363268,0.07228933,9.626608,0.01119765,-0.03915686,0.07305471,9.940031
"1.93 sec",0.5144237,0.8553888,0.4530709,-6.976103,0.5277653,0.2691498,-6.959334,0.4516726,0.2981354,0.03299768,0.3588856,-0.01830003,0.009822264,0.008834204,-0.60153,0.0789533,9.939123,0.01499129,-0.02174442,0.08405458,10.06364
"1.94 sec",0.5144237,0.8553888,0.4530709,-6.976103,0.5322897,0.2721394,-6.959017,0.4532477,0.2998091,0.0305192,0.3597204,-0.02206214,0.01046483,0.1016017,-0.2045816,0.08616897,10.06232,0.01712321,-0.01524177,0.0852894,10.00296
"1.95 sec",0.5144237,0.8553888,0.4530709,-6.976103,0.5368307,0.2751465,-6.958721,0.4549606,0.3016397,0.02860597,0.3605726,-0.02241487,0.01179662,0.1515403,0.08267684,0.08430409,10.00376,0.01674835,-0.01352173,0.08171017,9.89308
"1.96 sec",0.5144237,0.8553888,0.4530709,-6.976103,0.5413884,0.2781725,-6.958439,0.4565368,0.303559,0.02777817,0.3613917,-0.02092389,0.01320858,0.1306,0.1888653,0.07921688,9.893794,0.0145499,-0.009621646,0.07671715,9.816951
"1.97 sec",0.5144237,0.8553888,0.4530709,-6.976103,0.5459607,0.2812178,-6.958162,0.4578784,0.3055057,0.02771756,0.3621615,-0.01856002,0.0140846,0.05696459,0.2593085,0.07306654,9.817367,0.01101818,-0.00597118,0.0709966,9.774952
"1.98 sec",0.5144237,0.8553888,0.4530709,-6.976103,0.5505451,0.2842824,-6.957883,0.4589544,0.3073926,0.02808148,0.3628744,-0.01565295,0.01403815,-0.04408766,0.3000726,0.06677546,9.775515,0.007112487,-0.002395012,0.0648929,9.768339
"1.99 sec",0.5144237,0.8553888,0.4530709,-6.976103,0.5551389,0.2873651,-6.9576,0.4597668,0.3091212,0.02851538,0.3635263,-0.01243977,0.01298016,-0.1410962,0.3221605,0.06068812,9.769895,0.003737982,0.0003811137,0.05852363,9.791676
"2 sec",0.5216935,0.8994448,0.4857308,-6.973615,0.5597396,0.290464,-6.957314,0.4603326,0.3106043,0.02871584,0.3641145,-0.009153231,0.01111274,-0.2078503,0.3188686,0.05494689,9.786613,0.007438584,-0.01993226,0.05561568,9.438098
"2.01 sec",0.5216935,0.8994448,0.4857308,-6.973615,0.5643449,0.2935761,-6.957009,0.4607402,0.3117955,0.03235408,0.3646721,-0.008632266,0.009522261,-0.117739,-0.130115,0.0568625,9.438791,0.008133555,-0.03025631,0.05478787,9.619576
"2.02 sec",0.5216935,0.8994448,0.4857308,-6.973615,0.568955,0.2966998,-6.956676,0.4613279,0.3129523,0.03431237,0.3652205,-0.01187927,0.008700309,-0.05331697,-0.4404888,0.05863123,9.615243,0.01040883,-0.03771961,0.05979327,9.921523
"2.03 sec",0.5216935,0.8994448,0.4857308,-6.973615,0.5735731,0.2998357,-6.956337,0.4623654,0.3142611,0.03328964,0.3658159,-0.01734913,0.008597031,0.02074594,-0.5926863,0.06487691,9.920609,0.01430311,-0.02119874,0.07013164,10.05412
"2.04 sec",0.5216935,0.8994448,0.4857308,-6.973615,0.578204,0.3029858,-6.956016,0.4638788,0.3158003,0.03090548,0.3665118,-0.0211079,0.009370495,0.1142908,-0.2103951,0.07207809,10.05245,0.01643968,-0.01451474,0.07149653,9.993522
"2.05 sec",0.5216935,0.8994448,0.4857308,-6.973615,0.5828511,0.3061523,-6.955716,0.4655284,0.3175112,0.02908363,0.367226,-0.02151825,0.01082303,0.1620035,0.07683787,0.07065802,9.994318,0.01580454,-0.01265175,0.06825657,9.884054
"2.06 sec",0.5216935,0.8994448,0.4857308,-6.973615,0.587514,0.3093364,-6.955429,0.467043,0.3193217,0.0283432,0.3679104,-0.02006162,0.01229886,0.1333314,0.1868264,0.06596261,9.884765,0.0132707,-0.008816339,0.06365145,9.809813
"2.07 sec",0.5216935,0.8994448,0.4857308,-6.973615,0.5921911,0.3125388,-6.955145,0.4683252,0.3211617,0.02835162,0.3685493,-0.01771438,0.01314889,0.05034802,0.2575749,0.06026664,9.810228,0.009450299,-0.004777521,0.05837956,9.772405
"2.08 sec",0.5216935,0.8994448,0.4857308,-6.973615,0.5968797,0.3157594,-6.95486,0.4693457,0.3229349,0.02873947,0.3691358,-0.0147751,0.01299343,-0.05782975,0.3061026,0.05439167,9.772946,0.005338171,-0.001082626,0.05273514,9.768203
"2.09 sec",0.5216935,0.8994448,0.4857308,-6.973615,0.6015772,0.3189969,-6.954571,0.4701034,0.324534,0.02917268,0.3696659,-0.01147637,0.01177508,-0.1583093,0.3316483,0.04880309,9.769631,0.001929762,0.00168548,0.04684385,9.795351
"2.1 sec",0.5276539,0.9447982,0.5195269,-6.971072,0.6062809,0.3222492,-6.954278,0.4706137,0.3258676,0.02933458,0.3701369,-0.008096016,0.009742381,-0.2234339,0.3274016,0.04361696,9.788895,0.006256166,-0.01890533,0.04440982,9.432207
"2.11 sec",0.5276539,0.9447982,0.5195269,-6.971072,0.6109889,0.3255132,-6.953967,0.4709668,0.3268988,0.03302754,0.3705822,-0.007529955,0.008087661,-0.1179018,-0.1288424,0.04545932,9.432886,0.007220026,-0.02907363,0.04366489,9.609147
"2.12 sec",0.5276539,0.9447982,0.5195269,-6.971072,0.6157009,0.3287871,-6.953626,0.4714967,0.3278928,0.0350869,0.3710194,-0.01075958,0.007326405,-0.04358416,-0.4387949,0.04688881,9.605183,0.009626101,-0.03626354,0.04827743,9.917189
"2.13 sec",0.5276539,0.9447982,0.5195269,-6.971072,0.6204203,0.3320716,-6.953279,0.4724683,0.3290444,0.03410637,0.3714998,-0.01617994,0.007347509,0.03405897,-0.5860362,0.05256926,9.916307,0.01364316,-0.02032432,0.05785976,10.05816
"2.14 sec",0.5276539,0.9447982,0.5195269,-6.971072,0.6251519,0.3353688,-6.95295,0.4739061,0.3304393,0.03168064,0.3720733,-0.01993501,0.008265532,0.1283373,-0.2145874,0.05960947,10.05616,0.01577649,-0.01337914,0.05925786,9.996011
"2.15 sec",0.5276539,0.9447982,0.5195269,-6.971072,0.6298988,0.338681,-6.952643,0.4754767,0.332021,0.02983019,0.3726651,-0.02037205,0.009849747,0.1734029,0.07501373,0.05851533,9.99684,0.01488224,-0.0114734,0.05624995,9.884402
"2.16 sec",0.5276539,0.9447982,0.5195269,-6.971072,0.6346609,0.3420096,-6.952349,0.47691,0.3337129,0.02908242,0.3732293,-0.01892076,0.01139691,0.1367114,0.1868681,0.05412661,9.885146,0.01203971,-0.008110335,0.05194162,9.810637
"2.17 sec",0.5276539,0.9447982,0.5195269,-6.971072,0.6394362,0.3453553,-6.952058,0.4781123,0.335437,0.0290796,0.373751,-0.01662279,0.0122291,0.0446748,0.2491802,0.04889679,9.811051,0.008039031,-0.003950794,0.04707452,9.780597
"2.18 sec",0.5276539,0.9447982,0.5195269,-6.971072,0.6442223,0.3487181,-6.951766,0.479063,0.337092,0.02938699,0.3742242,-0.01376008,0.0119861,-0.06865569,0.2989779,0.04347942,9.790344,0.003862066,-0.0002805298,0.04187693,9.786079
"2.19 sec",0.5276539,0.9447982,0.5195269,-6.971072,0.6490167,0.3520966,-6.95147,0.4797626,0.3385658,0.02963905,0.3746454,-0.01052487,0.01065381,-0.1698642,0.325817,0.03837737,9.787229,0.0005323513,0.002461056,0.0364417,9.814663
"2.2 sec",0.5324739,0.9913635,0.5543863,-6.968391,0.6538168,0.3554885,-6.951174,0.4802251,0.3397642,0.02960604,0.3750123,-0.007196644,0.008525267,-0.2314639,0.3225925,0.03365325,9.807295,0.005417953,-0.01840882,0.03441575,9.440139
"2.21 sec",0.5324739,0.9913635,0.5543863,-6.968391,0.6586206,0.3588907,-6.950861,0.4805398,0.3406601,0.03321546,0.3753574,-0.006703602,0.006870464,-0.1126521,-0.1377102,0.03536941,9.440786,0.006623908,-0.0284808,0.03383154,9.605158
"2.22 sec",0.5324739,0.9913635,0.5543863,-6.968391,0.6634282,0.3623016,-6.950518,0.4810359,0.3415237,0.03531045,0.3756961,-0.01000926,0.006211494,-0.03065831,-0.4453811,0.03660467,9.602039,0.009109322,-0.03539743,0.03835966,9.908429
"2.23 sec",0.5324739,0.9913635,0.5543863,-6.968391,0.6682428,0.3657218,-6.950169,0.4819718,0.3425561,0.03441443,0.3760773,-0.01545227,0.00637529,0.04829565,-0.5854592,0.04207486,9.907534,0.0131457,-0.01979669,0.04755012,10.05308
"2.24 sec",0.5324739,0.9913635,0.5543863,-6.968391,0.6730693,0.3691536,-6.949836,0.4833685,0.3438458,0.03203842,0.3765479,-0.01922677,0.007429244,0.1404864,-0.2183492,0.04914861,10.05088,0.01518465,-0.01262513,0.0489694,9.990969
"2.25 sec",0.5324739,0.9913635,0.5543863,-6.968391,0.6779106,0.3725994,-6.949525,0.4848952,0.3453352,0.03023637,0.3770368,-0.01967874,0.00911108,0.1806822,0.07490762,0.04828549,9.991792,0.01399915,-0.01057012,0.04614024,9.878642
"2.26 sec",0.5324739,0.9913635,0.5543863,-6.968391,0.6827667,0.3760607,-6.949226,0.486282,0.3469406,0.02954393,0.3774998,-0.01820277,0.01068337,0.1354853,0.1907237,0.0441107,9.879402,0.01084289,-0.007310839,0.04206785,9.805488
"2.27 sec",0.5324739,0.9913635,0.5543863,-6.968391,0.6876355,0.3795383,-6.948931,0.4874362,0.3485751,0.02959065,0.3779227,-0.01587294,0.01145361,0.03505708,0.251513,0.03918921,9.805904,0.006637999,-0.003011215,0.03750254,9.77972
"2.28 sec",0.5324739,0.9913635,0.5543863,-6.968391,0.6925145,0.3830319,-6.948633,0.4883404,0.3501303,0.02990518,0.3783,-0.01297426,0.01108511,-0.08290086,0.3030134,0.03413005,9.786949,0.002386349,0.0006301666,0.03264256,9.789062
"2.29 sec",0.5324739,0.9913635,0.5543863,-6.968391,0.6974015,0.3865403,-6.948333,0.4889963,0.3514896,0.03012665,0.3786287,-0.009701196,0.009607201,-0.1841926,0.3290264,0.02945042,9.788538,-0.0008485026,0.003290531,0.02756979,9.823653
"2.3 sec",0.5363151,1.039059,0.5902446,-6.965647,0.7022937,0.3900608,-6.948032,0.4894185,0.3525594,0.03000249,0.3789066,-0.006353717,0.007360373,-0.2412171,0.323365,0.02514951,9.810237,0.004648278,-0.01788725,0.02589302,9.441148
"2.31 sec",0.5363151,1.039059,0.5902446,-6.965647,0.7071893,0.3935903,-6.947715,0.4896981,0.3533237,0.03360006,0.3791663,-0.005893251,0.00569762,-0.1074731,-0.1437059,0.02671926,9.4418,0.006085055,-0.02794872,0.02543489,9.60238
"2.32 sec",0.5363151,1.039059,0.5902446,-6.965647,0.7120883,0.3971272,-6.947368,0.4901615,0.3540608,0.0357207,0.379421,-0.009264299,0.005141893,-0.01748353,-0.4521248,0.02776368,9.599497,0.008653684,-0.03473217,0.02986174,9.905534
"2.33 sec",0.5363151,1.039059,0.5902446,-6.965647,0.716994,0.4006722,-6.947015,0.4910638,0.3549782,0.0348521,0.3797172,-0.01475378,0.005451429,0.0629157,-0.5886076,0.03304959,9.90464,0.01272478,-0.01920748,0.03873656,10.05327
"2.34 sec",0.5363151,1.039059,0.5902446,-6.965647,0.7219112,0.4042277,-6.946678,0.4924238,0.3561679,0.0324732,0.3800998,-0.01855809,0.006646509,0.1532923,-0.221231,0.04018313,10.05094,0.01467034,-0.01181841,0.04012758,9.990143
"2.35 sec",0.5363151,1.039059,0.5902446,-6.965647,0.7268429,0.4077962,-6.946362,0.4939105,0.3575705,0.03067732,0.3805003,-0.01900949,0.008432179,0.1886021,0.07678027,0.03948082,9.990993,0.01320718,-0.009728397,0.03741236,9.876266
"2.36 sec",0.5363151,1.039059,0.5902446,-6.965647,0.7317889,0.4113795,-6.946059,0.4952529,0.3590951,0.03000636,0.380876,-0.01750234,0.01003658,0.1350342,0.1943498,0.03547123,9.877043,0.009773188,-0.006472242,0.03352665,9.80392
"2.37 sec",0.5363151,1.039059,0.5902446,-6.965647,0.7367471,0.4149782,-6.945758,0.4963602,0.3606463,0.03006708,0.3812133,-0.01513551,0.01075603,0.0267935,0.2548918,0.03078683,9.804338,0.005384286,-0.002184305,0.02920271,9.781612
"2.38 sec",0.5363151,1.039059,0.5902446,-6.965647,0.7417153,0.4185921,-6.945457,0.4972185,0.3621093,0.03036129,0.3815075,-0.01220688,0.01027747,-0.09548863,0.3054124,0.02604849,9.787141,0.001092612,0.001371588,0.02462786,9.795577
"2.39 sec",0.5363151,1.039059,0.5902446,-6.965647,0.7466907,0.4222197,-6.945152,0.4978318,0.3633641,0.03051712,0.3817559,-0.008922852,0.008673354,-0.1964313,0.3290151,0.02174102,9.793311,-0.002027319,0.003931716,0.01986479,9.836102
"2.4 sec",0.539318,1.08782,0.6270443,-6.962821,0.7516711,0.4258584,-6.944848,0.4982168,0.3643182,0.03027233,0.3819565,-0.005590915,0.006330153,-0.2487707,0.3206967,0.01779353,9.835314,0.004059026,-0.01756661,0.01848991,9.456204
"2.41 sec",0.539318,1.08782,0.6270443,-6.962821,0.7566545,0.429505,-6.944529,0.4984666,0.3649676,0.0337158,0.3821421,-0.005196458,0.004676925,-0.1008978,-0.1527736,0.01921192,9.456759,0.005748585,-0.02767716,0.0181215,9.605102
"2.42 sec",0.539318,1.08782,0.6270443,-6.962821,0.7616411,0.4331577,-6.944181,0.498905,0.3655968,0.03580539,0.3823235,-0.008667302,0.004237953,-0.003012842,-0.4623525,0.02008188,9.602965,0.008385669,-0.03437682,0.02251915,9.900587
"2.43 sec",0.539318,1.08782,0.6270443,-6.962821,0.7666341,0.4368176,-6.943827,0.4997841,0.3664201,0.03498306,0.3825464,-0.01424169,0.004702861,0.07827701,-0.5956208,0.02529513,9.899665,0.0124411,-0.01881803,0.03123971,10.04814
"2.44 sec",0.539318,1.08782,0.6270443,-6.962821,0.7716384,0.4404871,-6.943488,0.5011204,0.3675319,0.03265423,0.382854,-0.01809908,0.006038573,0.16558,-0.2252432,0.03257541,10.0458,0.01425264,-0.01135218,0.0325951,9.984651
"2.45 sec",0.539318,1.08782,0.6270443,-6.962821,0.7766569,0.444169,-6.943171,0.502582,0.3688695,0.03091194,0.3831792,-0.0185716,0.00791584,0.19495,0.07592682,0.03199612,9.9855,0.01251734,-0.009138677,0.02998005,9.871292
"2.46 sec",0.539318,1.08782,0.6270443,-6.962821,0.7816895,0.4478649,-6.942864,0.5038978,0.3703346,0.03028959,0.3834805,-0.01705105,0.009536303,0.1331019,0.1969707,0.02811206,9.872062,0.008810698,-0.005744534,0.02625279,9.800457
"2.47 sec",0.539318,1.08782,0.6270443,-6.962821,0.786734,0.4515757,-6.942561,0.5049771,0.371823,0.03038421,0.383745,-0.01463688,0.0101919,0.01746828,0.2606824,0.02359712,9.801535,0.004226955,-0.001419819,0.02212478,9.780724
"2.48 sec",0.539318,1.08782,0.6270443,-6.962821,0.7917882,0.455301,-6.942256,0.5058063,0.3732122,0.03068627,0.3839683,-0.01164447,0.009592846,-0.1090022,0.3117416,0.01911668,9.785417,-0.0001175958,0.002089263,0.01778323,9.798323
"2.49 sec",0.539318,1.08782,0.6270443,-6.962821,0.7968494,0.4590392,-6.941948,0.5063908,0.3743788,0.03081442,0.3841481,-0.008306584,0.007852595,-0.2096148,0.3333779,0.01512946,9.795683,-0.003138063,0.004561415,0.01327586,9.844539
"2.5 sec",0.5416015,1.137591,0.6647332,-6.95992,0.8019153,0.4627876,-6.941642,0.5067486,0.3752311,0.03048581,0.3842827,-0.004948384,0.005402385,-0.2573834,0.3219225,0.01149383,9.843881,0.003567787,-0.0172454,0.01215286,9.459942
"2.51 sec",0.5416015,1.137591,0.6647332,-6.95992,0.8069838,0.4665428,-6.94132,0.5069746,0.3757765,0.03388995,0.3844047,-0.004584251,0.003752161,-0.09464052,-0.1586248,0.01275541,9.460503,0.00546621,-0.02741558,0.01186397,9.602154
"2.52 sec",0.5416015,1.137591,0.6647332,-6.95992,0.8120554,0.4703031,-6.940971,0.5073917,0.3763078,0.03600669,0.3845236,-0.008128363,0.003423201,0.01060237,-0.4704011,0.01347218,9.600318,0.008139207,-0.03397452,0.01621984,9.895197
"2.53 sec",0.5416015,1.137591,0.6647332,-6.95992,0.8171332,0.4740696,-6.940614,0.5082498,0.3770456,0.03523671,0.3846834,-0.01376337,0.004030717,0.09217072,-0.6001195,0.01860969,9.894268,0.01215613,-0.01853618,0.02470563,10.04463
"2.54 sec",0.5416015,1.137591,0.6647332,-6.95992,0.822222,0.477845,-6.940273,0.5095639,0.3780862,0.03294239,0.3849258,-0.01766849,0.005489686,0.1760686,-0.2300603,0.02594343,10.04219,0.01384722,-0.01093301,0.02602126,9.981851
"2.55 sec",0.5416015,1.137591,0.6647332,-6.95992,0.8273249,0.4816321,-6.939952,0.511003,0.379364,0.0312272,0.3851853,-0.01816889,0.007442925,0.2000106,0.07454439,0.02546955,9.982684,0.01187671,-0.008627184,0.02348862,9.869127
"2.56 sec",0.5416015,1.137591,0.6647332,-6.95992,0.8324415,0.4854327,-6.939643,0.512296,0.3807741,0.03062557,0.3854216,-0.01664299,0.009072807,0.1309984,0.1986634,0.02169723,9.869889,0.007943416,-0.005142097,0.01989747,9.799633
"2.57 sec",0.5416015,1.137591,0.6647332,-6.95992,0.83757,0.4892477,-6.939336,0.513352,0.3822046,0.03072765,0.3856225,-0.01419632,0.009670266,0.009229445,0.2647123,0.01733816,9.800672,0.003207848,-0.0007944244,0.01594108,9.782093
"2.58 sec",0.5416015,1.137591,0.6647332,-6.95992,0.8427078,0.4930765,-6.939028,0.5141578,0.3835268,0.03101529,0.3857838,-0.01115948,0.008967818,-0.1204305,0.3161363,0.01308649,9.786104,-0.001165506,0.002675819,0.01180369,9.803123
"2.59 sec",0.5416015,1.137591,0.6647332,-6.95992,0.8478523,0.4969174,-6.938717,0.5147197,0.3846145,0.03109523,0.3859037,-0.007784897,0.007114929,-0.2203505,0.3362848,0.009373001,9.799565,-0.004090952,0.005373152,0.007517151,9.853826
"2.6 sec",0.5432618,1.188331,0.7032637,-6.956959,0.8530014,0.5007677,-6.938408,0.5150558,0.3853765,0.0306743,0.3859806,-0.004376444,0.004579994,-0.2639968,0.3280751,0.005969726,9.853104,0.003206815,-0.01688614,0.006609649,9.462386
