Time,desired yaw,desired x,desired y,desired z,WorldPosition_1,WorldPosition_2,WorldPosition_3,WorldVelocity_1,WorldVelocity_2,WorldVelocity_3,EulerZYX_1,EulerZYX_2,EulerZYX_3,BodyAngularRateRPY_1,BodyAngularRateRPY_2,BodyAngularRateRPY_3,Thrust,Roll CS,Pitch CS,Yaw CS,Thrust CS
"0 sec",0.4712389,0.348944,0.1777958,-6.979475,0,0,-7,0,0,0,0,0,0,0,0,0,0,0.1680236,-0.170447,0.5,5.979641
"0.01 sec",0.4712389,0.348944,0.1777958,-6.979475,1.149419e-06,1.137331e-06,-6.999794,0.0004343654,0.0004302935,0.03984202,0.004721938,-0.01987457,0.0195407,3.194482,-3.232759,0.558138,5.979239,0.1672208,-0.1712344,0.5,5.979641
"0.02 sec",0.4712389,0.348944,0.1777958,-6.979475,1.482734e-05,1.472992e-05,-6.999203,0.002655169,0.002643018,0.07823418,0.009658886,-0.05565576,0.05446329,3.565264,-3.605745,0.6899351,5.979245,0.1663776,-0.1720534,0.5,5.979641
"0.03 sec",0.4712389,0.348944,0.1777958,-6.979475,6.125257e-05,6.106825e-05,-6.998228,0.006957633,0.006958387,0.1168547,0.01460128,-0.08956756,0.08720598,2.987383,-3.01036,0.7583908,5.979242,0.1655294,-0.1728689,0.5,5.979641
"0.04 sec",0.4712389,0.348944,0.1777958,-6.979475,0.0001598131,0.0001598949,-6.996865,0.01300728,0.0130694,0.1557832,0.01956533,-0.1164162,0.1127276,2.225932,-2.231068,0.7497648,5.979246,0.1047867,-0.1095893,0.5,9.371803
"0.05 sec",0.4712389,0.348944,0.1777958,-6.979475,0.0003443869,0.0003459638,-6.99527,0.02416684,0.02442133,0.1624108,0.024556,-0.1284856,0.123886,0.415345,-0.3435443,0.542402,9.371603,0.07030205,-0.07403187,0.5,13.88222
"0.06 sec",0.4712389,0.348944,0.1777958,-6.979475,0.0006705024,0.0006765732,-6.993828,0.0410834,0.04174682,0.1249917,0.02955442,-0.1244164,0.1196113,-0.8720035,0.9931972,0.3798866,13.88192,0.06993146,-0.07438195,0.5,13.88222
"0.07 sec",0.4712389,0.348944,0.1777958,-6.979475,0.001161949,0.001177033,-6.992772,0.05694854,0.05809594,0.08615222,0.03454791,-0.113322,0.1086376,-1.100073,1.218833,0.3660699,13.87919,0.06955951,-0.07472983,0.5,13.88222
"0.08 sec",0.4712389,0.348944,0.1777958,-6.979475,0.001804194,0.001833321,-6.992106,0.07124695,0.07291095,0.04696736,0.03954125,-0.1022691,0.09765737,-0.9562329,1.051956,0.3961472,13.88141,0.06918585,-0.07507581,0.5,13.88222
"0.09 sec",0.4712389,0.348944,0.1777958,-6.979475,0.002582289,0.002630677,-6.991833,0.08416966,0.0863574,0.00750439,0.04453683,-0.09346006,0.08873992,-0.7254189,0.7943464,0.4287806,13.88122,0.07348004,-0.08056704,0.5,13.00143
"0.1 sec",0.419529,0.361011,0.1630146,-6.968707,0.003480557,0.003553254,-6.991915,0.09534036,0.09801132,-0.02363039,0.04953476,-0.08774448,0.0826665,-0.4238189,0.4612269,0.4614508,13.00305,0.1594229,-0.1785077,0.5,5.979641
"0.11 sec",0.419529,0.361011,0.1630146,-6.968707,0.004460515,0.004561062,-6.991975,0.1005865,0.1034774,0.01334044,0.05453116,-0.09596832,0.08898717,1.394302,-1.577253,0.6393852,5.979932,0.1585338,-0.1792959,0.5,5.97964
"0.12 sec",0.419529,0.361011,0.1630146,-6.968707,0.005495048,0.005625539,-6.991647,0.1064913,0.1095891,0.0522529,0.0595168,-0.1147814,0.104578,1.687273,-1.902791,0.6975579,5.981361,0.1576428,-0.180078,0.5,5.979641
"0.13 sec",0.419529,0.361011,0.1630146,-6.968707,0.006593817,0.00675635,-6.990929,0.1134279,0.1167411,0.09139386,0.06450249,-0.133378,0.1198341,1.449836,-1.629691,0.6941849,5.981502,0.1079001,-0.1235948,0.5,8.667986
"0.14 sec",0.419529,0.361011,0.1630146,-6.968707,0.00778254,0.00797987,-6.989944,0.1244964,0.1281509,0.1049851,0.06949863,-0.1417442,0.1261514,0.16414,-0.1471045,0.5175974,8.667186,0.07556381,-0.087147,0.5,12.2946
"0.15 sec",0.419529,0.361011,0.1630146,-6.968707,0.009106376,0.009342845,-6.988999,0.1402737,0.1444554,0.083197,0.07449672,-0.1365573,0.1207897,-0.8686721,1.041909,0.3720273,12.29274,0.02673561,-0.07655709,0.5,13.46741
"0.16 sec",0.419529,0.361011,0.1630146,-6.968707,0.01059104,0.01087167,-6.988336,0.1564362,0.1609735,0.04892762,0.07948615,-0.1240236,0.1046393,-1.936879,1.418358,0.3484841,13.46345,-0.05473621,-0.07208189,0.5,13.15294
"0.17 sec",0.419529,0.361011,0.1630146,-6.968707,0.0122281,0.01255065,-6.988007,0.1707171,0.1741474,0.01686684,0.08446517,-0.1102595,0.07496715,-3.429785,1.347822,0.3947337,13.15385,-0.08898035,-0.07535926,0.5,12.16254
"0.18 sec",0.419529,0.361011,0.1630146,-6.968707,0.01399633,0.01433572,-6.987954,0.1827409,0.1820529,-0.006051417,0.08944198,-0.09879587,0.03646771,-3.868737,0.9965219,0.4595,12.16509,-0.09836438,-0.08253325,0.5,11.05154
"0.19 sec",0.419529,0.361011,0.1630146,-6.968707,0.01587553,0.01617416,-6.988077,0.1930007,0.1849294,-0.01823163,0.09442684,-0.09137361,-0.001072312,-3.422463,0.5461776,0.4974725,11.05321,-0.10725,-0.08915229,0.5,10.1811
"0.2 sec",0.4634348,0.3685957,0.1933003,-6.981157,0.01785184,0.01802168,-6.988277,0.2022386,0.1840398,-0.02173881,0.09942079,-0.08800869,-0.03277846,-2.777354,0.1614777,0.5033432,10.18225,0.06457378,-0.07907581,0.5,13.88222
"0.21 sec",0.4634348,0.3685957,0.1933003,-6.981157,0.01993623,0.01984241,-6.988686,0.2146854,0.1800054,-0.06089034,0.1044201,-0.08595958,-0.03718128,1.236231,0.1923229,0.5057651,13.88027,0.06417806,-0.07939708,0.5,13.88222
"0.22 sec",0.4634348,0.3685957,0.1933003,-6.981157,0.02214419,0.02162671,-6.989496,0.2268193,0.177292,-0.1010524,0.1094218,-0.08404735,-0.01871672,2.244542,0.1588807,0.5014842,13.88075,0.06378056,-0.07971651,0.5,13.88222
"0.23 sec",0.4634348,0.3685957,0.1933003,-6.981157,0.0244708,0.02339824,-6.990707,0.2384144,0.1775259,-0.1412863,0.1144234,-0.08264191,0.003182476,2.120199,0.1168964,0.4980482,13.88112,0.08220347,-0.1039725,0.5,10.70852
"0.24 sec",0.4634348,0.3685957,0.1933003,-6.981157,0.02689896,0.02518416,-6.992171,0.2471434,0.1800283,-0.1506996,0.1194217,-0.08451813,0.02398394,2.025649,-0.3719421,0.5069082,10.71062,0.1362312,-0.1753606,0.5,6.433536
"0.25 sec",0.4634348,0.3685957,0.1933003,-6.981157,0.02939794,0.02699826,-6.993519,0.2526716,0.1830374,-0.1177255,0.1244068,-0.09727926,0.04811266,2.63887,-1.795254,0.5823193,6.435516,0.1457052,-0.1898306,0.5,5.97964
"0.26 sec",0.4634348,0.3685957,0.1933003,-6.981157,0.03195335,0.02884945,-6.994503,0.2585699,0.1874795,-0.07907905,0.1293797,-0.1182636,0.07391723,2.511612,-2.145551,0.6540277,5.980067,0.1447651,-0.1905448,0.5,5.979641
"0.27 sec",0.4634348,0.3685957,0.1933003,-6.981157,0.03457281,0.03075329,-6.9951,0.2654879,0.1935385,-0.04006156,0.1343564,-0.1389285,0.09583998,1.982149,-1.83129,0.671672,5.980817,0.0971518,-0.1727408,0.5,6.388247
"0.28 sec",0.4634348,0.3685957,0.1933003,-6.981157,0.03726852,0.03272657,-6.995323,0.2737941,0.2012667,-0.004721603,0.1393475,-0.1534182,0.106652,0.543361,-1.024655,0.6063957,6.387664,-0.02358592,-0.1241443,0.5,7.944895
"0.29 sec",0.4634348,0.3685957,0.1933003,-6.981157,0.04006066,0.03478852,-6.995266,0.2847345,0.2110125,0.01569879,0.1443477,-0.1560396,0.09408353,-2.287154,0.3533268,0.4624501,7.944079,-0.1019133,-0.09467076,0.5,9.285441
"0.3 sec",0.4167924,0.401566,0.1957075,-6.995055,0.04297204,0.03694698,-6.995073,0.2975308,0.220151,0.02263964,0.1493312,-0.147116,0.05809132,-4.192717,1.273946,0.4186289,9.284548,-0.04057324,-0.0670044,0.5,13.85246
"0.31 sec",0.4167924,0.401566,0.1957075,-6.995055,0.04603801,0.03919325,-6.995029,0.3155611,0.2283469,-0.01516997,0.1543011,-0.1307632,0.02285361,-2.791397,1.831352,0.4512219,13.85213,-0.08234272,-0.06034876,0.5,13.88222
"0.32 sec",0.4167924,0.401566,0.1957075,-6.995055,0.04927738,0.04149924,-6.995379,0.3319942,0.2321527,-0.05485198,0.1592736,-0.1123563,-0.005280761,-2.597371,1.765461,0.5036775,13.87205,-0.08264162,-0.05993838,0.5,13.88222
"0.33 sec",0.4167924,0.401566,0.1957075,-6.995055,0.05267182,0.04382324,-6.996127,0.3466176,0.2320559,-0.09479513,0.164253,-0.09634421,-0.02905154,-2.031513,1.397855,0.5369239,13.87998,-0.08293886,-0.05952592,0.5,13.88222
"0.34 sec",0.4167924,0.401566,0.1957075,-6.995055,0.05620489,0.04613003,-6.997275,0.3597891,0.2288594,-0.1348511,0.169241,-0.08414096,-0.04690132,-1.460511,1.007965,0.5452403,13.88167,-0.1424058,-0.1017034,0.4951027,8.132094
"0.35 sec",0.4167924,0.401566,0.1957075,-6.995055,0.05984049,0.04840265,-6.998552,0.3672029,0.2254448,-0.1191415,0.1741906,-0.08039337,-0.06639551,-2.122228,-0.1204559,0.4866451,8.132449,-0.1949188,-0.1387847,0.4852036,5.979641
"0.36 sec",0.4167924,0.401566,0.1957075,-6.995055,0.06354093,0.05063911,-6.999556,0.3729606,0.2216241,-0.08099088,0.1790574,-0.08764023,-0.09344102,-2.904047,-1.162077,0.378244,5.979905,-0.1955898,-0.1378313,0.4754699,5.979641
"0.37 sec",0.4167924,0.401566,0.1957075,-6.995055,0.06730282,0.05282995,-7.000171,0.3795882,0.2162935,-0.04207684,0.183835,-0.09969748,-0.1218099,-2.582412,-1.25523,0.3246739,5.980276,-0.1922615,-0.1340263,0.4659147,6.101925
"0.38 sec",0.4167924,0.401566,0.1957075,-6.995055,0.07113668,0.0549598,-7.000402,0.3873367,0.2094722,-0.004083537,0.1885124,-0.1103896,-0.1447168,-1.90195,-0.9838887,0.3255779,6.10077,-0.1545876,-0.1060977,0.4565599,7.596686
"0.39 sec",0.4167924,0.401566,0.1957075,-6.995055,0.0750617,0.05700727,-7.000322,0.3978051,0.199849,0.01978307,0.1930867,-0.1150393,-0.1567789,-0.5904613,-0.200471,0.4275449,7.595851,-0.1185707,-0.01967027,0.4474113,8.900989
"0.4 sec",0.4473707,0.4326581,0.2285895,-6.996364,0.07910151,0.05894729,-7.000067,0.410053,0.1881076,0.03084634,0.1975665,-0.104665,-0.1559051,0.625744,1.689192,0.7163837,8.900082,0.06392732,-0.09620573,0.4996083,12.27641
"0.41 sec",0.4473707,0.4326581,0.2285895,-6.996364,0.08327842,0.06075186,-6.999864,0.4251264,0.1732605,0.008902967,0.2025494,-0.09378847,-0.1270629,4.357142,0.4975751,0.5663301,12.27449,0.07083171,-0.1078321,0.4896426,10.99848
"0.42 sec",0.4473707,0.4326581,0.2285895,-6.996364,0.08759201,0.06243433,-6.999832,0.4373731,0.16412,-0.002233632,0.2074551,-0.09234715,-0.07996537,4.805198,-0.186632,0.4738561,11.00245,0.07692338,-0.1184485,0.4798312,10.05352
"0.43 sec",0.4473707,0.4326581,0.2285895,-6.996364,0.09201844,0.06405342,-6.999865,0.4478029,0.1604695,-0.004294897,0.2122499,-0.09628841,-0.03513394,4.131815,-0.5582287,0.4571645,10.05633,0.08041084,-0.1251829,0.4702415,9.547552
"0.44 sec",0.4473707,0.4326581,0.2285895,-6.996364,0.09654462,0.06565765,-6.999894,0.4574,0.1609724,-0.001310924,0.2169454,-0.1027367,0.001118792,3.191757,-0.6833094,0.4674231,9.547993,0.08119359,-0.1277328,0.4608505,9.386813
"0.45 sec",0.4473707,0.4326581,0.2285895,-6.996364,0.1011656,0.06728301,-6.999884,0.4667977,0.1645378,0.003422831,0.2215493,-0.1095074,0.02798192,2.301069,-0.6272089,0.4750809,9.389267,0.0801586,-0.1273846,0.4516427,9.439123
"0.46 sec",0.4473707,0.4326581,0.2285895,-6.996364,0.1058811,0.06895602,-6.999827,0.476324,0.1703752,0.007809418,0.2260649,-0.1151922,0.04661313,1.565211,-0.4713706,0.4707411,9.43844,0.08176319,-0.1115194,0.4426115,9.573466
"0.47 sec",0.4473707,0.4326581,0.2285895,-6.996364,0.1106929,0.07069613,-6.999733,0.486011,0.1778595,0.01099587,0.2304939,-0.1175343,0.05914834,1.070928,-0.0217052,0.4415815,9.57205,0.1099326,0.0167981,0.4337535,9.709162
"0.48 sec",0.4473707,0.4326581,0.2285895,-6.996364,0.1155998,0.07251711,-6.999614,0.4950908,0.1864705,0.01285089,0.2348443,-0.1021747,0.07076124,1.248799,2.561207,0.2525147,9.70785,0.1221105,0.07540596,0.4250528,9.894662
"0.49 sec",0.4473707,0.4326581,0.2285895,-6.996364,0.120586,0.07442837,-6.999485,0.5015261,0.1958593,0.01271437,0.2391209,-0.0673572,0.08349743,1.29049,3.980749,0.09492768,9.890915,0.1217279,0.0744464,0.4164995,9.951577
"0.5 sec",0.5086811,0.4681303,0.2674308,-6.99929,0.125617,0.0764356,-6.999363,0.5039961,0.2056207,0.01183162,0.2433131,-0.02876917,0.09503775,1.039225,3.634002,0.07373542,9.950723,0.0525825,-0.08749973,0.5,13.88222
"0.51 sec",0.5086811,0.4681303,0.2674308,-6.99929,0.1306548,0.07855934,-6.999435,0.5032656,0.2191638,-0.02721289,0.2482744,-0.01546489,0.09585558,-0.5572013,-0.2264048,0.5240607,13.88034,0.06037339,-0.1016766,0.5,11.9928
"0.52 sec",0.5086811,0.4681303,0.2674308,-6.99929,0.135684,0.08080843,-6.999818,0.5028393,0.2305259,-0.04898568,0.2532786,-0.02702972,0.08855399,-0.7953922,-1.648139,0.6488192,11.99371,0.0759993,-0.1296943,0.5,9.450192
"0.53 sec",0.5086811,0.4681303,0.2674308,-6.99929,0.1407174,0.08315764,-7.000294,0.5041971,0.239257,-0.04562654,0.2582854,-0.04845505,0.08254106,-0.4086839,-2.293819,0.6914513,9.450812,0.08567035,-0.1480903,0.5,8.314161
"0.54 sec",0.5086811,0.4681303,0.2674308,-6.99929,0.1457734,0.08558922,-7.000677,0.5073254,0.2470953,-0.0305292,0.2632886,-0.07312777,0.08044621,-0.01175171,-2.388348,0.692952,8.315606,0.08654012,-0.1513626,0.490785,8.159952
"0.55 sec",0.5086811,0.4681303,0.2674308,-6.99929,0.1508699,0.08810047,-7.000897,0.5122509,0.2552426,-0.01350957,0.2682013,-0.09583379,0.08084729,0.1453891,-2.006083,0.6526232,8.161225,0.0821112,-0.1451818,0.4809596,8.525487
"0.56 sec",0.5086811,0.4681303,0.2674308,-6.99929,0.1560249,0.09069764,-7.000964,0.5189738,0.2642791,0.0001778725,0.2730158,-0.1130336,0.08151431,0.09674591,-1.370793,0.5914768,8.524798,0.09485464,-0.07380141,0.4713307,9.009281
"0.57 sec",0.5086811,0.4681303,0.2674308,-6.99929,0.1612544,0.09338983,-7.000916,0.5269685,0.2742169,0.009217908,0.277734,-0.1163601,0.08329593,0.3175797,0.4531305,0.4319788,9.008857,0.1266308,0.06155019,0.4618943,9.548995
"0.58 sec",0.5086811,0.4681303,0.2674308,-6.99929,0.1665636,0.09618535,-7.000805,0.5344828,0.2849052,0.01286829,0.282365,-0.09333233,0.08983503,0.9328926,3.50058,0.1478822,9.548507,0.1256219,0.06954508,0.4526322,9.889134
"0.59 sec",0.5086811,0.4681303,0.2674308,-6.99929,0.1719337,0.09908947,-7.000675,0.5388911,0.2959003,0.01288343,0.2869134,-0.05499823,0.0990169,0.9198736,3.923912,0.0661279,9.888377,0.03641423,0.09376892,0.4435355,9.995277
"0.6 sec",0.4526314,0.5299236,0.2735707,-7.008901,0.1773284,0.1021021,-7.000553,0.5394265,0.3064064,0.01161974,0.2913505,-0.01592187,0.09677979,-0.9639093,3.7576,0.07896526,9.99453,0.04832597,-0.0899164,0.3225616,13.88222
"0.61 sec",0.4526314,0.5299236,0.2735707,-7.008901,0.1827096,0.1052288,-7.000627,0.5366153,0.3186918,-0.02752708,0.2946305,-0.003698568,0.08574045,-1.143218,-0.5056892,0.3674535,13.88033,0.00173558,-0.07605328,0.3160017,13.85006
"0.62 sec",0.4526314,0.5299236,0.2735707,-7.008901,0.1880638,0.1084706,-7.001102,0.5345941,0.3293928,-0.0675041,0.2978031,-0.01509475,0.06956049,-1.858823,-1.469759,0.4205446,13.85084,-0.08251058,-0.05028812,0.3096566,13.87468
"0.63 sec",0.4526314,0.5299236,0.2735707,-7.008901,0.1934102,0.1118093,-7.001979,0.5351501,0.3377899,-0.1078853,0.3009204,-0.02750985,0.04143612,-3.314988,-0.9970716,0.3529,13.86869,-0.1246353,-0.06598715,0.303422,10.06705
"0.64 sec",0.4526314,0.5299236,0.2735707,-7.008901,0.1987723,0.1152063,-7.00308,0.5376078,0.3410196,-0.1113423,0.3039773,-0.03759233,0.003536164,-3.917294,-0.9580358,0.3085558,10.06914,-0.1822387,-0.09642228,0.297308,6.916402
"0.65 sec",0.4526314,0.5299236,0.2735707,-7.008901,0.2041634,0.1186174,-7.004056,0.5408677,0.3407553,-0.08313189,0.3069804,-0.04975105,-0.04004015,-4.429772,-1.343707,0.2464018,6.917203,-0.2065341,-0.1088732,0.291302,6.122002
"0.66 sec",0.4526314,0.5299236,0.2735707,-7.008901,0.2095931,0.122014,-7.004704,0.5453446,0.3381685,-0.04623182,0.309929,-0.06402802,-0.08425719,-4.180613,-1.445034,0.1728321,6.123419,-0.1894388,-0.0988803,0.2854048,6.677082
"0.67 sec",0.4526314,0.5299236,0.2735707,-7.008901,0.215078,0.1253718,-7.005006,0.551884,0.3330652,-0.01423852,0.3128092,-0.07600369,-0.1199631,-2.955358,-1.014875,0.1658974,6.676554,-0.1628358,-0.08408879,0.2796444,7.767259
"0.68 sec",0.4526314,0.5299236,0.2735707,-7.008901,0.2206407,0.1286648,-7.005039,0.5608445,0.3252646,0.007387019,0.3156168,-0.08243439,-0.1415805,-1.484712,-0.4156308,0.2226006,7.765593,-0.1272836,-0.02361684,0.2740291,8.818398
"0.69 sec",0.4526314,0.5299236,0.2735707,-7.008901,0.2263026,0.1318683,-7.004907,0.5715397,0.3152996,0.01879662,0.3183593,-0.0776979,-0.1483263,-0.05675513,0.9776713,0.4222499,8.816609,-0.06569803,0.1308504,0.268544,9.698917
"0.7 sec",0.4691069,0.5817517,0.3121975,-7.01506,0.232072,0.1349648,-7.004705,0.5818605,0.3039831,0.02135711,0.3210621,-0.04767513,-0.1391204,1.567652,4.119689,0.850927,9.696721,0.04563723,-0.0913077,0.2960896,13.88222
"0.71 sec",0.4691069,0.5817517,0.3121975,-7.01506,0.2379433,0.1379282,-7.004678,0.5918849,0.2891107,-0.01711246,0.3240345,-0.02935863,-0.1089136,3.880147,0.1089565,0.3101668,13.88031,0.045366,-0.09144248,0.2901447,13.88222
"0.72 sec",0.4691069,0.5817517,0.3121975,-7.01506,0.2439032,0.1407631,-7.005049,0.5999635,0.2788049,-0.05720615,0.3269273,-0.03583509,-0.06934685,3.839421,-1.169444,0.2072177,13.88037,0.05018901,-0.1019527,0.2843592,12.47607
"0.73 sec",0.4691069,0.5817517,0.3121975,-7.01506,0.2499382,0.1435254,-7.005757,0.6070637,0.2744613,-0.08394185,0.3297486,-0.0499994,-0.03406588,3.173225,-1.537567,0.2292717,12.47702,0.07046709,-0.1445393,0.2787166,8.83865
"0.74 sec",0.4691069,0.5817517,0.3121975,-7.01506,0.2560362,0.146268,-7.006556,0.6126084,0.274579,-0.07498349,0.3325092,-0.06956872,-0.004270928,2.737608,-2.156377,0.2658231,8.840631,0.08470582,-0.1753839,0.2731953,7.314149
"0.75 sec",0.4691069,0.5817517,0.3121975,-7.01506,0.2621887,0.1490247,-7.007184,0.6180459,0.2771475,-0.0501659,0.3352123,-0.09394164,0.02125451,2.346178,-2.507945,0.3223618,7.315028,0.0852764,-0.1778164,0.2677891,7.224945
"0.76 sec",0.4691069,0.5817517,0.3121975,-7.01506,0.2684005,0.151818,-7.007554,0.6245061,0.2818522,-0.02389209,0.3378676,-0.117758,0.04165661,1.785885,-2.167324,0.3545168,7.225441,0.08227839,-0.1515485,0.2624785,7.848526
"0.77 sec",0.4691069,0.5817517,0.3121975,-7.01506,0.274685,0.1546699,-7.00769,0.6325395,0.2887889,-0.003393748,0.3404824,-0.1338726,0.05617421,1.213593,-1.134192,0.3236051,7.847811,0.1471876,0.07074926,0.2572489,8.704239
"0.78 sec",0.4691069,0.5817517,0.3121975,-7.01506,0.2810552,0.1576018,-7.007662,0.6411809,0.297767,0.008784474,0.3430723,-0.1164791,0.07335069,2.032937,3.624814,-0.006644936,8.7026,0.07436239,0.08696659,0.2520692,9.384337
"0.79 sec",0.4691069,0.5817517,0.3121975,-7.01506,0.2874997,0.1606301,-7.007547,0.6470152,0.307837,0.01394968,0.3456211,-0.07262372,0.08466139,0.5073796,4.707101,-0.1458999,9.383279,-0.02580101,0.1170056,0.2469715,9.895213
"0.8 sec",0.5084651,0.6364895,0.3546515,-7.01391,0.293982,0.1637565,-7.007408,0.6487569,0.3170332,0.01368322,0.3480711,-0.02429403,0.07457274,-1.9702,4.701042,-0.1083039,9.894786,0.07418871,-0.1596551,0.3207878,8.080703
"0.81 sec",0.5084651,0.6364895,0.3546515,-7.01391,0.3004658,0.1669558,-7.007188,0.6479406,0.3225994,0.03070716,0.3512287,-0.01383786,0.06352195,-0.4615832,-1.453577,0.4142043,8.081584,0.06171701,-0.1336704,0.3144727,9.645262
"0.82 sec",0.5084651,0.6364895,0.3546515,-7.01391,0.3069441,0.1702131,-7.006868,0.6480531,0.3289667,0.03296864,0.3543799,-0.03603052,0.06068834,-0.1354848,-2.594613,0.4727295,9.644428,0.05629673,-0.1228614,0.3081703,10.50088
"0.83 sec",0.5084651,0.6364895,0.3546515,-7.01391,0.3134355,0.1735403,-7.006569,0.6506391,0.3366311,0.02659428,0.3574668,-0.06075244,0.0593304,-0.1030898,-2.235229,0.4410832,10.49901,0.05456592,-0.1200377,0.3019965,10.76084
"0.84 sec",0.5084651,0.6364895,0.3546515,-7.01391,0.3199648,0.176949,-7.006348,0.6555544,0.3452148,0.01761024,0.3604914,-0.08025204,0.05807417,-0.09785387,-1.630182,0.3964377,10.75967,0.05465485,-0.121209,0.2959473,10.67206
"0.85 sec",0.5084651,0.6364895,0.3546515,-7.01391,0.3265519,0.180446,-7.006212,0.6621056,0.3542558,0.009553674,0.363455,-0.09423022,0.0569794,-0.06775943,-1.142637,0.3603666,10.6725,0.05550364,-0.1240875,0.2900202,10.44014
"0.86 sec",0.5084651,0.6364895,0.3546515,-7.01391,0.33321,0.1840344,-7.006145,0.6696728,0.3634709,0.00387794,0.3663588,-0.1041867,0.05626335,-0.02168564,-0.8193248,0.335088,10.44823,0.111434,0.01527014,0.2842126,10.16385
"0.87 sec",0.5084651,0.6364895,0.3546515,-7.01391,0.3399453,0.1877152,-7.006122,0.6771794,0.3727297,0.0009683524,0.3692075,-0.09495056,0.06240233,1.064013,2.086361,0.154131,10.16508,0.06499345,0.08254661,0.2785151,9.982785
"0.88 sec",0.5084651,0.6364895,0.3546515,-7.01391,0.3467451,0.1914883,-7.006118,0.6822407,0.3817694,-0.0002620361,0.372005,-0.06272168,0.06851353,0.3123788,3.861688,0.01422011,9.985513,-0.05727889,0.1310917,0.2729201,9.923852
"0.89 sec",0.5084651,0.6364895,0.3546515,-7.01391,0.353578,0.1953454,-7.006125,0.6837236,0.3891843,-0.001118649,0.3747097,-0.01865004,0.0555566,-2.307186,4.586087,0.01293371,9.924715,-0.05738907,0.1323233,0.2675107,9.843712
"0.9 sec",0.532643,0.698066,0.3982995,-6.993296,0.3604084,0.1992595,-7.006137,0.6818582,0.3929797,-0.00137501,0.3773302,0.02450179,0.02954193,-2.683096,3.941236,0.1456113,9.844143,0.0939921,-0.2198135,0.3106254,5.979641
"0.91 sec",0.532643,0.698066,0.3982995,-6.993296,0.367216,0.2031931,-7.005969,0.6797835,0.3936739,0.03597817,0.3804039,0.0180228,0.02211154,0.5932181,-3.716068,0.3919016,5.981716,0.09332145,-0.2200953,0.3044781,5.979641
"0.92 sec",0.532643,0.698066,0.3982995,-6.993296,0.3740101,0.2071364,-7.005418,0.6794488,0.3952919,0.07431085,0.383424,-0.03049672,0.03369759,1.492649,-5.376457,0.4817306,5.981355,0.09266169,-0.2203701,0.2984379,5.979641
"0.93 sec",0.532643,0.698066,0.3982995,-6.993296,0.3808136,0.2111055,-7.004482,0.6816792,0.3988586,0.1127698,0.3863712,-0.08269826,0.04880239,1.483174,-4.841042,0.5305699,5.980762,0.09201708,-0.2206365,0.2925435,5.97964
"0.94 sec",0.532643,0.698066,0.3982995,-6.993296,0.3876514,0.2151199,-7.003161,0.6862262,0.4043083,0.1515013,0.3892702,-0.125901,0.06195131,1.192709,-3.726629,0.5197235,5.980852,0.06068782,-0.1457984,0.2867455,8.996997
"0.95 sec",0.532643,0.698066,0.3982995,-6.993296,0.3945581,0.2192123,-7.001593,0.6954489,0.4144581,0.1614669,0.3921315,-0.1491605,0.06824,0.2850768,-1.228706,0.3680412,8.995143,0.03904816,-0.09430707,0.281023,13.88222
"0.96 sec",0.532643,0.698066,0.3982995,-6.993296,0.4015894,0.223439,-7.000161,0.7109564,0.4309909,0.1238781,0.3949441,-0.1497524,0.06619105,-0.455687,0.7679562,0.2273948,13.88188,0.02293376,0.05218988,0.2753977,13.83247
"0.97 sec",0.532643,0.698066,0.3982995,-6.993296,0.4087728,0.2278277,-6.999115,0.7252029,0.4463404,0.0852404,0.3976896,-0.1220375,0.05840823,-0.8970326,4.019691,0.03682854,13.83305,-0.03852418,0.0945218,0.2699068,13.88222
"0.98 sec",0.532643,0.698066,0.3982995,-6.993296,0.4160786,0.2323543,-6.998461,0.7350793,0.4581985,0.04540625,0.4003518,-0.0744249,0.04199648,-2.025668,5.054057,0.0517164,13.8816,-0.03827279,0.09462363,0.2645824,13.88222
"0.99 sec",0.532643,0.698066,0.3982995,-6.993296,0.4234568,0.2369744,-6.998209,0.7397382,0.4649397,0.004942038,0.4029487,-0.02655482,0.02129878,-1.98363,4.391197,0.1664262,13.88192,-0.04081393,0.1016942,0.2593884,12.93486
"1 sec",0.4576791,0.7823862,0.4147851,-6.982769,0.430858,0.2416359,-6.998318,0.7398602,0.466663,-0.02652713,0.4055073,0.01287486,0.002996907,-1.639999,3.458591,0.2460214,12.93681,0.0878133,-0.2223196,0.1043437,5.979641
"1.01 sec",0.4576791,0.7823862,0.4147851,-6.982769,0.4382518,0.2463008,-6.998409,0.7390065,0.4663676,0.009999739,0.4066208,0.004783786,0.003741389,1.228621,-3.662049,0.1159874,5.979932,-0.1029036,-0.1415259,0.1021166,5.899886
"1.02 sec",0.4576791,0.7823862,0.4147851,-6.982769,0.4456435,0.2509665,-6.998113,0.7396857,0.4668783,0.04909021,0.4076512,-0.03269073,-0.001832927,-1.738572,-3.629539,0.09853234,5.900336,-0.2216409,-0.08953629,0.1000559,5.979641
"1.03 sec",0.4576791,0.7823862,0.4147851,-6.982769,0.4530534,0.2556374,-6.99743,0.7427006,0.4670622,0.08749545,0.4086988,-0.05955172,-0.03717444,-4.576913,-1.923608,0.03302623,5.979208,-0.1504723,-0.06001481,0.09796071,8.772579
"1.04 sec",0.4576791,0.7823862,0.4147851,-6.982769,0.4605148,0.2602987,-6.996495,0.7499734,0.4647319,0.0989271,0.4097037,-0.07031159,-0.07595896,-3.211928,-0.4595378,0.06387911,8.771092,-0.107669,-0.04264554,0.09595084,12.24236
"1.05 sec",0.4576791,0.7823862,0.4147851,-6.982769,0.4680739,0.264916,-6.995615,0.7620929,0.4583003,0.07627238,0.4106647,-0.06961185,-0.09761436,-1.343721,0.4096971,0.1360061,12.24043,-0.09877348,-0.03898617,0.09402877,13.34586
"1.06 sec",0.4576791,0.7823862,0.4147851,-6.982769,0.4757627,0.2694555,-6.995021,0.7756408,0.4493714,0.04218934,0.4116037,-0.06369333,-0.1052819,-0.3295287,0.6661793,0.1646269,13.34377,-0.09972118,-0.03569443,0.09215087,12.9812
"1.07 sec",0.4576791,0.7823862,0.4147851,-6.982769,0.483583,0.2739021,-6.994754,0.7882731,0.4398662,0.01135033,0.4125257,-0.05663892,-0.106504,0.03318882,0.6760894,0.1648114,12.98189,-0.04291763,0.1100048,0.09030694,12.00777
"1.08 sec",0.4576791,0.7823862,0.4147851,-6.982769,0.4915191,0.2782551,-6.994749,0.7984411,0.4307231,-0.01009376,0.4134389,-0.03338606,-0.09893938,1.217814,3.299026,0.4201651,12.0103,-0.04686493,0.1205094,0.08848035,10.97136
"1.09 sec",0.4576791,0.7823862,0.4147851,-6.982769,0.4995354,0.2825194,-6.994908,0.804081,0.4220965,-0.02148181,0.4143485,0.003082013,-0.08608872,1.272589,3.673162,0.4082534,10.97525,-0.05048668,0.1302403,0.08666128,10.16116
"1.1 sec",0.4712994,0.856981,0.4647513,-6.991274,0.5075859,0.286699,-6.995141,0.8054072,0.4137652,-0.02484578,0.4152369,0.03850317,-0.0748267,0.9708499,3.257381,0.3327252,10.16264,0.03686224,-0.09518057,0.112125,13.88222
"1.11 sec",0.4712994,0.856981,0.4647513,-6.991274,0.515632,0.2907809,-6.995581,0.8035785,0.4029185,-0.06417296,0.4163466,0.04119434,-0.05637916,2.342466,-1.782184,0.009668136,13.88037,0.03675676,-0.09522124,0.1099056,13.88222
"1.12 sec",0.4712994,0.856981,0.4647513,-6.991274,0.52366,0.2947699,-6.996425,0.8023602,0.3956447,-0.1046916,0.4174159,0.01537378,-0.03245193,2.310109,-3.00732,0.008750456,13.88103,0.03849927,-0.1000734,0.107767,13.21754
"1.13 sec",0.4712994,0.856981,0.4647513,-6.991274,0.5316872,0.2987098,-6.997643,0.8034955,0.3930322,-0.1388988,0.4184615,-0.01484899,-0.01130147,1.884704,-2.893257,0.07221029,13.21826,0.06213846,-0.1625984,0.1056758,8.170247
"1.14 sec",0.4712994,0.856981,0.4647513,-6.991274,0.5397327,0.3026425,-6.998963,0.8058944,0.3939315,-0.1237506,0.419487,-0.04820063,0.007753328,1.836672,-3.478321,0.1292357,8.170617,0.08320699,-0.219415,0.1036248,6.088315
"1.15 sec",0.4712994,0.856981,0.4647513,-6.991274,0.547807,0.3065934,-7.000019,0.8092328,0.3965771,-0.08691449,0.4204863,-0.08755993,0.02676398,1.868264,-4.057135,0.2079864,6.089298,0.08414058,-0.2226063,0.1016263,6.005213
"1.16 sec",0.4712994,0.856981,0.4647513,-6.991274,0.5559229,0.3105805,-7.000697,0.8142228,0.4011529,-0.04850086,0.4214694,-0.1259547,0.04383291,1.536134,-3.501947,0.251725,6.005645,0.192284,0.07422435,0.09966016,6.915653
"1.17 sec",0.4712994,0.856981,0.4647513,-6.991274,0.5640986,0.3146262,-7.001031,0.8207613,0.4082738,-0.01864102,0.4224727,-0.1222365,0.06962264,3.184023,2.983718,-0.1044062,6.913235,-0.004648467,0.1386722,0.09765351,8.053631
"1.18 sec",0.4712994,0.856981,0.4647513,-6.991274,0.5723332,0.3187544,-7.001123,0.8255581,0.4172302,-0.0001314915,0.4234708,-0.07520849,0.07866461,-0.6642991,5.638022,-0.3483886,8.052158,-0.05483409,0.1454901,0.09565729,9.136507
"1.19 sec",0.4712994,0.856981,0.4647513,-6.991274,0.5805981,0.3229677,-7.001086,0.8267508,0.4248225,0.007219495,0.4243748,-0.01798592,0.05940585,-2.68427,5.500692,-0.2388846,9.133445,-0.0510692,0.1357916,0.09384924,9.785984
"1.2 sec",0.4758658,0.9373559,0.5068439,-6.991845,0.5888558,0.3272383,-7.001011,0.8242564,0.4285682,0.007743273,0.425244,0.03064997,0.0315681,-2.7236,4.202143,-0.04483951,9.785121,0.04482405,-0.1193929,0.1012436,11.12265
"1.21 sec",0.4758658,0.9373559,0.5068439,-6.991845,0.5970736,0.3315279,-7.000995,0.8193124,0.4291018,-0.00492768,0.4262392,0.03662834,0.01792894,-0.3848346,-1.86965,0.1351015,11.1217,0.04770824,-0.1275136,0.09925324,10.42307
"1.22 sec",0.4758658,0.9373559,0.5068439,-6.991845,0.6052495,0.3358212,-7.001076,0.8163316,0.429799,-0.01118835,0.4272307,0.007068999,0.01926067,0.4744003,-3.549726,0.166828,10.42424,0.05008648,-0.134325,0.09727019,9.902311
"1.23 sec",0.4758658,0.9373559,0.5068439,-6.991845,0.6134107,0.3401298,-7.001194,0.8164203,0.4322583,-0.01220897,0.4281931,-0.0292209,0.02549002,0.6968971,-3.507665,0.1854394,9.902744,0.05143594,-0.1383813,0.09534544,9.617941
"1.24 sec",0.4758658,0.9373559,0.5068439,-6.991845,0.621587,0.3444727,-7.001307,0.8192753,0.4366286,-0.01021507,0.429136,-0.06152854,0.03237716,0.658805,-2.885064,0.1876764,9.618961,0.05179617,-0.1397633,0.09345961,9.526976
"1.25 sec",0.4758658,0.9373559,0.5068439,-6.991845,0.6298035,0.3488679,-7.001393,0.8243352,0.4426607,-0.007079793,0.4300638,-0.08676575,0.03827796,0.5279652,-2.152653,0.1750304,9.527496,0.04909258,-0.1382466,0.09160411,9.555929
"1.26 sec",0.4758658,0.9373559,0.5068439,-6.991845,0.6380793,0.3533303,-7.001449,0.8310663,0.4500114,-0.004011254,0.4309768,-0.104803,0.04243534,0.3352931,-1.474293,0.1535313,9.547837,-0.03628528,0.1314038,0.08977813,9.632874
"1.27 sec",0.4758658,0.9373559,0.5068439,-6.991845,0.6464267,0.3578693,-7.001477,0.838155,0.4575341,-0.001659873,0.4318653,-0.08555111,0.03509418,-1.408898,4.142396,-0.05876478,9.632442,-0.05025456,0.1367178,0.08800107,9.746918
"1.28 sec",0.4758658,0.9373559,0.5068439,-6.991845,0.6548331,0.362472,-7.001489,0.842537,0.4624107,-0.0007678061,0.4327022,-0.03655012,0.01728452,-1.941839,5.185273,-0.006854574,9.746106,-0.04989397,0.1360817,0.08632725,9.795035
"1.29 sec",0.4758658,0.9373559,0.5068439,-6.991845,0.663265,0.367105,-7.001495,0.8432336,0.4635704,-0.0005851316,0.4335187,0.0124896,-0.001371235,-1.726352,4.484337,0.08841486,9.794387,-0.04971324,0.1359293,0.08469421,9.808805
"1.3 sec",0.4874867,1.018171,0.5554256,-7.001633,0.6716869,0.3717322,-7.001501,0.840673,0.461374,-0.0005048701,0.4343347,0.05189293,-0.01662293,-1.322796,3.385534,0.1385137,9.80596,0.0350407,-0.09586435,0.1063039,13.88222
"1.31 sec",0.4874867,1.018171,0.5554256,-7.001633,0.6800637,0.3763178,-7.001698,0.8346295,0.4556893,-0.03993204,0.4353811,0.05359035,-0.01796359,0.6683536,-2.019885,0.06927826,13.88031,0.03494052,-0.0959008,0.1042112,13.88222
"1.32 sec",0.4874867,1.018171,0.5554256,-7.001633,0.688386,0.380852,-7.0023,0.830346,0.4516424,-0.08052327,0.43641,0.02491615,-0.00805503,1.156433,-3.309329,0.07557537,13.88176,0.03484198,-0.09593656,0.1021532,13.88222
"1.33 sec",0.4874867,1.018171,0.5554256,-7.001633,0.696682,0.3853617,-7.003309,0.8294185,0.4508632,-0.1212334,0.4374134,-0.007624001,0.003394731,1.082912,-3.064461,0.110823,13.88121,0.05020542,-0.1389669,0.1001465,9.609623
"1.34 sec",0.4874867,1.018171,0.5554256,-7.001633,0.7049827,0.3898773,-7.004522,0.8311187,0.452629,-0.1202885,0.4383969,-0.04002518,0.01487609,1.143234,-3.205522,0.1458786,9.611707,0.07310033,-0.20391,0.09817952,6.585105
"1.35 sec",0.4874867,1.018171,0.5554256,-7.001633,0.7133069,0.3944167,-7.00557,0.8340021,0.4555422,-0.08868469,0.4393552,-0.07701151,0.0280106,1.377642,-3.854327,0.2032106,6.586215,0.0803035,-0.2251008,0.09626287,5.979641
"1.36 sec",0.4874867,1.018171,0.5554256,-7.001633,0.7216672,0.3989925,-7.006266,0.8383335,0.4598938,-0.05021692,0.4402914,-0.1157923,0.04175107,1.323383,-3.702833,0.2478699,5.980317,-0.004300122,0.1727939,0.09439045,6.506042
"1.37 sec",0.4874867,1.018171,0.5554256,-7.001633,0.7300791,0.4036207,-7.006599,0.8439062,0.4657001,-0.01654104,0.4412302,-0.1028904,0.04371761,-0.5579408,4.61717,-0.109189,6.505596,-0.06162355,0.1730044,0.09251291,7.748287
"1.38 sec",0.4874867,1.018171,0.5554256,-7.001633,0.738541,0.4083054,-7.006657,0.8479133,0.4707741,0.00467764,0.442112,-0.04499149,0.02832141,-2.121826,6.313397,-0.09317878,7.747296,-0.05390434,0.1515328,0.09074926,8.834749
"1.39 sec",0.4874867,1.018171,0.5554256,-7.001633,0.7470259,0.4130262,-7.006558,0.8484381,0.4727291,0.01474592,0.4429559,0.01313089,0.006911889,-2.053442,5.201256,0.04920297,8.833181,-0.0494667,0.1393251,0.08906156,9.603844
"1.4 sec",0.4966727,1.100276,0.6046138,-7.008358,0.7554976,0.4177477,-7.006398,0.8453952,0.4710145,0.01707743,0.4438053,0.05685335,-0.01110113,-1.552274,3.605203,0.1259858,9.602985,0.03413265,-0.09619053,0.1057346,13.88222
"1.41 sec",0.4966727,1.100276,0.6046138,-7.008358,0.7639171,0.4224308,-7.006419,0.8384625,0.4655043,-0.02226266,0.4448475,0.05915802,-0.01446808,0.4924871,-2.068974,0.07518252,13.88028,0.03403253,-0.0962259,0.1036503,13.88222
"1.42 sec",0.4966727,1.100276,0.6046138,-7.008358,0.7722738,0.4270632,-7.006844,0.8334112,0.4614486,-0.06282796,0.4458726,0.02952276,-0.006050685,1.031533,-3.432458,0.08103805,13.8804,0.03688066,-0.104656,0.1016001,12.77353
"1.43 sec",0.4966727,1.100276,0.6046138,-7.008358,0.7805982,0.4316713,-7.007623,0.8320543,0.4607012,-0.09272946,0.4468704,-0.005256904,0.004707575,1.0542,-3.345997,0.1155181,12.77762,0.05355094,-0.1528382,0.09960443,8.774506
"1.44 sec",0.4966727,1.100276,0.6046138,-7.008358,0.7889239,0.436285,-7.008509,0.8334833,0.4624046,-0.08336713,0.4478464,-0.04112088,0.01626584,1.175176,-3.579132,0.1555939,8.776625,0.06622932,-0.1901153,0.09765244,7.07691
"1.45 sec",0.4966727,1.100276,0.6046138,-7.008358,0.7972728,0.4409238,-7.009209,0.8366159,0.465679,-0.05632276,0.4488005,-0.07845922,0.02861596,1.228215,-3.658394,0.1998025,7.077902,0.06720524,-0.1935585,0.09574437,6.955333
"1.46 sec",0.4966727,1.100276,0.6046138,-7.008358,0.8056623,0.4456044,-7.009628,0.8415733,0.4707294,-0.02744271,0.4497389,-0.1123045,0.03992308,1.027452,-3.031659,0.2147041,6.956419,-0.01892813,0.156034,0.09386748,7.59328
"1.47 sec",0.4966727,1.100276,0.6046138,-7.008358,0.8141099,0.4503444,-7.009788,0.8477915,0.4771749,-0.004580139,0.4506717,-0.09800876,0.03874959,-0.8699803,4.389727,-0.0785044,7.592526,-0.0543541,0.1570725,0.09200186,8.551577
"1.48 sec",0.4966727,1.100276,0.6046138,-7.008358,0.8226125,0.4551443,-7.009767,0.8521294,0.4822843,0.00852473,0.4515502,-0.04380592,0.02303851,-1.962526,5.865656,-0.04908535,8.548935,-0.04978879,0.1441715,0.09024501,9.311381
"1.49 sec",0.4966727,1.100276,0.6046138,-7.008358,0.8311408,0.459979,-7.009654,0.8529018,0.484021,0.0137386,0.4523984,0.01081919,0.003610435,-1.837896,4.934453,0.06767712,9.310225,-0.04716675,0.1368958,0.08854854,9.804551
"1.5 sec",0.5061901,1.182647,0.6549539,-7.010012,0.8396587,0.4648127,-7.009515,0.8501945,0.4821751,0.0139829,0.4532484,0.05303961,-0.01254715,-1.395236,3.540716,0.1302505,9.80412,0.03535226,-0.1027148,0.1058832,13.04689
"1.51 sec",0.5061901,1.182647,0.6549539,-7.010012,0.8481311,0.4696093,-7.009528,0.8442466,0.4770713,-0.01731806,0.4542924,0.05466935,-0.01472895,0.5799806,-2.135474,0.07373355,13.0431,0.04223653,-0.1232509,0.1037953,10.88825
"1.52 sec",0.5061901,1.182647,0.6549539,-7.010012,0.856554,0.4743631,-7.00976,0.8408276,0.474143,-0.02855486,0.4553153,0.02203825,-0.004841553,1.21303,-3.875849,0.08262417,10.88855,0.04814024,-0.1410835,0.1017496,9.525379
"1.53 sec",0.5061901,1.182647,0.6549539,-7.010012,0.8649587,0.4791025,-7.010035,0.840601,0.4741976,-0.02605027,0.456307,-0.01858735,0.008094646,1.288323,-3.998415,0.1314378,9.526347,0.05112763,-0.1504076,0.09976614,8.943288
"1.54 sec",0.5061901,1.182647,0.6549539,-7.010012,0.873375,0.4838556,-7.010253,0.8430789,0.4768452,-0.01745315,0.4572818,-0.05625932,0.02027718,1.120788,-3.431016,0.1672088,8.943938,0.0512925,-0.1513833,0.09781653,8.889117
"1.55 sec",0.5061901,1.182647,0.6549539,-7.010012,0.8818278,0.4886467,-7.01038,0.8478209,0.4817005,-0.007995,0.4582453,-0.08650076,0.03010954,0.8562058,-2.601124,0.1746773,8.889847,0.04989906,-0.1477031,0.09588957,9.111268
"1.56 sec",0.5061901,1.182647,0.6549539,-7.010012,0.8903379,0.493496,-7.010422,0.8544426,0.4884087,-0.0004615187,0.459197,-0.1081679,0.03714332,0.5828907,-1.763527,0.1603952,9.104409,-0.04309467,0.1404195,0.09398615,9.411884
"1.57 sec",0.5061901,1.182647,0.6549539,-7.010012,0.8989196,0.4984178,-7.010403,0.8616639,0.4957259,0.004163902,0.4601278,-0.08908617,0.03100292,-1.379545,4.310578,-0.04289598,9.410843,-0.04666813,0.1389259,0.09212446,9.687492
"1.58 sec",0.5061901,1.182647,0.6549539,-7.010012,0.9075623,0.5034019,-7.010354,0.8662709,0.5004903,0.005698476,0.4610072,-0.03847933,0.01424898,-1.788819,5.333407,0.01114916,9.686432,-0.04578726,0.1366827,0.09036577,9.847982
"1.59 sec",0.5061901,1.182647,0.6549539,-7.010012,0.9162325,0.5084152,-7.010298,0.8671499,0.5015378,0.005380491,0.4618674,0.0116812,-0.002721807,-1.555004,4.566643,0.09906557,9.845472,-0.04536324,0.1357963,0.0886454,9.914538
"1.6 sec",0.5158639,1.266027,0.7068719,-7.01027,0.9248942,0.5134214,-7.010249,0.864693,0.4992212,0.004417468,0.4627258,0.05162297,-0.01635215,-1.174667,3.41745,0.1423116,9.913541,0.04316254,-0.129533,0.1062762,10.39303
"1.61 sec",0.5158639,1.266027,0.7068719,-7.01027,0.9335192,0.5183923,-7.010231,0.8603605,0.4949901,-0.001112847,0.4637737,0.04960883,-0.01595166,0.8520349,-2.646553,0.06290746,10.39261,0.04457119,-0.1342614,0.1041804,10.03322
"1.62 sec",0.5158639,1.266027,0.7068719,-7.01027,0.9421082,0.5233279,-7.010254,0.8578933,0.4925821,-0.003371565,0.4647952,0.0134323,-0.004136916,1.344401,-4.107697,0.08436451,10.03388,0.04550815,-0.1375768,0.1021374,9.796653
"1.63 sec",0.5158639,1.266027,0.7068719,-7.01027,0.9506872,0.528254,-7.010288,0.8583984,0.4931191,-0.003288297,0.4657899,-0.0270771,0.009140263,1.256423,-3.822196,0.1345427,9.798037,0.04588333,-0.1391857,0.100148,9.68749
"1.64 sec",0.5158639,1.266027,0.7068719,-7.01027,0.9592853,0.5331994,-7.010314,0.8616335,0.4963744,-0.001977365,0.466772,-0.06147082,0.02040876,0.994422,-3.015759,0.1599688,9.687979,0.04580364,-0.1394038,0.09818381,9.675531
"1.65 sec",0.5158639,1.266027,0.7068719,-7.01027,0.967927,0.5381886,-7.010326,0.8670312,0.5017933,-0.0003294415,0.4677432,-0.08739245,0.02887815,0.7200532,-2.178417,0.1599586,9.678026,0.03524169,-0.1175051,0.09624147,9.687877
"1.66 sec",0.5158639,1.266027,0.7068719,-7.01027,0.976631,0.5432403,-7.010321,0.8739454,0.5087184,0.001390366,0.4687023,-0.1030776,0.03358716,0.295732,-1.075579,0.1317562,9.685737,-0.04496353,0.1377259,0.09432316,9.79849
"1.67 sec",0.5158639,1.266027,0.7068719,-7.01027,0.985407,0.5483639,-7.010303,0.8809755,0.515709,0.002039878,0.4696354,-0.08105773,0.02604471,-1.414729,4.323153,-0.02155842,9.797798,-0.04460562,0.137056,0.092457,9.848933
"1.68 sec",0.5158639,1.266027,0.7068719,-7.01027,0.9942407,0.5535446,-7.010284,0.8851604,0.5198417,0.001850629,0.4705204,-0.03153438,0.009912975,-1.664672,5.148214,0.03695133,9.848269,-0.04442916,0.1369226,0.09068698,9.861235
"1.69 sec",0.5158639,1.266027,0.7068719,-7.01027,1.003098,0.5587484,-7.010268,0.8856663,0.5203083,0.001354022,0.4713888,0.01681203,-0.0057015,-1.418679,4.395903,0.112468,9.858687,-0.04434894,0.1370801,0.08895022,9.852718
"1.7 sec",0.5254824,1.351197,0.7606612,-7.011775,1.011943,0.5639401,-7.010256,0.8829671,0.5175812,0.001007169,0.4722538,0.05535447,-0.01810397,-1.067409,3.304476,0.1468028,9.854169,0.03466563,-0.1073081,0.1064572,12.56975
"1.71 sec",0.5254824,1.351197,0.7606612,-7.011775,1.020745,0.5690881,-7.010376,0.8774333,0.5120145,-0.02564721,0.4733045,0.0548648,-0.01788795,0.748554,-2.321735,0.063986,12.56887,0.04121422,-0.1281645,0.1043558,10.53908
"1.72 sec",0.5254824,1.351197,0.7606612,-7.011775,1.029502,0.5741904,-7.010674,0.8743614,0.5089149,-0.0333623,0.4743302,0.02060002,-0.006812247,1.292763,-4.016345,0.07433603,10.54004,0.04641837,-0.1449894,0.1023045,9.328455
"1.73 sec",0.5254824,1.351197,0.7606612,-7.011775,1.038243,0.5792771,-7.010986,0.8743796,0.5089106,-0.02884961,0.4753256,-0.02109629,0.006596874,1.311814,-4.078118,0.1264167,9.329551,0.04868694,-0.1526657,0.1003135,8.866572
"1.74 sec",0.5254824,1.351197,0.7606612,-7.011775,1.046998,0.5843775,-7.011228,0.8770632,0.5115788,-0.01944728,0.4763056,-0.0591828,0.01879955,1.108648,-3.444973,0.1629384,8.866995,0.04842553,-0.152356,0.09835368,8.887131
"1.75 sec",0.5254824,1.351197,0.7606612,-7.011775,1.055792,0.5895163,-7.011375,0.8820022,0.5165144,-0.009936119,0.4772748,-0.08927362,0.02840071,0.8272521,-2.567552,0.1698343,8.882692,0.04488834,-0.1001336,0.09641522,9.087829
"1.76 sec",0.5254824,1.351197,0.7606612,-7.011775,1.064644,0.5947138,-7.011436,0.888601,0.523194,-0.002175348,0.4782341,-0.1048893,0.03488684,0.5132306,-0.8005669,0.123659,9.082935,-0.04510354,0.1427723,0.09449661,9.483555
"1.77 sec",0.5254824,1.351197,0.7606612,-7.011775,1.073565,0.5999822,-7.011437,0.8952959,0.5302101,0.00169232,0.479169,-0.08053657,0.02839009,-1.391457,4.517141,-0.03710634,9.482917,-0.0438259,0.1391504,0.09262687,9.731071
"1.78 sec",0.5254824,1.351197,0.7606612,-7.011775,1.082541,0.6053087,-7.011415,0.8991746,0.5344767,0.002727733,0.4800545,-0.02974676,0.01220673,-1.689082,5.223295,0.02427235,9.72979,-0.0430958,0.13724,0.09085578,9.868104
"1.79 sec",0.5254824,1.351197,0.7606612,-7.011775,1.091536,0.6106593,-7.01139,0.8994034,0.5350471,0.002194613,0.4809237,0.01884712,-0.003655248,-1.442804,4.385658,0.1035519,9.867132,-0.04276922,0.1366087,0.08911741,9.915986
"1.8 sec",0.5349236,1.437897,0.8159125,-7.013513,1.100518,0.6159987,-7.011373,0.8964579,0.532361,0.001233986,0.4817902,0.05703935,-0.01624613,-1.082058,3.254726,0.1400117,9.915346,0.03236219,-0.1035174,0.1062666,13.06693
"1.81 sec",0.5349236,1.437897,0.8159125,-7.013513,1.109453,0.6212937,-7.011514,0.8904817,0.5266139,-0.03026276,0.4828394,0.05651594,-0.01659564,0.6660165,-2.293256,0.06735576,13.0636,0.03936905,-0.126528,0.1041682,10.70621
"1.82 sec",0.5349236,1.437897,0.8159125,-7.013513,1.118339,0.6265416,-7.011867,0.8871778,0.5234289,-0.0397254,0.4838647,0.02240821,-0.006344633,1.213877,-4.009938,0.07622923,10.70661,0.04524326,-0.146087,0.1021178,9.28632
"1.83 sec",0.5349236,1.437897,0.8159125,-7.013513,1.127207,0.6317731,-7.012241,0.8870488,0.5233605,-0.03484479,0.4848595,-0.01959069,0.006433693,1.262098,-4.131804,0.1259856,9.287231,0.04795617,-0.1554784,0.1001281,8.733326
"1.84 sec",0.5349236,1.437897,0.8159125,-7.013513,1.136088,0.6370175,-7.012537,0.8895939,0.5259401,-0.02413876,0.4858378,-0.0584794,0.0182932,1.086194,-3.539503,0.1627303,8.733869,0.04775581,-0.1553642,0.09817153,8.742253
"1.85 sec",0.5349236,1.437897,0.8159125,-7.013513,1.145007,0.6422995,-7.012724,0.8944131,0.5307868,-0.01318828,0.486805,-0.0895295,0.02775025,0.8189253,-2.660069,0.1705191,8.73997,0.04774369,-0.08409768,0.09623712,8.958388
"1.86 sec",0.5349236,1.437897,0.8159125,-7.013513,1.153983,0.6476393,-7.01281,0.9008671,0.5373858,-0.004139172,0.4877627,-0.1037639,0.03459838,0.577809,-0.5129203,0.113358,8.954306,-0.04405552,0.1442139,0.09432179,9.416915
"1.87 sec",0.5349236,1.437897,0.8159125,-7.013513,1.163025,0.6530493,-7.012828,0.9072718,0.5443202,0.000388341,0.488696,-0.07776821,0.02861862,-1.3513,4.590006,-0.04033977,9.41649,-0.04263948,0.140011,0.09245503,9.69984
"1.88 sec",0.5349236,1.437897,0.8159125,-7.013513,1.172118,0.6585165,-7.012817,0.9108275,0.5485105,0.001729967,0.4895806,-0.02679382,0.01277138,-1.661935,5.204016,0.02149548,9.698845,-0.04182642,0.1377594,0.0906859,9.859668
"1.89 sec",0.5349236,1.437897,0.8159125,-7.013513,1.181229,0.6640071,-7.012802,0.9107766,0.5490132,0.001285689,0.490449,0.02140895,-0.002856538,-1.423405,4.335032,0.09981203,9.856848,-0.04144976,0.1369386,0.08894908,9.920857
"1.9 sec",0.4398323,1.545159,0.8364627,-7.015079,1.190323,0.6694859,-7.012794,0.9076135,0.5462684,0.0002882598,0.4913145,0.05905825,-0.01527771,-1.06783,3.200687,0.1359087,9.919961,0.03211578,-0.1062762,-0.1029645,12.76626
"1.91 sec",0.4398323,1.545159,0.8364627,-7.015079,1.199369,0.6749203,-7.01293,0.9015812,0.5406119,-0.02827499,0.4903787,0.05767484,-0.01569114,0.6591256,-2.393024,-0.1410511,12.7647,-0.07987683,-0.06461845,-0.1010928,10.5976
"1.92 sec",0.4398323,1.545159,0.8364627,-7.015079,1.208366,0.6803068,-7.013258,0.8982286,0.5368691,-0.03658444,0.4893715,0.03006887,-0.01951088,-1.062097,-2.876938,-0.1556914,10.5979,-0.1448825,-0.04451393,-0.09907842,9.36927
"1.93 sec",0.4398323,1.545159,0.8364627,-7.015079,1.217345,0.6856604,-7.013604,0.8980697,0.5337524,-0.03243593,0.4884046,0.00530962,-0.04004217,-2.626182,-2.081427,-0.1797131,9.370365,-0.1532213,-0.0472807,-0.0971446,8.860425
"1.94 sec",0.4398323,1.545159,0.8364627,-7.015079,1.226336,0.6909788,-7.013882,0.9006267,0.529703,-0.02293741,0.4874578,-0.01246922,-0.06787372,-2.760352,-1.475495,-0.195505,8.860851,-0.153194,-0.04743223,-0.09525108,8.85942
"1.95 sec",0.4398323,1.545159,0.8364627,-7.015079,1.235365,0.6962494,-7.014062,0.9054656,0.5241581,-0.01312224,0.486521,-0.02483766,-0.09320392,-2.26374,-0.9974352,-0.1876541,8.861717,-0.1488825,-0.04623009,-0.09337741,9.111372
"1.96 sec",0.4398323,1.545159,0.8364627,-7.015079,1.244452,0.7014567,-7.014155,0.9121916,0.5170902,-0.005547891,0.4855947,-0.03297438,-0.1123058,-1.585985,-0.627694,-0.1641621,9.104181,-0.1073013,0.025692,-0.09152478,9.377693
"1.97 sec",0.4398323,1.545159,0.8364627,-7.015079,1.253613,0.7065868,-7.014185,0.9200035,0.5087888,-0.0004587884,0.4846784,-0.02972911,-0.1205566,-0.2759439,0.968417,0.02501749,9.376378,-0.04309136,0.1394863,-0.08969212,9.724241
"1.98 sec",0.4398323,1.545159,0.8364627,-7.015079,1.26285,0.7116287,-7.014181,0.9269742,0.4995126,0.001186161,0.4837906,-0.004640821,-0.113068,1.405529,3.425888,0.3011356,9.723346,-0.0424706,0.1370288,-0.08791667,9.894523
"1.99 sec",0.4398323,1.545159,0.8364627,-7.015079,1.272141,0.716575,-7.01417,0.9306539,0.489711,0.0009460432,0.4829396,0.03104602,-0.09701015,1.669001,3.482149,0.2535955,9.891058,-0.04228794,0.1360242,-0.0862146,9.964417
"2 sec",0.4342442,1.637213,0.8864131,-7.016613,1.281451,0.7214221,-7.014165,0.9305891,0.4796846,-6.852885e-05,0.4821026,0.06275227,-0.08134073,1.431741,2.80325,0.1442986,9.963298,0.03313567,-0.1061192,-0.09571666,12.74929
"2.01 sec",0.4342442,1.637213,0.8864131,-7.016613,1.290742,0.7261578,-7.014303,0.9274896,0.467843,-0.02815219,0.4811461,0.05875028,-0.0600504,2.510953,-2.542716,-0.2516687,12.74813,0.03976407,-0.1270449,-0.09380376,10.65739
"2.02 sec",0.4342442,1.637213,0.8864131,-7.016613,1.300006,0.7307997,-7.014631,0.9258327,0.4612703,-0.03693847,0.4801612,0.02287539,-0.03444991,2.480227,-4.11452,-0.240881,10.65766,0.04532088,-0.1444378,-0.09183383,9.380753
"2.03 sec",0.4342442,1.637213,0.8864131,-7.016613,1.309267,0.7353994,-7.014982,0.9266729,0.4593094,-0.03293965,0.4791911,-0.01959308,-0.01132145,2.091478,-4.132598,-0.1431377,9.381811,0.04808499,-0.1528065,-0.08989364,8.86911
"2.04 sec",0.4342442,1.637213,0.8864131,-7.016613,1.318547,0.7399973,-7.015265,0.929845,0.4607927,-0.02358621,0.4782533,-0.05816808,0.007299358,1.613012,-3.490442,-0.06725378,8.869546,0.04826533,-0.1528822,-0.08801806,8.862203
"2.05 sec",0.4342442,1.637213,0.8864131,-7.016613,1.327871,0.7446241,-7.015452,0.93508,0.4649598,-0.01385248,0.4773495,-0.08866735,0.02112172,1.149439,-2.610602,-0.03415971,8.864264,0.0146504,-0.1273311,-0.08621043,9.072431
"2.06 sec",0.4342442,1.637213,0.8864131,-7.016613,1.337255,0.7493033,-7.015551,0.942027,0.4710813,-0.005948824,0.4764794,-0.1077282,0.0268378,0.1382724,-1.342467,-0.04983934,9.06887,-0.04556221,0.1433569,-0.08447039,9.440066
"2.07 sec",0.4342442,1.637213,0.8864131,-7.016613,1.346714,0.7540476,-7.015589,0.9494762,0.4774947,-0.001638239,0.4756232,-0.08597223,0.01923094,-1.347727,4.453327,-0.1726936,9.43936,-0.04446853,0.1394731,-0.08275783,9.69803
"2.08 sec",0.4342442,1.637213,0.8864131,-7.016613,1.356235,0.7588441,-7.015597,0.9542065,0.4812279,-0.0002533165,0.4747563,-0.03485888,0.004336381,-1.524388,5.315914,-0.10992,9.696864,-0.04391127,0.1372991,-0.08102411,9.847617
"2.09 sec",0.4342442,1.637213,0.8864131,-7.016613,1.365785,0.7636601,-7.015601,0.9551529,0.4813891,-0.000575557,0.4739085,0.01485121,-0.009782162,-1.270779,4.505197,-0.03996273,9.846006,-0.04377412,0.1364669,-0.07932854,9.904535
"2.1 sec",0.4219072,1.733104,0.929054,-7.015861,1.375327,0.7684614,-7.015611,0.9527325,0.4784142,-0.00142492,0.4730911,0.05414687,-0.0208549,-0.9394537,3.35721,-0.01089465,9.903751,0.05082506,-0.1582098,-0.1023678,8.553086
"2.11 sec",0.4219072,1.733104,0.929054,-7.015861,1.384837,0.773226,-7.015565,0.9492335,0.4745977,0.01095487,0.4720725,0.04814695,-0.01777717,1.147026,-3.249532,-0.1617481,8.553987,0.04568526,-0.1415753,-0.1003305,9.544574
"2.12 sec",0.4219072,1.733104,0.929054,-7.015861,1.394317,0.7779586,-7.01544,0.9472682,0.4724051,0.01391498,0.4710405,0.007912163,-0.00400641,1.47309,-4.357528,-0.1210704,9.540644,0.04323991,-0.1334678,-0.09826642,10.1161
"2.13 sec",0.4219072,1.733104,0.929054,-7.015861,1.403792,0.7826844,-7.015315,0.9483047,0.4732794,0.01101831,0.4700275,-0.03286526,0.00972692,1.238936,-3.698009,-0.06466664,10.11554,0.04254578,-0.1308566,-0.09624046,10.31307
"2.14 sec",0.4219072,1.733104,0.929054,-7.015861,1.413292,0.7874337,-7.015228,0.9521541,0.477011,0.006181576,0.4690455,-0.0649039,0.02049766,0.9083396,-2.721263,-0.04160208,10.30857,0.04277629,-0.1311312,-0.09427655,10.28839
"2.15 sec",0.4219072,1.733104,0.929054,-7.015861,1.422842,0.7922316,-7.015189,0.9580748,0.4828423,0.001732283,0.4680921,-0.08779082,0.02820884,0.6292862,-1.89151,-0.04123157,10.29283,-0.07203045,-0.02372864,-0.09236979,10.09918
"2.16 sec",0.4219072,1.733104,0.929054,-7.015861,1.432458,0.7970932,-7.015184,0.9651256,0.4893579,-0.0007505392,0.467166,-0.09087682,0.02009647,-1.763471,0.7746031,-0.1081828,10.10315,-0.04396097,0.1339322,-0.09051752,10.06877
"2.17 sec",0.4219072,1.733104,0.929054,-7.015861,1.442143,0.8020121,-7.015203,0.9716725,0.4939371,-0.003023946,0.4662347,-0.06036965,0.002847595,-1.629566,4.448392,-0.1066759,10.06942,-0.04464186,0.1355945,-0.08865494,9.943327
"2.18 sec",0.4219072,1.733104,0.929054,-7.015861,1.45188,0.8069605,-7.01524,0.9751516,0.4951589,-0.004310382,0.4653114,-0.01272967,-0.0117486,-1.281772,4.755596,-0.03596114,9.9447,-0.04522368,0.136948,-0.08680826,9.842907
"2.19 sec",0.4219072,1.733104,0.929054,-7.015861,1.461634,0.8119045,-7.015285,0.975053,0.4931753,-0.004636894,0.4644167,0.03122998,-0.02280721,-0.9331281,3.948271,0.001316153,9.843473,-0.04561416,0.1377243,-0.08501881,9.785043
"2.2 sec",0.4128927,1.830557,0.9741659,-7.01989,1.471371,0.8168156,-7.015329,0.971925,0.4886571,-0.004242591,0.4635509,0.06565557,-0.03070069,-0.647382,2.940902,0.00440969,9.78581,0.03222977,-0.09684293,-0.1013165,13.88222
"2.21 sec",0.4128927,1.830557,0.9741659,-7.01989,1.481058,0.821662,-7.015563,0.9653172,0.4807017,-0.04352579,0.4625419,0.06313723,-0.02701924,1.049743,-2.398329,-0.1671191,13.88032,0.03388715,-0.101501,-0.09929836,13.24345
"2.22 sec",0.4128927,1.830557,0.9741659,-7.01989,1.490686,0.8264396,-7.016171,0.960868,0.475397,-0.07783551,0.4615269,0.03056587,-0.01410099,1.403099,-3.682296,-0.1538155,13.24411,0.04682611,-0.140051,-0.0972684,9.614772
"2.23 sec",0.4128927,1.830557,0.9741659,-7.01989,1.500289,0.8311856,-7.016948,0.9602173,0.4743395,-0.07679708,0.4605225,-0.009855532,0.0008167956,1.483572,-4.09572,-0.09706534,9.618896,0.05735128,-0.1713017,-0.09525961,7.875182
"2.24 sec",0.4128927,1.830557,0.9741659,-7.01989,1.509898,0.8359352,-7.017623,0.9621012,0.4760044,-0.05784928,0.4595369,-0.05150555,0.01570398,1.417154,-4.018249,-0.03502303,7.876046,0.06020711,-0.1793521,-0.09328842,7.524004
"2.25 sec",0.4128927,1.830557,0.9741659,-7.01989,1.519538,0.8407129,-7.018087,0.9661196,0.4798786,-0.03486735,0.4585772,-0.08880586,0.02884676,1.171201,-3.362399,0.001959966,7.524722,-0.0942492,-0.04824913,-0.09136897,7.855542
"2.26 sec",0.4128927,1.830557,0.9741659,-7.01989,1.529228,0.8455386,-7.018336,0.9720854,0.4852369,-0.01482639,0.4576623,-0.1028397,0.02110103,-2.072357,-0.01378212,-0.09050378,7.854798,-0.0525509,0.1553291,-0.08953917,8.666747
"2.27 sec",0.4128927,1.830557,0.9741659,-7.01989,1.538983,0.8504149,-7.018423,0.9787831,0.4895799,-0.002811694,0.4567379,-0.07284863,0.001019982,-1.88364,4.898601,-0.09892455,8.665095,-0.0491155,0.1446414,-0.08769041,9.29761
"2.28 sec",0.4128927,1.830557,0.9741659,-7.01989,1.548795,0.85532,-7.018423,0.9829851,0.4908614,0.002590101,0.4558157,-0.02019133,-0.01529126,-1.391025,5.268945,-0.01093884,9.296813,-0.04707326,0.1381584,-0.08584601,9.726892
"2.29 sec",0.4128927,1.830557,0.9741659,-7.01989,1.558631,0.8602208,-7.018392,0.9834962,0.4887955,0.003564443,0.4549271,0.02764247,-0.02675856,-0.926607,4.232127,0.02533292,9.726332,-0.04612413,0.1349573,-0.08406878,9.952686
"2.3 sec",0.4036037,1.929094,1.019097,-7.022106,1.568454,0.8650867,-7.018362,0.9806682,0.4840077,0.00235482,0.4540708,0.06374862,-0.03421319,-0.5806608,3.022429,0.01854202,9.944911,0.03314496,-0.09653438,-0.1009343,13.88222
"2.31 sec",0.4036037,1.929094,1.019097,-7.022106,1.578229,0.8698854,-7.01853,0.9743599,0.4758227,-0.03696987,0.4530659,0.06194416,-0.02964265,1.149199,-2.336814,-0.1713059,13.88028,0.04143358,-0.1204106,-0.09892446,11.13872
"2.32 sec",0.4036037,1.929094,1.019097,-7.022106,1.587953,0.8746181,-7.018972,0.9708165,0.4712661,-0.05080438,0.4520507,0.02765124,-0.01498483,1.619047,-4.004232,-0.1621928,11.13941,0.04985728,-0.1446069,-0.09689391,9.285182
"2.33 sec",0.4036037,1.929094,1.019097,-7.022106,1.597657,0.8793239,-7.019458,0.9705291,0.4704294,-0.04601899,0.4510447,-0.01475815,0.001596591,1.607927,-4.201766,-0.09368803,9.286077,0.05450696,-0.1577099,-0.09488207,8.518472
"2.34 sec",0.4036037,1.929094,1.019097,-7.022106,1.607372,0.8840361,-7.019856,0.9728859,0.4724564,-0.03323704,0.4500631,-0.05484571,0.016759,1.37702,-3.691756,-0.03556368,8.51953,0.05493863,-0.1584657,-0.09291887,8.475485
"2.35 sec",0.4036037,1.929094,1.019097,-7.022106,1.617122,0.888781,-7.020121,0.9775166,0.4768672,-0.01965713,0.4491117,-0.08750285,0.02893982,1.041398,-2.826685,-0.01235921,8.476046,-0.09649306,-0.04046455,-0.09101593,8.735427
"2.36 sec",0.4036037,1.929094,1.019097,-7.022106,1.626929,0.8935786,-7.020261,0.9839585,0.4826003,-0.008417364,0.4482003,-0.09779172,0.02019499,-2.14652,0.2338853,-0.0954769,8.734269,-0.05053684,0.1447772,-0.08919311,9.262222
"2.37 sec",0.4036037,1.929094,1.019097,-7.022106,1.636804,0.8984284,-7.020314,0.9907746,0.4868843,-0.002447953,0.4472795,-0.06823543,3.689368e-05,-1.845294,4.660045,-0.09348831,9.261779,-0.04881451,0.1393882,-0.08735168,9.613927
"2.38 sec",0.4036037,1.929094,1.019097,-7.022106,1.646735,0.9033055,-7.020327,0.9948782,0.4879616,-0.0002921179,0.4463638,-0.01805866,-0.01591479,-1.357754,5.026152,-0.01092004,9.613222,-0.04787556,0.1362844,-0.08552015,9.827855
"2.39 sec",0.4036037,1.929094,1.019097,-7.022106,1.656689,0.9081767,-7.02033,0.9952981,0.4857754,-0.0003829595,0.44548,0.02795365,-0.02721804,-0.9222226,4.099621,0.0240743,9.820923,-0.04753159,0.1349151,-0.08375257,9.923726
"2.4 sec",0.4987094,2.011003,1.100568,-7.025311,1.66663,0.9130123,-7.020339,0.9924678,0.4809906,-0.001332706,0.4446271,0.06327908,-0.03475831,-0.5976626,2.984902,0.01918617,9.923225,0.03405371,-0.09621844,0.1081645,13.88222
"2.41 sec",0.4987094,2.011003,1.100568,-7.025311,1.676524,0.9177811,-7.020544,0.9861925,0.4728264,-0.04065455,0.4456061,0.0613547,-0.030111,1.159014,-2.337599,0.03633318,13.88035,0.03815861,-0.1082077,0.1062066,12.35525
"2.42 sec",0.4987094,2.011003,1.100568,-7.025311,1.686363,0.9224811,-7.02108,0.9822767,0.4677622,-0.06632558,0.4466454,0.02857185,-0.01567526,1.561293,-3.764905,0.04414744,12.35612,0.0494449,-0.1409156,0.1041279,9.508571
"2.43 sec",0.4987094,2.011003,1.100568,-7.025311,1.696182,0.927151,-7.021736,0.9818491,0.4667494,-0.06402705,0.4476538,-0.01217324,0.0006198213,1.599066,-4.094405,0.1032701,9.509266,0.05727704,-0.1640019,0.102111,8.185998
"2.44 sec",0.4987094,2.011003,1.100568,-7.025311,1.706009,0.9318252,-7.022298,0.9839609,0.468538,-0.04807294,0.4486435,-0.05270715,0.01612597,1.451658,-3.833861,0.1609232,8.186897,0.06596855,-0.1542563,0.1001316,7.943147
"2.45 sec",0.4987094,2.011003,1.100568,-7.025311,1.715868,0.9365293,-7.022685,0.9881786,0.4726181,-0.02924536,0.4496217,-0.08594287,0.03000088,1.291248,-2.81677,0.1824394,7.944435,0.1609738,0.05669923,0.09817535,8.330678
"2.46 sec",0.4987094,2.011003,1.100568,-7.025311,1.725777,0.9412852,-7.022901,0.9934223,0.4788471,-0.01395196,0.4506062,-0.08508087,0.05241103,2.793328,2.05394,-0.007088029,8.329956,0.150738,0.05286537,0.09620637,8.89468
"2.47 sec",0.4987094,2.011003,1.100568,-7.025311,1.735729,0.946113,-7.022991,0.9966113,0.4869149,-0.004223721,0.4516065,-0.05757856,0.07939132,2.51909,3.093199,-0.1457218,8.894109,0.1424843,0.04976647,0.09420568,9.409392
"2.48 sec",0.4987094,2.011003,1.100568,-7.025311,1.745698,0.9510286,-7.023009,0.9964601,0.4963025,0.0003899073,0.452583,-0.02781476,0.1007627,1.785387,2.752652,-0.1810522,9.408953,-0.04730159,0.1373728,0.09225267,9.771404
"2.49 sec",0.4987094,2.011003,1.100568,-7.025311,1.755648,0.9560398,-7.023,0.9931587,0.5055926,0.001373148,0.4534954,0.006806049,0.09347855,-2.396,3.770092,-0.2652366,9.770735,-0.0462446,0.1346801,0.09042794,9.968196
"2.5 sec",0.5031888,2.109082,1.150225,-7.017951,1.765553,0.9611292,-7.022992,0.9874474,0.5115879,0.0001943012,0.4543467,0.04278969,0.06384408,-3.213928,3.306857,-0.126389,9.962904,0.07694886,-0.226252,0.09768426,5.979641
"2.51 sec",0.5031888,2.109082,1.150225,-7.017951,1.775407,0.9662547,-7.022808,0.9836916,0.5133769,0.03762095,0.4553184,0.02992685,0.04745324,-0.5013834,-4.329498,0.3045753,5.981572,0.07673085,-0.2263249,0.09574085,5.979641
"2.52 sec",0.5031888,2.109082,1.150225,-7.017951,1.785234,0.9713993,-7.022239,0.9822335,0.5157908,0.07599831,0.4562757,-0.02412654,0.04806476,0.4395189,-5.863682,0.3766429,5.980746,0.06522784,-0.1924358,0.09382617,7.012589
"2.53 sec",0.5031888,2.109082,1.150225,-7.017951,1.795062,0.9765792,-7.021336,0.9839088,0.5205278,0.1044251,0.457203,-0.07651157,0.0524897,0.4327385,-4.551137,0.3317835,7.009389,0.04058914,-0.1195513,0.09197152,11.23394
"2.54 sec",0.5031888,2.109082,1.150225,-7.017951,1.804932,0.9818325,-7.02035,0.9906491,0.5304728,0.09192318,0.4581211,-0.1069827,0.05347031,-0.1185162,-1.870477,0.1918099,11.23202,0.03496357,-0.1032151,0.0901354,13.00536
"2.55 sec",0.5031888,2.109082,1.150225,-7.017951,1.814888,0.9871995,-7.019581,1.000771,0.5430157,0.0614307,0.4590248,-0.1170232,0.05059417,-0.3713183,-0.3599494,0.1079427,13.0045,-0.008096687,0.05766042,0.088328,13.02349
"2.56 sec",0.5031888,2.109082,1.150225,-7.017951,1.824948,0.9926907,-7.019122,1.010963,0.5548534,0.03024242,0.4599002,-0.09871552,0.04163789,-1.192283,3.233548,-0.04866575,13.01943,-0.03669164,0.1089796,0.08657712,12.32814
"2.57 sec",0.5031888,2.109082,1.150225,-7.017951,1.835095,0.9982831,-7.018945,1.017789,0.5629499,0.005349872,0.4607333,-0.05648548,0.02584477,-1.757029,4.696953,-0.03918314,12.3291,-0.03990072,0.1188923,0.08491099,11.3091
"2.58 sec",0.5031888,2.109082,1.150225,-7.017951,1.845289,1.003933,-7.018968,1.020275,0.566341,-0.009811946,0.4615412,-0.009850808,0.008382323,-1.653917,4.423552,0.04400654,11.31243,-0.04318028,0.1290751,0.08329523,10.42556
"2.59 sec",0.5031888,2.109082,1.150225,-7.017951,1.855489,1.009597,-7.019099,1.019205,0.5658706,-0.0161795,0.4623424,0.03101299,-0.006845503,-1.365069,3.666516,0.1057294,10.42772,-0.04565289,0.136887,0.08169287,9.83772
"2.6 sec",0.5164157,2.206665,1.208865,-7.02411,1.865665,1.015241,-7.019263,1.015549,0.5625978,-0.01648048,0.4631391,0.06380907,-0.0189651,-1.058481,2.861601,0.1342299,9.838344,0.03226958,-0.0968297,0.1065532,13.88222
"2.61 sec",0.5164157,2.206665,1.208865,-7.02411,1.875785,1.020834,-7.01962,1.008585,0.5559752,-0.05583041,0.4641875,0.06108326,-0.01887736,0.720759,-2.386335,0.06052981,13.88032,0.03216821,-0.09686333,0.1044564,13.88222
"2.62 sec",0.5164157,2.206665,1.208865,-7.02411,1.885844,1.026368,-7.02038,1.003742,0.5513406,-0.09638376,0.4652173,0.02937946,-0.008890635,1.132715,-3.555147,0.07074637,13.88177,0.04087298,-0.123647,0.1023969,10.89304
"2.63 sec",0.5164157,2.206665,1.208865,-7.02411,1.895874,1.031875,-7.021406,1.002827,0.5505223,-0.1079661,0.466219,-0.00827891,0.003226699,1.207597,-3.732626,0.1121052,10.89379,0.05736487,-0.1746584,0.1003935,7.740029
"2.64 sec",0.5164157,2.206665,1.208865,-7.02411,1.905909,1.037386,-7.02239,1.004442,0.5521771,-0.08803451,0.4671973,-0.04848902,0.01625589,1.312135,-4.025974,0.1630247,7.741533,0.06587168,-0.2016317,0.09843683,6.721682
"2.65 sec",0.5164157,2.206665,1.208865,-7.02411,1.915969,1.042924,-7.023118,1.007884,0.5556407,-0.05723007,0.4681556,-0.08880454,0.02932752,1.254636,-3.840869,0.2082837,6.724521,0.01944387,0.1145221,0.09652025,6.909591
"2.66 sec",0.5164157,2.206665,1.208865,-7.02411,1.926071,1.048505,-7.023543,1.012584,0.5605872,-0.02784119,0.4691178,-0.08658749,0.03513138,0.1109693,2.968329,-0.007926357,6.90565,-0.0556506,0.1710555,0.09459591,7.908182
