Time,desired yaw,desired x,desired y,desired z,WorldPosition_1,WorldPosition_2,WorldPosition_3,WorldVelocity_1,WorldVelocity_2,WorldVelocity_3,EulerZYX_1,EulerZYX_2,EulerZYX_3,BodyAngularRateRPY_1,BodyAngularRateRPY_2,BodyAngularRateRPY_3,Thrust,Roll CS,Pitch CS,Yaw CS,Thrust CS
"0 sec",0.6806784,0.3010184,0.2437599,-7.061348,0,0,-7,0,0,0,0,0,0,0,0,0,0,0.01068044,0.05975684,0.1301244,2.063935
"0.01 sec",0.6806784,0.3010184,0.2437599,-7.061348,-1.393645e-07,2.483969e-08,-6.999608,-5.269875e-05,9.384959e-06,0.07798995,0.001234999,0.006958231,0.001246168,0.202506,1.134805,0.1288205,2.063785,0.03497974,-0.1372087,0.2343529,3.926652
"0.02 sec",0.6806784,0.3010184,0.2437599,-7.061348,-1.919442e-06,6.050189e-07,-6.998529,-0.0002333615,0.0001412553,0.137302,0.003522107,-0.003501854,0.006304527,0.6867994,-2.473047,0.2491223,3.926551,0.0701853,-0.09440901,0.30159,5.631926
"0.03 sec",0.6806784,0.3010184,0.2437599,-7.061348,-9.680875e-07,4.671665e-06,-6.996943,0.0006544297,0.0007836923,0.1795324,0.00648996,-0.02790724,0.01754768,1.377206,-2.298,0.3402393,5.6318,0.08993815,-0.05133875,0.2920929,7.872473
"0.04 sec",0.6806784,0.3010184,0.2437599,-7.061348,1.881503e-05,2.141107e-05,-6.995044,0.003517057,0.002789568,0.1995618,0.0094028,-0.04350623,0.03360184,1.703761,-0.9728766,0.3237954,7.871391,0.07849938,-0.05946506,0.3129941,8.837534
"0.05 sec",0.6806784,0.3010184,0.2437599,-7.061348,7.41527e-05,6.660463e-05,-6.992997,0.007663524,0.006476215,0.2097099,0.01251618,-0.05086736,0.04826039,1.260727,-0.5184216,0.3376378,8.836982,0.07128453,-0.06351185,0.3690689,10.57113
"0.06 sec",0.6806784,0.3010184,0.2437599,-7.061348,0.0001778875,0.0001589544,-6.990932,0.01317659,0.01218748,0.2028433,0.0161758,-0.05533305,0.05788306,0.7462841,-0.3442187,0.3889294,10.57062,0.06509127,-0.06077971,0.3768827,12.50748
"0.07 sec",0.6806784,0.3010184,0.2437599,-7.061348,0.0003439073,0.0003185694,-6.989032,0.02010135,0.01986918,0.1767952,0.01993989,-0.05801746,0.06276961,0.327013,-0.1655121,0.3873637,12.50703,0.05909074,-0.05021837,0.3856377,13.08037
"0.08 sec",0.6806784,0.3010184,0.2437599,-7.061348,0.0005819933,0.0005594388,-6.987423,0.02751973,0.02834503,0.1447247,0.02379172,-0.05816881,0.06404343,0.02354832,0.1282692,0.3775496,13.07964,0.0537351,0.01509714,0.3993023,13.30487
"0.09 sec",0.6806784,0.3010184,0.2437599,-7.061348,0.0008934067,0.0008861985,-6.986148,0.03455325,0.03698273,0.1102998,0.02777704,-0.04905626,0.06285968,-0.1735166,1.437982,0.3089525,13.29758,0.04811357,0.0339583,0.4230815,13.2965
"0.1 sec",0.71988,0.2902867,0.2547269,-7.062908,0.001266662,0.001298073,-6.985218,0.03970148,0.04532193,0.07579821,0.03199308,-0.03148532,0.06009015,-0.3072288,1.928181,0.3073067,13.29733,0.04171408,-0.05253238,0.4416664,13.13471
"0.11 sec",0.71988,0.2902867,0.2547269,-7.062908,0.001680199,0.001790532,-6.984625,0.04283006,0.05307757,0.04277689,0.03639844,-0.02329319,0.05617785,-0.4116458,0.06924229,0.4383275,13.13707,0.0449168,0.02518187,0.4509695,12.8265
"0.12 sec",0.71988,0.2902867,0.2547269,-7.062908,0.002121314,0.00235703,-6.984347,0.04525916,0.06013644,0.0127501,0.04090234,-0.01739398,0.05251952,-0.3023473,0.9541314,0.4012159,12.82734,0.04297208,0.01842623,0.4634847,12.28851
"0.13 sec",0.71988,0.2902867,0.2547269,-7.062908,0.002581316,0.002990452,-6.984344,0.04654427,0.06647591,-0.01200234,0.04552936,-0.008018697,0.04969185,-0.2472775,0.9194605,0.4181952,12.28899,0.04049924,0.01063831,0.4687713,11.53852
"0.14 sec",0.71988,0.2902867,0.2547269,-7.062908,0.003048518,0.003683593,-6.984552,0.04675565,0.07208928,-0.02934278,0.05021342,-0.0008335271,0.04723302,-0.2307441,0.5851066,0.4415683,11.53961,0.03353416,-0.008303991,0.4679906,10.9321
"0.15 sec",0.71988,0.2902867,0.2547269,-7.062908,0.003514536,0.004429834,-6.984902,0.04640747,0.07709672,-0.04060416,0.05489338,0.001446055,0.04435282,-0.3141192,0.01071346,0.4679742,10.93285,0.02627936,-0.02906475,0.4634125,10.56916
"0.16 sec",0.71988,0.2902867,0.2547269,-7.062908,0.003976936,0.005223583,-6.985347,0.04613884,0.08158422,-0.04819318,0.05953052,-0.002157055,0.04049451,-0.416174,-0.5614517,0.4866613,10.5698,0.02135275,-0.04017662,0.4562757,10.18903
"0.17 sec",0.71988,0.2902867,0.2547269,-7.062908,0.004439385,0.006059436,-6.985848,0.04648429,0.08551314,-0.05200438,0.06409871,-0.009817773,0.03592601,-0.4580436,-0.8388602,0.4869033,10.18958,0.01545406,-0.04056263,0.4511994,10.0536
"0.18 sec",0.71988,0.2902867,0.2547269,-7.062908,0.004909448,0.006932199,-6.986381,0.047671,0.08896463,-0.05440819,0.06861547,-0.01816599,0.03094778,-0.4902043,-0.7672025,0.4752979,10.05522,0.01254341,-0.03957143,0.4498679,10.0052
"0.19 sec",0.71988,0.2902867,0.2547269,-7.062908,0.005395415,0.007837181,-6.986934,0.04963968,0.09195844,-0.05630834,0.07311662,-0.02501218,0.02601217,-0.4558186,-0.5750588,0.464989,10.00586,0.01187484,-0.03865078,0.449487,10.02885
"0.2 sec",0.6543828,0.3092223,0.2414583,-7.074966,0.005904287,0.008770024,-6.987508,0.05221904,0.09454737,-0.05842558,0.07761282,-0.02986903,0.02175142,-0.3648241,-0.3845486,0.4578408,10.02317,0.01019788,-0.03799038,0.4437079,10.25545
"0.21 sec",0.6543828,0.3092223,0.2414583,-7.074966,0.006441491,0.00972724,-6.988113,0.05527976,0.09684461,-0.06274935,0.08205348,-0.03301029,0.01829008,-0.2934487,-0.2369331,0.4479166,10.25402,0.01410017,-0.03629823,0.4368764,10.20198
"0.22 sec",0.6543828,0.3092223,0.2414583,-7.074966,0.007010676,0.01070598,-6.98876,0.05858782,0.09887036,-0.06660805,0.08642597,-0.0347572,0.01608,-0.1364132,-0.1118864,0.4384792,10.20433,0.01726237,-0.03502502,0.4301396,10.17326
"0.23 sec",0.6543828,0.3092223,0.2414583,-7.074966,0.007613615,0.01170421,-6.989444,0.06201078,0.1007688,-0.07017079,0.09073087,-0.0354507,0.01537055,0.002307369,-0.02599083,0.4303203,10.183,0.02072728,-0.03217084,0.4234528,10.1266
"0.24 sec",0.6543828,0.3092223,0.2414583,-7.074966,0.008250878,0.01272135,-6.990161,0.06543564,0.1026699,-0.07327527,0.09496883,-0.03525128,0.01592227,0.1137066,0.06127484,0.4222698,10.12738,0.02352183,-0.0302468,0.4166997,10.1028
"0.25 sec",0.6543828,0.3092223,0.2414583,-7.074966,0.008922035,0.01375797,-6.990909,0.06877659,0.1046787,-0.07613268,0.09913935,-0.03436607,0.01735962,0.1818127,0.1145758,0.4145356,10.10909,0.02578764,-0.02750743,0.4100308,10.06296
"0.26 sec",0.6543828,0.3092223,0.2414583,-7.074966,0.009625883,0.01481547,-6.991682,0.07196428,0.1068527,-0.0785999,0.1032432,-0.03297091,0.01927758,0.212829,0.1626288,0.4067634,10.06359,0.02696428,-0.02300561,0.4034673,10.04028
"0.27 sec",0.6543828,0.3092223,0.2414583,-7.074966,0.01036063,0.01589565,-6.992479,0.07494589,0.109216,-0.08083505,0.1072814,-0.03094966,0.02128754,0.2052571,0.2333004,0.3984192,10.04619,0.02736906,-0.01702875,0.3967819,10.0481
"0.28 sec",0.6543828,0.3092223,0.2414583,-7.074966,0.01112391,0.01700039,-6.993299,0.0776565,0.111758,-0.08314697,0.1112529,-0.02807681,0.02307515,0.1720935,0.3252892,0.3892483,10.04744,0.02718915,-0.009725771,0.3899733,10.08786
"0.29 sec",0.6543828,0.3092223,0.2414583,-7.074966,0.0119126,0.0181313,-6.994144,0.08001117,0.1144419,-0.08585203,0.1151564,-0.02417716,0.02445738,0.1258384,0.4311167,0.3794534,10.08726,0.02685846,-0.002747951,0.3832207,10.14638
"0.3 sec",0.6978981,0.305166,0.2645622,-7.08509,0.01272264,0.01928955,-6.995019,0.08191285,0.1172148,-0.08914504,0.1189923,-0.0193298,0.02539279,0.08111839,0.5143529,0.3702267,10.14563,0.02441064,0.00308502,0.3811487,10.62433
"0.31 sec",0.6978981,0.305166,0.2645622,-7.08509,0.01354938,0.02047626,-6.99595,0.08333768,0.1201247,-0.09711605,0.1228049,-0.01390328,0.02569676,0.004947137,0.5525745,0.3670343,10.62392,0.02810761,0.005404824,0.3777093,10.30655
"0.32 sec",0.6978981,0.305166,0.2645622,-7.08509,0.01438731,0.02169146,-6.996946,0.0841549,0.1229088,-0.1021218,0.1265838,-0.008625283,0.02598246,0.05005546,0.502465,0.3647754,10.30729,0.0265358,0.00245823,0.3745587,10.28815
"0.33 sec",0.6978981,0.305166,0.2645622,-7.08509,0.01523079,0.02293434,-6.997992,0.08446953,0.1256637,-0.1068697,0.1303311,-0.004585021,0.0263135,0.02391031,0.3347298,0.3658782,10.29238,0.02781853,-0.0002073056,0.3703771,9.947968
"0.34 sec",0.6978981,0.305166,0.2645622,-7.08509,0.01607557,0.02420426,-6.999068,0.08444673,0.1283175,-0.1083021,0.134037,-0.002262088,0.02661582,0.03501939,0.168426,0.3660263,9.948651,0.02584586,-0.00344661,0.3662178,9.825759
"0.35 sec",0.6978981,0.305166,0.2645622,-7.08509,0.01691919,0.02550056,-7.000152,0.08426362,0.1309409,-0.1084557,0.1377014,-0.001515048,0.02671807,-0.005998894,0.02415377,0.3657026,9.826987,0.02476135,-0.005715424,0.3618132,9.659827
"0.36 sec",0.6978981,0.305166,0.2645622,-7.08509,0.01776079,0.02682283,-7.001229,0.08406343,0.1335095,-0.1069617,0.1413218,-0.001923684,0.02645328,-0.03808739,-0.06676323,0.3637072,9.662678,0.02263835,-0.007763413,0.357672,9.590893
"0.37 sec",0.6978981,0.305166,0.2645622,-7.08509,0.01860071,0.02817055,-7.002287,0.08393665,0.1360261,-0.1047556,0.1449006,-0.003029082,0.02579133,-0.08060905,-0.1192391,0.3608708,9.591986,0.02077906,-0.008140238,0.3538049,9.569215
"0.38 sec",0.6978981,0.305166,0.2645622,-7.08509,0.01943994,0.02954311,-7.003323,0.08393182,0.1384723,-0.102321,0.1484407,-0.004340157,0.0247502,-0.1128968,-0.1179287,0.3568369,9.574609,0.01917654,-0.007053731,0.3499849,9.617309
"0.39 sec",0.6978981,0.305166,0.2645622,-7.08509,0.02027976,0.03093974,-7.004336,0.08404957,0.1408357,-0.1003541,0.1519426,-0.005361781,0.02346128,-0.1307596,-0.07250477,0.3517833,9.6167,0.01814081,-0.004165316,0.3457235,9.71389
"0.4 sec",0.6292795,0.3349791,0.2608518,-7.060824,0.02112121,0.03235955,-7.005335,0.08424699,0.1431047,-0.09934154,0.1554021,-0.005671374,0.02210107,-0.1299521,0.01184973,0.3455404,9.71327,0.01522044,-0.02070105,0.3390969,9.283257
"0.41 sec",0.6292795,0.3349791,0.2608518,-7.060824,0.02196486,0.03380096,-7.006303,0.08451449,0.1451566,-0.09416121,0.1587966,-0.007396332,0.02056213,-0.1592081,-0.2770969,0.3448812,9.283658,0.01299231,-0.01947842,0.341393,9.01591
"0.42 sec",0.6292795,0.3349791,0.2608518,-7.060824,0.02281231,0.03526204,-7.007205,0.08502173,0.1470379,-0.08626763,0.1622096,-0.01038674,0.01877471,-0.1783739,-0.2886871,0.3468837,9.016896,0.0132095,-0.01667163,0.3545111,8.906999
"0.43 sec",0.6292795,0.3349791,0.2608518,-7.060824,0.02366616,0.03674123,-7.008023,0.08578636,0.1487822,-0.07724518,0.1657482,-0.01276355,0.01710842,-0.1439005,-0.1815554,0.3576558,8.90784,0.01448447,-0.01242676,0.3689708,9.085866
"0.44 sec",0.6292795,0.3349791,0.2608518,-7.060824,0.02452868,0.03823752,-7.008759,0.08673549,0.1504613,-0.0699386,0.1694306,-0.01376992,0.0159731,-0.07942947,-0.03111666,0.369482,9.082371,0.01376816,-0.01284644,0.3698402,9.64645
"0.45 sec",0.6292795,0.3349791,0.2608518,-7.060824,0.02540131,0.0397507,-7.009448,0.08779456,0.1521682,-0.06813764,0.1731285,-0.01386797,0.01524455,-0.05640027,0.01471163,0.3696231,9.645935,0.01268093,-0.0176568,0.358343,9.980846
"0.46 sec",0.6292795,0.3349791,0.2608518,-7.060824,0.0262848,0.04128096,-7.010137,0.08891005,0.1538767,-0.06973953,0.1767179,-0.01425775,0.01460231,-0.05797364,-0.06446983,0.3592886,9.980143,0.01375236,-0.01853703,0.3476421,9.733159
"0.47 sec",0.6292795,0.3349791,0.2608518,-7.060824,0.02717962,0.0428279,-7.010831,0.09006869,0.1555058,-0.06901363,0.1801998,-0.01514447,0.0141503,-0.02572024,-0.09245963,0.3489473,9.734284,0.01316064,-0.01876049,0.3390668,9.775343
"0.48 sec",0.6292795,0.3349791,0.2608518,-7.060824,0.0280865,0.04439108,-7.011519,0.09132365,0.1571281,-0.06863516,0.1835949,-0.01610866,0.01386101,-0.02071662,-0.08654754,0.3402566,9.77472,0.01326515,-0.01893239,0.3310212,9.739567
"0.49 sec",0.6292795,0.3349791,0.2608518,-7.060824,0.02900636,0.04597042,-7.012202,0.09266042,0.1587408,-0.06791363,0.1869092,-0.01694646,0.01364457,-0.0119437,-0.07027701,0.3319643,9.753924,0.01325452,-0.01772533,0.3235974,9.738916
"0.5 sec",0.6621092,0.3364097,0.2864561,-7.065814,0.02993993,0.04756589,-7.012878,0.09406142,0.1603533,-0.06718241,0.190149,-0.01745439,0.01350057,-0.005923294,-0.02778576,0.3239531,9.742052,0.01285882,-0.01716897,0.3201311,10.02499
"0.51 sec",0.6621092,0.3364097,0.2864561,-7.065814,0.03088788,0.04917771,-7.013559,0.09553083,0.1620093,-0.06923556,0.1933521,-0.01760045,0.01336106,-0.009262873,0.002245691,0.3200801,10.02401,0.01415075,-0.02014622,0.3160037,9.888602
"0.52 sec",0.6621092,0.3364097,0.2864561,-7.065814,0.03185048,0.05080596,-7.014256,0.09699421,0.1636437,-0.07003155,0.1965142,-0.01790821,0.01336962,0.01712756,-0.04459333,0.3165774,9.890266,0.01446859,-0.01857956,0.3126974,9.848214
"0.53 sec",0.6621092,0.3364097,0.2864561,-7.065814,0.03282784,0.05245063,-7.014958,0.0984814,0.1652939,-0.07039925,0.1996429,-0.01825901,0.01356119,0.02918805,-0.01989344,0.3129436,9.848804,0.01474175,-0.01694872,0.3092724,9.842516
"0.54 sec",0.6621092,0.3364097,0.2864561,-7.065814,0.03382014,0.05411194,-7.015664,0.09997532,0.1669739,-0.07069988,0.2027374,-0.01824139,0.01382964,0.03352954,0.02349756,0.3089257,9.844346,0.01486649,-0.01557343,0.3052066,9.852683
"0.55 sec",0.6621092,0.3364097,0.2864561,-7.065814,0.03482725,0.0557902,-7.016373,0.1014384,0.1686825,-0.07109947,0.2057916,-0.01782373,0.01410639,0.03169046,0.05938484,0.3043513,9.850405,0.01485263,-0.014473,0.3005407,9.859628
"0.56 sec",0.6621092,0.3364097,0.2864561,-7.065814,0.03584869,0.05748565,-7.017086,0.1028371,0.1704101,-0.07156895,0.2087994,-0.01712639,0.01434047,0.02554153,0.08069918,0.2993708,9.85715,0.01473656,-0.01360107,0.2954643,9.857807
"0.57 sec",0.6621092,0.3364097,0.2864561,-7.065814,0.03688371,0.05919843,-7.017804,0.1041514,0.1721449,-0.07202393,0.2117566,-0.01628972,0.01450124,0.01721537,0.08895657,0.2941664,9.853467,0.01452788,-0.01278642,0.2901342,9.851119
"0.58 sec",0.6621092,0.3364097,0.2864561,-7.065814,0.03793141,0.06092854,-7.018526,0.1053741,0.1738756,-0.07241276,0.2146607,-0.0154093,0.01457443,0.008002749,0.09042295,0.2888126,9.851755,0.0142989,-0.01209329,0.2846213,9.840188
"0.59 sec",0.6621092,0.3364097,0.2864561,-7.065814,0.03899089,0.06267589,-7.019252,0.1065055,0.1755922,-0.07269551,0.2175097,-0.01454211,0.0145629,-0.0001349247,0.08715051,0.2833518,9.842545,0.01405346,-0.01139248,0.2789677,9.829682
"0.6 sec",0.6926324,0.3389789,0.3124736,-7.074038,0.04006124,0.06444031,-7.019979,0.1075504,0.1772875,-0.07287478,0.2203023,-0.01371202,0.01448053,-0.006714133,0.08315551,0.2777659,9.832313,0.01143833,-0.01148401,0.2770846,10.21418
"0.61 sec",0.6926324,0.3389789,0.3124736,-7.074038,0.04114182,0.06622184,-7.020728,0.1085576,0.1790118,-0.07679925,0.2230741,-0.0130107,0.01406814,-0.05650979,0.06466901,0.2761768,10.2136,0.01316564,-0.01566206,0.2768861,9.903748
"0.62 sec",0.6926324,0.3389789,0.3124736,-7.074038,0.04223211,0.06802011,-7.021501,0.1095006,0.1806325,-0.07779824,0.2258431,-0.01297984,0.01362774,-0.02753259,-0.03237761,0.2773303,9.904503,0.01289863,-0.01227045,0.2758726,9.904631
"0.63 sec",0.6926324,0.3389789,0.3124736,-7.074038,0.04333191,0.06983441,-7.022284,0.110461,0.182226,-0.07872853,0.2286023,-0.01309873,0.01336898,-0.01748029,0.008790611,0.275756,9.898801,0.01322415,-0.01089746,0.2741784,9.888633
"0.64 sec",0.6926324,0.3389789,0.3124736,-7.074038,0.0444413,0.07166455,-7.023075,0.1114118,0.1837983,-0.07949971,0.231345,-0.01281377,0.01323463,-0.004091544,0.0466301,0.2735625,9.891268,0.01352926,-0.009583237,0.2717892,9.88447
"0.65 sec",0.6926324,0.3389789,0.3124736,-7.074038,0.04555999,0.07351033,-7.023873,0.1123153,0.1853555,-0.0802293,0.2340641,-0.01219757,0.01322704,0.00723991,0.07493252,0.2708016,9.886255,0.01377302,-0.008444306,0.2688102,9.879195
"0.66 sec",0.6926324,0.3389789,0.3124736,-7.074038,0.04668735,0.07537162,-7.024679,0.1131425,0.1869014,-0.08090697,0.2367537,-0.01136246,0.01331327,0.01446241,0.09141658,0.2675999,9.881207,0.01393075,-0.007458399,0.2653752,9.8689
"0.67 sec",0.6926324,0.3389789,0.3124736,-7.074038,0.04782252,0.07724832,-7.025491,0.1138759,0.188438,-0.08148364,0.2394092,-0.01041775,0.01344969,0.01728332,0.09809992,0.2640659,9.872011,0.01398382,-0.006547762,0.2615812,9.855727
"0.68 sec",0.6926324,0.3389789,0.3124736,-7.074038,0.04896453,0.07914035,-7.026308,0.1145084,0.1899656,-0.08193015,0.242027,-0.009439665,0.01359378,0.01613034,0.09899543,0.2602484,9.859869,0.01393802,-0.005685364,0.2574846,9.842245
"0.69 sec",0.6926324,0.3389789,0.3124736,-7.074038,0.05011236,0.08104759,-7.027129,0.1150398,0.1914823,-0.08224303,0.2446039,-0.008469957,0.01371096,0.01203287,0.09698918,0.2561701,9.846012,0.01381394,-0.00485864,0.253114,9.829991
"0.7 sec",0.719771,0.3431003,0.3388112,-7.084272,0.051265,0.08296994,-7.027952,0.1154731,0.1929845,-0.08243375,0.2471373,-0.007527911,0.01377875,0.006283987,0.09377844,0.2518387,9.833312,0.009831145,-0.003512097,0.2523742,10.30292
"0.71 sec",0.719771,0.3431003,0.3388112,-7.084272,0.0524216,0.08490752,-7.0288,0.1158312,0.1945218,-0.08723048,0.2496614,-0.006556085,0.01334432,-0.07215236,0.1006849,0.2510439,10.30251,0.01180637,-0.007375218,0.25401,9.905149
"0.72 sec",0.719771,0.3431003,0.3388112,-7.084272,0.05358133,0.08685983,-7.029678,0.1161116,0.195927,-0.08827336,0.2522007,-0.006107824,0.01275386,-0.04476415,0.01039176,0.2538931,9.905676,0.0108488,-0.003936708,0.2533496,9.961987
"0.73 sec",0.719771,0.3431003,0.3388112,-7.084272,0.05474379,0.08882593,-7.030568,0.1163766,0.1972832,-0.08976939,0.2547345,-0.005814667,0.01227378,-0.04542432,0.04606541,0.2527979,9.96127,0.01120283,-0.003577514,0.252369,9.897386
"0.74 sec",0.719771,0.3431003,0.3388112,-7.084272,0.05590875,0.09080528,-7.03147,0.1166077,0.1985785,-0.09065065,0.2572587,-0.005314076,0.01188779,-0.02982739,0.05551854,0.2517223,9.898281,0.01138004,-0.001942832,0.2506298,9.876004
"0.75 sec",0.719771,0.3431003,0.3388112,-7.084272,0.05707578,0.09279734,-7.03238,0.1167872,0.1998273,-0.09130699,0.2597659,-0.004628192,0.0116553,-0.01562921,0.07917574,0.2497206,9.881241,0.01159806,-0.0008347341,0.2482743,9.865497
"0.76 sec",0.719771,0.3431003,0.3388112,-7.084272,0.05824425,0.0948017,-7.033296,0.1168928,0.2010396,-0.09185765,0.2622498,-0.003760798,0.01155567,-0.003934563,0.09264111,0.2472183,9.86875,0.01181009,7.011381e-05,0.2454172,9.85053
"0.77 sec",0.719771,0.3431003,0.3388112,-7.084272,0.05941334,0.09681803,-7.034217,0.1169094,0.2022224,-0.09225951,0.2647054,-0.002813697,0.01155892,0.004520155,0.09644917,0.2443178,9.854414,0.01197993,0.0008567849,0.2421408,9.832797
"0.78 sec",0.719771,0.3431003,0.3388112,-7.084272,0.06058212,0.09884607,-7.035141,0.1168315,0.2033824,-0.09248485,0.2671285,-0.001863907,0.01163011,0.009464288,0.09426644,0.2410608,9.837819,0.01208459,0.001155044,0.2385015,9.815538
"0.79 sec",0.719771,0.3431003,0.3388112,-7.084272,0.06174966,0.1008856,-7.036066,0.1166621,0.2045249,-0.0925378,0.2695154,-0.001002083,0.01173405,0.01107758,0.08137106,0.2375633,9.82079,0.01218621,0.001090534,0.2345985,9.790286
"0.8 sec",0.6400921,0.373797,0.3344463,-7.096574,0.0629151,0.1029365,-7.03699,0.1164142,0.2056541,-0.09233925,0.2718634,-0.0003200045,0.01184776,0.01126759,0.06076756,0.2338954,9.799669,0.01039165,-0.02017141,0.228039,10.0969
"0.81 sec",0.6400921,0.373797,0.3344463,-7.096574,0.06407794,0.1049989,-7.037927,0.1161868,0.2068292,-0.09512518,0.2741472,-0.002308036,0.01173951,-0.02483343,-0.3607632,0.232294,10.09599,0.01527897,-0.02440871,0.2292283,9.233187
"0.82 sec",0.6400921,0.373797,0.3344463,-7.096574,0.06523998,0.1070729,-7.038852,0.1162899,0.2079935,-0.08957025,0.2764388,-0.006910007,0.0120067,0.06229302,-0.5014437,0.2352456,9.235398,0.01608039,-0.02292378,0.2421584,9.045443
"0.83 sec",0.6400921,0.373797,0.3344463,-7.096574,0.06640508,0.1091592,-7.03971,0.1167936,0.2093028,-0.08196118,0.2788536,-0.01158919,0.01281591,0.09366211,-0.4183034,0.2475041,9.050278,0.01897385,-0.01887373,0.2632949,9.017531
"0.84 sec",0.6400921,0.373797,0.3344463,-7.096574,0.06757693,0.1112596,-7.04049,0.1176159,0.2107958,-0.07402853,0.2814755,-0.01479026,0.01403694,0.141518,-0.232783,0.2665432,9.018308,0.02011311,-0.01374417,0.2784451,9.337882
"0.85 sec",0.6400921,0.373797,0.3344463,-7.096574,0.06875808,0.113376,-7.041205,0.1186248,0.2125238,-0.06920411,0.2842521,-0.01598957,0.01551112,0.1516829,-0.03102981,0.2789213,9.337205,0.01673339,-0.01134111,0.2766482,9.981261
"0.86 sec",0.6400921,0.373797,0.3344463,-7.096574,0.06994972,0.1155111,-7.041904,0.1196947,0.2145067,-0.07072635,0.2870195,-0.01564656,0.01647522,0.06184214,0.08446513,0.2752624,9.980257,0.01556173,-0.01869359,0.2693309,10.0736
"0.87 sec",0.6400921,0.373797,0.3344463,-7.096574,0.07115179,0.1176664,-7.042624,0.120715,0.2165566,-0.07331254,0.2897165,-0.01555569,0.01669001,0.0002088833,-0.03480258,0.2699168,10.07314,0.01571097,-0.0192649,0.2644147,9.819497
"0.88 sec",0.6400921,0.373797,0.3344463,-7.096574,0.072364,0.119842,-7.043358,0.1217375,0.2185691,-0.07344631,0.2923632,-0.01620684,0.01655324,-0.01533436,-0.07516403,0.2656615,9.820642,0.01428955,-0.01711761,0.2600718,9.838357
"0.89 sec",0.6400921,0.373797,0.3344463,-7.096574,0.07358677,0.1220378,-7.044094,0.122826,0.2205827,-0.07369968,0.2949662,-0.01675651,0.01617961,-0.04326307,-0.03152043,0.2605803,9.834565,0.0136366,-0.01594904,0.2551531,9.829101
"0.9 sec",0.665428,0.3804819,0.3641485,-7.097899,0.07482065,0.1242535,-7.044832,0.1239528,0.2225614,-0.07386535,0.2975203,-0.0168614,0.0156176,-0.05506856,0.01109078,0.2549746,9.830467,0.01083935,-0.01852144,0.2527366,10.03614
"0.91 sec",0.665428,0.3804819,0.3641485,-7.097899,0.07606599,0.126489,-7.045581,0.1251243,0.2245186,-0.07604923,0.3000489,-0.01701433,0.01472978,-0.1002677,-0.02601345,0.2531122,10.03173,0.0114167,-0.0199529,0.2510855,9.842885
"0.92 sec",0.665428,0.3804819,0.3641485,-7.097899,0.07732321,0.1287435,-7.046344,0.1263296,0.2263606,-0.07640097,0.3025606,-0.01752162,0.01376006,-0.08290309,-0.05912293,0.2518873,9.846478,0.01157611,-0.01787899,0.2495093,9.821227
"0.93 sec",0.665428,0.3804819,0.3641485,-7.097899,0.07859281,0.131016,-7.047108,0.1276002,0.2281349,-0.07649381,0.3050565,-0.0179118,0.01301819,-0.05734908,-0.01798831,0.2497254,9.827662,0.01210516,-0.01619865,0.2471204,9.822515
"0.94 sec",0.665428,0.3804819,0.3641485,-7.097899,0.07987531,0.133306,-7.047873,0.1288993,0.229861,-0.07659617,0.3075289,-0.0178304,0.01256692,-0.02728598,0.03075443,0.2467136,9.823843,0.01264088,-0.01464043,0.2437337,9.838607
"0.95 sec",0.665428,0.3804819,0.3641485,-7.097899,0.08117073,0.1356131,-7.048641,0.1301762,0.2315551,-0.07685639,0.309968,-0.01730446,0.01239908,-0.001669119,0.07004029,0.2428471,9.835418,0.01309325,-0.01341237,0.2395229,9.848575
"0.96 sec",0.665428,0.3804819,0.3641485,-7.097899,0.08247862,0.137937,-7.049411,0.1313871,0.2332282,-0.07721779,0.3123654,-0.01647724,0.01244773,0.01587342,0.09245688,0.2383583,9.845877,0.01340385,-0.01240603,0.2347871,9.847311
"0.97 sec",0.665428,0.3804819,0.3641485,-7.097899,0.08379816,0.1402776,-7.050185,0.1325049,0.2348876,-0.0775703,0.3147157,-0.01550394,0.0126264,0.02469781,0.1010465,0.2335025,9.846864,0.01353724,-0.01147413,0.2297421,9.839297
"0.98 sec",0.665428,0.3804819,0.3641485,-7.097899,0.08512837,0.1426347,-7.050962,0.1335179,0.2365372,-0.07784563,0.3170157,-0.01448748,0.01285077,0.02565092,0.102245,0.2284239,9.841393,0.01349846,-0.01057267,0.2244966,9.82923
"0.99 sec",0.665428,0.3804819,0.3641485,-7.097899,0.08646816,0.1450083,-7.051742,0.1344247,0.2381765,-0.0780224,0.3192634,-0.01347763,0.01305154,0.0206409,0.1003247,0.2231866,9.832313,0.01332221,-0.009690095,0.2190935,9.819712
"1 sec",0.6892315,0.3874749,0.3943301,-7.107513,0.08781651,0.1473982,-7.052522,0.1352287,0.239801,-0.07810521,0.3214571,-0.01249315,0.0131821,0.01209233,0.09743448,0.2178113,9.822798,0.008909918,-0.01178964,0.2167848,10.28382
"1.01 sec",0.6892315,0.3874749,0.3943301,-7.107513,0.08917262,0.1498046,-7.053326,0.135987,0.2414657,-0.08270907,0.3236261,-0.01188334,0.01273732,-0.0763092,0.03816691,0.2162994,10.2834,0.01071512,-0.01724098,0.2174947,9.86466
"1.02 sec",0.6892315,0.3874749,0.3943301,-7.107513,0.09053611,0.152227,-7.054157,0.136719,0.2430023,-0.08334826,0.3258007,-0.01230912,0.01206144,-0.05413325,-0.09079723,0.2185921,9.865057,0.01041481,-0.01282016,0.2171534,9.858422
"1.03 sec",0.6892315,0.3874749,0.3943301,-7.107513,0.09190729,0.1546646,-7.054992,0.1375266,0.2445041,-0.08381894,0.3279724,-0.01288958,0.01155218,-0.04174033,-0.02885597,0.2174841,9.860318,0.01056768,-0.01098764,0.2158443,9.856088
"1.04 sec",0.6892315,0.3874749,0.3943301,-7.107513,0.09328676,0.157117,-7.055833,0.1383695,0.2459747,-0.08426604,0.3301315,-0.01284285,0.01118897,-0.02626502,0.03127879,0.2154895,9.857186,0.01068482,-0.009291098,0.2135318,9.868402
"1.05 sec",0.6892315,0.3874749,0.3943301,-7.107513,0.09467459,0.1595839,-7.056678,0.1391893,0.2474116,-0.08483393,0.332268,-0.012268,0.01096861,-0.01363083,0.07651921,0.2126885,9.865975,0.01080527,-0.007973365,0.2104393,9.872561
"1.06 sec",0.6892315,0.3874749,0.3943301,-7.107513,0.09607032,0.1620651,-7.05753,0.1399406,0.2488111,-0.08544548,0.334374,-0.01135385,0.01085955,-0.004380343,0.101091,0.2093398,9.870957,0.01093573,-0.006886073,0.2068098,9.864449
"1.07 sec",0.6892315,0.3874749,0.3943301,-7.107513,0.09747309,0.16456,-7.058387,0.1405969,0.2501723,-0.08597957,0.336444,-0.01028216,0.0108314,0.002123867,0.1100505,0.2056188,9.866325,0.0110548,-0.005885653,0.2027906,9.849932
"1.08 sec",0.6892315,0.3874749,0.3943301,-7.107513,0.0988819,0.1670684,-7.059248,0.1411472,0.2514971,-0.08637173,0.3384739,-0.009168554,0.01085817,0.006227006,0.1107466,0.2015916,9.853448,0.0111342,-0.004912835,0.1984509,9.834931
"1.09 sec",0.6892315,0.3874749,0.3943301,-7.107513,0.1002957,0.1695899,-7.060113,0.1415897,0.2527886,-0.08661528,0.3404607,-0.008067271,0.01091544,0.007979682,0.1082053,0.1972754,9.838922,0.0111714,-0.003992036,0.1938376,9.821322
"1.1 sec",0.7101429,0.395891,0.4250513,-7.118268,0.1017133,0.1721241,-7.06098,0.1419265,0.2540495,-0.08672339,0.3424014,-0.007000993,0.01098156,0.007815382,0.1041575,0.192701,9.825044,0.006208021,-0.005528768,0.1923109,10.346
"1.11 sec",0.7101429,0.395891,0.4250513,-7.118268,0.103134,0.174671,-7.061873,0.1421918,0.2553294,-0.09194162,0.3443253,-0.006259908,0.01046225,-0.08786772,0.05375599,0.1917528,10.34555,0.008546413,-0.0107767,0.1943231,9.835466
"1.12 sec",0.7101429,0.395891,0.4250513,-7.118268,0.1045571,0.1772301,-7.062795,0.1424375,0.2564723,-0.09232001,0.3462675,-0.006496619,0.009742057,-0.05586811,-0.07176935,0.1950296,9.835915,0.007808546,-0.006980713,0.193836,9.875237
"1.13 sec",0.7101429,0.395891,0.4250513,-7.118268,0.105983,0.1798004,-7.063721,0.142748,0.2575785,-0.09295575,0.3482061,-0.006963699,0.009197745,-0.04869438,-0.02447824,0.1940654,9.874681,0.00812935,-0.00618276,0.1928515,9.837354
"1.14 sec",0.7101429,0.395891,0.4250513,-7.118268,0.1074122,0.1823815,-7.064652,0.1430946,0.258645,-0.09323233,0.3501351,-0.007019026,0.008794006,-0.03057181,0.0104604,0.1927621,9.837851,0.008385999,-0.004522878,0.1910949,9.828025
"1.15 sec",0.7101429,0.395891,0.4250513,-7.118268,0.1088448,0.1849732,-7.065586,0.1434368,0.2596775,-0.09340859,0.352047,-0.006679278,0.00856853,-0.01385321,0.05109593,0.1906594,9.829903,0.008605699,-0.003146494,0.1886302,9.83339
"1.16 sec",0.7101429,0.395891,0.4250513,-7.118268,0.1102808,0.187575,-7.066521,0.1437339,0.2606796,-0.09363626,0.3539346,-0.005991823,0.008488853,-0.001605943,0.08019059,0.1879527,9.832508,0.00880846,-0.002032111,0.1856322,9.832083
"1.17 sec",0.7101429,0.395891,0.4250513,-7.118268,0.1117193,0.1901866,-7.067458,0.1439558,0.2616524,-0.09385155,0.3557924,-0.005092158,0.008511364,0.006473054,0.09503887,0.1848278,9.83433,0.009002248,-0.001087017,0.1822468,9.822246
"1.18 sec",0.7101429,0.395891,0.4250513,-7.118268,0.1131596,0.1928079,-7.068397,0.144086,0.2625972,-0.09397181,0.3576166,-0.004104268,0.008599988,0.01145567,0.09933966,0.1813981,9.824821,0.009152447,-0.0001790471,0.1785266,9.809867
"1.19 sec",0.7101429,0.395891,0.4250513,-7.118268,0.1146007,0.1954385,-7.069337,0.1441188,0.2635168,-0.0939692,0.3594038,-0.003101637,0.008724689,0.01363389,0.09881207,0.177671,9.812947,0.009263487,0.0006681585,0.1745203,9.797949
"1.2 sec",0.7288492,0.4052055,0.4562573,-7.129625,0.1160416,0.1980782,-7.070276,0.1440542,0.2644131,-0.09384762,0.3611511,-0.002120001,0.008861013,0.01373781,0.09572844,0.1736791,9.801025,0.003997101,-1.243584e-05,0.1736616,10.35759
"1.21 sec",0.7288492,0.4052055,0.4562573,-7.129625,0.1174814,0.2007269,-7.07124,0.1439006,0.265317,-0.09917686,0.3628881,-0.00134878,0.008369692,-0.08894947,0.06342953,0.1731338,10.35707,0.006593477,-0.003238916,0.1764,9.815348
"1.22 sec",0.7288492,0.4052055,0.4562573,-7.129625,0.1189196,0.203384,-7.072234,0.1437331,0.2660935,-0.0993659,0.3646507,-0.001222579,0.007665324,-0.0542456,-0.02006435,0.1765594,9.815847,0.005038037,-0.0001531774,0.1757114,9.916719
"1.23 sec",0.7288492,0.4052055,0.4562573,-7.129625,0.1203562,0.2060486,-7.073233,0.1435878,0.2668198,-0.1004046,0.3664081,-0.001217199,0.007055444,-0.06233472,0.01662775,0.1755979,9.916128,0.005381424,-3.980016e-05,0.1750257,9.842305
"1.24 sec",0.7288492,0.4052055,0.4562573,-7.129625,0.1217914,0.2087202,-7.074238,0.1434508,0.2674812,-0.1007442,0.3681588,-0.0009938813,0.006511594,-0.0461345,0.02712645,0.1748521,9.842716,0.005599634,0.001579645,0.1734842,9.813907
"1.25 sec",0.7288492,0.4052055,0.4562573,-7.129625,0.1232252,0.2113981,-7.075246,0.1433001,0.2680873,-0.1007864,0.3698944,-0.0005489482,0.006147226,-0.02794306,0.05601064,0.1731423,9.822714,0.005907791,0.002733477,0.1712696,9.813323
"1.26 sec",0.7288492,0.4052055,0.4562573,-7.129625,0.1246572,0.2140818,-7.076254,0.1431055,0.2686477,-0.1008197,0.3716082,0.0001400188,0.005963273,-0.01102177,0.07614207,0.1708181,9.815424,0.006291023,0.003632606,0.1685454,9.807963
"1.27 sec",0.7288492,0.4052055,0.4562573,-7.129625,0.126087,0.2167709,-7.077262,0.1428436,0.2691709,-0.1007989,0.3732951,0.0009659543,0.00594054,0.003582478,0.08478872,0.1680447,9.810017,0.006713473,0.004359226,0.1654382,9.795736
"1.28 sec",0.7288492,0.4052055,0.4562573,-7.129625,0.1275138,0.2194651,-7.078269,0.1425018,0.2696667,-0.1006573,0.374951,0.001828609,0.006051938,0.01532542,0.08490565,0.1649278,9.799001,0.007114985,0.005000038,0.1620111,9.781384
"1.29 sec",0.7288492,0.4052055,0.4562573,-7.129625,0.1289368,0.2221642,-7.079275,0.1420762,0.2701456,-0.1003725,0.3765729,0.002666026,0.006263406,0.02346354,0.08072521,0.1615091,9.78518,0.007459498,0.0052465,0.1583155,9.768286
"1.3 sec",0.7458294,0.414827,0.4876735,-7.141949,0.1303551,0.224868,-7.080276,0.141569,0.2706167,-0.09995636,0.378158,0.00341119,0.006536447,0.02779345,0.06854378,0.1578709,9.771819,0.002285559,0.007369216,0.1578794,10.35305
"1.31 sec",0.7458294,0.414827,0.4876735,-7.141949,0.1317678,0.2275766,-7.081302,0.1409562,0.2710906,-0.105235,0.379737,0.004248938,0.006199978,-0.07472938,0.09187356,0.1573081,10.35246,0.004936919,0.006398724,0.1608274,9.843832
"1.32 sec",0.7458294,0.414827,0.4876735,-7.141949,0.1331742,0.2302894,-7.082357,0.1403148,0.2714596,-0.1057009,0.3813437,0.005006837,0.005640066,-0.04194381,0.06290983,0.1604718,9.844268,0.002481865,0.007888787,0.1601609,9.99557
"1.33 sec",0.7458294,0.414827,0.4876735,-7.141949,0.1345739,0.2330055,-7.083423,0.1396196,0.2717579,-0.1075154,0.3829457,0.005688745,0.005043099,-0.07038694,0.07000548,0.1598049,9.993423,0.003045694,0.006314455,0.1600693,9.834414
"1.34 sec",0.7458294,0.414827,0.4876735,-7.141949,0.1359665,0.2357242,-7.0845,0.1389028,0.2719692,-0.1077969,0.3845464,0.006148106,0.004423089,-0.05503011,0.0287322,0.1599399,9.836671,0.003215753,0.007784455,0.1587987,9.769536
"1.35 sec",0.7458294,0.414827,0.4876735,-7.141949,0.1373519,0.2384447,-7.085576,0.1381773,0.2721164,-0.1074065,0.386135,0.006495296,0.003981086,-0.03649225,0.0382583,0.1586436,9.770514,0.003479507,0.008264973,0.1566857,9.767989
"1.36 sec",0.7458294,0.414827,0.4876735,-7.141949,0.13873,0.2411664,-7.086648,0.1374298,0.2722167,-0.1069839,0.3877029,0.006911489,0.003725017,-0.01881556,0.04295742,0.1565226,9.768647,0.004084754,0.008182249,0.1541882,9.755614
"1.37 sec",0.7458294,0.414827,0.4876735,-7.141949,0.1401004,0.2438889,-7.087715,0.1366518,0.2722862,-0.1064396,0.3892461,0.007295971,0.003668165,0.001615653,0.03455137,0.1540585,9.758226,0.004841315,0.008462114,0.1513668,9.733784
"1.38 sec",0.7458294,0.414827,0.4876735,-7.141949,0.1414629,0.2466121,-7.088776,0.135842,0.2723456,-0.1056787,0.3907612,0.007621353,0.003820243,0.02178818,0.03060955,0.1512469,9.739957,0.005516202,0.008980123,0.1482017,9.727668
"1.39 sec",0.7458294,0.414827,0.4876735,-7.141949,0.1428171,0.2493359,-7.089828,0.1349948,0.2724138,-0.1048542,0.3922449,0.007947009,0.004145923,0.03638879,0.03337058,0.1480606,9.730212,0.006041877,0.009486085,0.1447798,9.731639
"1.4 sec",0.6565392,0.4506374,0.4882221,-7.154868,0.1441627,0.2520604,-7.090873,0.1341021,0.2725026,-0.1040662,0.3936944,0.008308814,0.004576514,0.04356412,0.03746891,0.1446057,9.731277,0.004651214,-0.0126653,0.138145,10.11992
"1.41 sec",0.6565392,0.4506374,0.4882221,-7.154868,0.1454991,0.2547861,-7.091928,0.1332147,0.2726516,-0.1070618,0.3950793,0.006071633,0.004834221,0.01077977,-0.3890741,0.1400223,10.11939,0.01210478,-0.01822386,0.1402346,9.088189
"1.42 sec",0.6565392,0.4506374,0.4882221,-7.154868,0.1468284,0.257514,-7.092965,0.1327209,0.2729573,-0.1001057,0.3964803,0.001067186,0.005743401,0.14021,-0.5512424,0.143364,9.089767,0.01261013,-0.01747176,0.1474969,8.863918
"1.43 sec",0.6565392,0.4506374,0.4882221,-7.154868,0.1481549,0.2602462,-7.093919,0.1326292,0.2735456,-0.09069984,0.3979511,-0.00417307,0.007323592,0.163222,-0.4794374,0.1509704,8.867229,0.01501848,-0.014294,0.1643879,8.79183
"1.44 sec",0.6565392,0.4506374,0.4882221,-7.154868,0.1494821,0.2629858,-7.094776,0.1328553,0.2744241,-0.08053263,0.399586,-0.008034123,0.009124781,0.1849161,-0.3025693,0.1671212,8.792242,0.01601584,-0.009636832,0.1789251,9.104734
"1.45 sec",0.6565392,0.4506374,0.4882221,-7.154868,0.1508126,0.2657357,-7.095545,0.133265,0.2755901,-0.07339162,0.4013676,-0.009918733,0.01095046,0.1751546,-0.09934942,0.1800054,9.103972,0.01254485,-0.00731785,0.1778472,9.986235
"1.46 sec",0.6565392,0.4506374,0.4882221,-7.154868,0.1521477,0.2684988,-7.096285,0.1337429,0.2770509,-0.07491657,0.4031466,-0.01018201,0.01210338,0.07238627,0.02788093,0.1775144,9.983517,0.01136166,-0.01501753,0.1723465,10.31443
"1.47 sec",0.6565392,0.4506374,0.4882221,-7.154868,0.1534874,0.2712772,-7.097059,0.1342201,0.278635,-0.07986291,0.4048729,-0.01060175,0.01241067,0.00409917,-0.08371863,0.173389,10.31374,0.01411909,-0.0180432,0.1722842,9.803081
"1.48 sec",0.6565392,0.4506374,0.4882221,-7.154868,0.1548322,0.2740713,-7.097858,0.1347474,0.280196,-0.0799107,0.4065957,-0.01194755,0.01262156,0.03489158,-0.1591088,0.1742915,9.803555,0.01255072,-0.01395481,0.1700986,9.905784
"1.49 sec",0.6565392,0.4506374,0.4882221,-7.154868,0.1561828,0.2768815,-7.098662,0.135392,0.2818473,-0.0808266,0.4082978,-0.01308149,0.0127958,0.008415181,-0.07344961,0.1710377,9.905162,0.01217676,-0.01314784,0.1671827,9.871206
"1.5 sec",0.6731791,0.4611222,0.5217973,-7.154477,0.1575402,0.2797083,-7.099473,0.1360981,0.2835297,-0.08142739,0.4099711,-0.01351125,0.01275797,-0.008091514,-0.01670516,0.1673943,9.883364,0.00724062,-0.017487,0.1653773,10.06933
"1.51 sec",0.6731791,0.4611222,0.5217973,-7.154477,0.158905,0.2825522,-7.1003,0.1368644,0.2852342,-0.08395658,0.4116259,-0.01407903,0.01205744,-0.1049084,-0.07780338,0.1663154,10.06574,0.007399102,-0.01802382,0.1655831,9.811433
"1.52 sec",0.6731791,0.4611222,0.5217973,-7.154477,0.1602778,0.2854126,-7.10114,0.1377181,0.2868392,-0.08401895,0.4132816,-0.01498308,0.01091606,-0.1109967,-0.09154483,0.1665793,9.812687,0.006630691,-0.01587573,0.164875,9.806166
"1.53 sec",0.6731791,0.4611222,0.5217973,-7.154477,0.1616597,0.2882887,-7.10198,0.138687,0.2883732,-0.08396501,0.4149308,-0.01560734,0.009783397,-0.1052397,-0.0369387,0.1652266,9.807988,0.006641372,-0.01414472,0.1631604,9.807607
"1.54 sec",0.6731791,0.4611222,0.5217973,-7.154477,0.1630518,0.2911798,-7.102819,0.1397258,0.2898267,-0.083924,0.4165633,-0.0156516,0.008815819,-0.08217671,0.02033389,0.1629667,9.811096,0.006960989,-0.01253822,0.1603343,9.824558
"1.55 sec",0.6731791,0.4611222,0.5217973,-7.154477,0.1644543,0.294085,-7.103659,0.1407772,0.2912006,-0.08405162,0.4181681,-0.0151832,0.008127236,-0.05244134,0.06487417,0.159792,9.821698,0.007487367,-0.01123434,0.1566297,9.835521
"1.56 sec",0.6731791,0.4611222,0.5217973,-7.154477,0.1658672,0.2970036,-7.104501,0.14179,0.2925035,-0.08429016,0.4197363,-0.01436838,0.007746925,-0.02258508,0.09100843,0.1559119,9.832698,0.008118184,-0.01019572,0.1523724,9.834233
"1.57 sec",0.6731791,0.4611222,0.5217973,-7.154477,0.1672898,0.2999349,-7.105345,0.142728,0.29375,-0.08451983,0.4212621,-0.01338131,0.00765208,0.003399485,0.1012831,0.1515881,9.833805,0.008730859,-0.009265268,0.1478054,9.824601
"1.58 sec",0.6731791,0.4611222,0.5217973,-7.154477,0.1687214,0.3028785,-7.106191,0.1435709,0.294958,-0.08465666,0.4227425,-0.01234336,0.007785822,0.02271171,0.1025743,0.147001,9.8265,0.009221721,-0.00837721,0.1430726,9.812455
"1.59 sec",0.6731791,0.4611222,0.5217973,-7.154477,0.1701609,0.305834,-7.107038,0.1443096,0.2961433,-0.08467413,0.4241757,-0.01131565,0.008070095,0.03382381,0.1000245,0.1422624,9.815307,0.009535105,-0.007526499,0.1382576,9.800881
"1.6 sec",0.6882339,0.471329,0.5552839,-7.164521,0.1716072,0.3088013,-7.107884,0.1449423,0.2973163,-0.08457682,0.4255608,-0.01032283,0.008420879,0.03681065,0.09607549,0.1374478,9.803819,0.004269128,-0.01147506,0.1353726,10.30362
"1.61 sec",0.6882339,0.471329,0.5552839,-7.164521,0.1730596,0.3117805,-7.108753,0.1455278,0.2985275,-0.08937619,0.426916,-0.009927287,0.008135098,-0.06924684,0.001318951,0.1353596,10.3032,0.006587805,-0.01751962,0.1373642,9.812161
"1.62 sec",0.6882339,0.471329,0.5552839,-7.164521,0.1745178,0.3147714,-7.109648,0.1461252,0.2996449,-0.08951543,0.4282886,-0.01080991,0.007560671,-0.04438977,-0.143039,0.1384451,9.812588,0.006506655,-0.01290538,0.1376676,9.785417
"1.63 sec",0.6882339,0.471329,0.5552839,-7.164521,0.1759825,0.3177734,-7.110542,0.1468395,0.3007635,-0.08926556,0.4296652,-0.01185775,0.0071814,-0.02912339,-0.0722727,0.1381818,9.793193,0.006613808,-0.01078613,0.136867,9.796995
"1.64 sec",0.6882339,0.471329,0.5552839,-7.164521,0.1774548,0.3207867,-7.111434,0.1476252,0.3018843,-0.08912522,0.4310343,-0.01214167,0.006943499,-0.01628259,0.004283058,0.1368304,9.795983,0.006532835,-0.008912802,0.1348842,9.827849
"1.65 sec",0.6882339,0.471329,0.5552839,-7.164521,0.1789351,0.3238111,-7.112326,0.1484133,0.3029901,-0.08928872,0.4323841,-0.011747,0.006795692,-0.01035139,0.06301509,0.1344493,9.817862,0.006420953,-0.007530113,0.1320718,9.845362
"1.66 sec",0.6882339,0.471329,0.5552839,-7.164521,0.1804229,0.3268464,-7.113221,0.1491495,0.3040614,-0.08962864,0.4337063,-0.01090936,0.00668581,-0.008386049,0.09540345,0.1314285,9.837784,0.006406787,-0.00649942,0.1287909,9.842753
"1.67 sec",0.6882339,0.471329,0.5552839,-7.164521,0.1819178,0.3298922,-7.114119,0.1498028,0.3050849,-0.08994774,0.4349959,-0.009868323,0.006598936,-0.00623662,0.1065726,0.1280837,9.84145,0.006518766,-0.005577902,0.1252226,9.828683
"1.68 sec",0.6882339,0.471329,0.5552839,-7.164521,0.1834187,0.3329479,-7.115019,0.150361,0.306057,-0.09013067,0.4362499,-0.008778707,0.006548175,-0.002092486,0.1068748,0.1245204,9.831679,0.006726671,-0.004672755,0.1214255,9.812779
"1.69 sec",0.6882339,0.471329,0.5552839,-7.164521,0.1849246,0.3360131,-7.11592,0.150822,0.3069811,-0.09015679,0.4374661,-0.007708742,0.006551599,0.003655688,0.1034209,0.120747,9.816979,0.006992399,-0.003801619,0.1174312,9.798984
"1.7 sec",0.7011827,0.4827651,0.5892827,-7.175004,0.1864348,0.3390874,-7.116821,0.1511865,0.3078638,-0.09004559,0.4386425,-0.006681094,0.006618523,0.009854396,0.09882542,0.1167775,9.802841,0.001613481,-0.008253395,0.1152977,10.33352
"1.71 sec",0.7011827,0.4827651,0.5892827,-7.175004,0.1879482,0.3421705,-7.117747,0.1515031,0.3087463,-0.09514055,0.4397965,-0.006316883,0.006086497,-0.09218987,-0.006317035,0.1153362,10.33305,0.004476189,-0.01483834,0.1183531,9.768158
"1.72 sec",0.7011827,0.4827651,0.5892827,-7.175004,0.1894649,0.3452619,-7.118697,0.1518586,0.3095303,-0.09486302,0.4409785,-0.007348064,0.005380131,-0.0513924,-0.162767,0.1192318,9.768726,0.004497528,-0.009646102,0.1188892,9.75046
"1.73 sec",0.7011827,0.4827651,0.5892827,-7.175004,0.1909859,0.3483611,-7.119643,0.1523492,0.3103191,-0.09426688,0.4421672,-0.008527346,0.004985191,-0.02796973,-0.08101249,0.1192916,9.754336,0.004752366,-0.007490976,0.1182432,9.782122
"1.74 sec",0.7011827,0.4827651,0.5892827,-7.175004,0.1925122,0.3514683,-7.120584,0.1529192,0.3111173,-0.09397805,0.44335,-0.008861959,0.004796165,-0.01012823,0.001284786,0.1182337,9.77432,0.004844235,-0.005700474,0.1165245,9.822275
"1.75 sec",0.7011827,0.4827651,0.5892827,-7.175004,0.1940443,0.3545834,-7.121524,0.1534922,0.3119074,-0.09408382,0.4445161,-0.008489773,0.004739516,-0.0006679642,0.0607563,0.1162335,9.821615,0.004958939,-0.004520677,0.1142067,9.838288
"1.76 sec",0.7011827,0.4827651,0.5892827,-7.175004,0.1955819,0.3577064,-7.122467,0.1540118,0.3126723,-0.09435895,0.4456593,-0.007691618,0.004756118,0.004712687,0.08990935,0.1137771,9.834852,0.005085228,-0.003478894,0.1114873,9.831882
"1.77 sec",0.7011827,0.4827651,0.5892827,-7.175004,0.1971242,0.3608368,-7.123411,0.1544479,0.3134023,-0.09457465,0.4467756,-0.006702377,0.004816212,0.007950568,0.1013071,0.1109985,9.832642,0.005250773,-0.002517562,0.1084754,9.817947
"1.78 sec",0.7011827,0.4827651,0.5892827,-7.175004,0.1986705,0.3639743,-7.124358,0.1547885,0.3140948,-0.09465408,0.4478619,-0.005652759,0.004907404,0.01060365,0.1034222,0.1079679,9.820957,0.005449565,-0.001601506,0.1052175,9.803391
"1.79 sec",0.7011827,0.4827651,0.5892827,-7.175004,0.2002197,0.3671185,-7.125304,0.1550305,0.3147514,-0.09458903,0.4489157,-0.004606874,0.005026666,0.01316408,0.1013739,0.1047088,9.807108,0.005680611,-0.0007491363,0.1017556,9.790427
"1.8 sec",0.7123778,0.4951323,0.6236372,-7.185732,0.2017708,0.3702692,-7.126249,0.1551749,0.3153752,-0.09439458,0.4499351,-0.003594944,0.005173928,0.01578897,0.09721989,0.1012541,9.793924,4.228766e-05,-0.004064962,0.1001794,10.34539
"1.81 sec",0.7123778,0.4951323,0.6236372,-7.185732,0.2033229,0.3734261,-7.127218,0.1552551,0.3159886,-0.09960537,0.4509377,-0.003109968,0.004662619,-0.09352753,0.01405845,0.1001137,10.34488,0.002845054,-0.01008305,0.1035567,9.770801
"1.82 sec",0.7123778,0.4951323,0.6236372,-7.185732,0.204876,0.3765886,-7.128213,0.155369,0.3165076,-0.09935898,0.4519716,-0.00384586,0.00392712,-0.05598562,-0.1288073,0.1040664,9.771388,0.002360368,-0.005971071,0.1037348,9.773458
"1.83 sec",0.7123778,0.4951323,0.6236372,-7.185732,0.2064307,0.3797562,-7.129205,0.1555972,0.317017,-0.09899156,0.4530088,-0.00481421,0.003429664,-0.04241406,-0.07001516,0.103976,9.772954,0.002671116,-0.004832759,0.1031843,9.775519
"1.84 sec",0.7123778,0.4951323,0.6236372,-7.185732,0.2079882,0.3829289,-7.130193,0.1559022,0.3175192,-0.09864464,0.454041,-0.005208936,0.003101699,-0.02386373,-0.01637585,0.1032344,9.774307,0.003058696,-0.003333098,0.10191,9.786681
"1.85 sec",0.7123778,0.4951323,0.6236372,-7.185732,0.2095488,0.3861066,-7.131179,0.1562286,0.3180072,-0.09840725,0.4550607,-0.005083606,0.002960548,-0.005961718,0.03204776,0.1018141,9.783802,0.003427682,-0.002012615,0.1000092,9.801395
"1.86 sec",0.7123778,0.4951323,0.6236372,-7.185732,0.2111127,0.389289,-7.132162,0.1565274,0.3184765,-0.09831607,0.4560618,-0.004548838,0.002978956,0.007850872,0.06599323,0.09981225,9.797629,0.003795343,-0.000931235,0.09768312,9.80578
"1.87 sec",0.7123778,0.4951323,0.6236372,-7.185732,0.2126792,0.392476,-7.133145,0.1567629,0.3189242,-0.09827094,0.4570398,-0.003761013,0.003115551,0.01763368,0.08426653,0.09742109,9.803983,0.004154822,4.38784e-06,0.09506802,9.79997
"1.88 sec",0.7123778,0.4951323,0.6236372,-7.185732,0.2142476,0.3956674,-7.134128,0.1569148,0.3193506,-0.09817034,0.4579918,-0.002854068,0.003333217,0.0240694,0.09132878,0.09476484,9.801017,0.004490351,0.0008655345,0.09223393,9.789634
"1.89 sec",0.7123778,0.4951323,0.6236372,-7.185732,0.2158172,0.398863,-7.135108,0.156974,0.319758,-0.09796809,0.4589157,-0.001913132,0.003601063,0.02773128,0.0921113,0.09190396,9.792104,0.004791814,0.001673779,0.08922011,9.778922
"1.9 sec",0.7221624,0.5081266,0.6581755,-7.196676,0.2173868,0.4020625,-7.136086,0.1569383,0.3201491,-0.0976592,0.4598094,-0.0009833717,0.003893774,0.02915211,0.08978448,0.08887248,9.78163,-0.000986645,-0.001117419,0.08809978,10.34932
"1.91 sec",0.7221624,0.5081266,0.6581755,-7.196676,0.2189557,0.405266,-7.137088,0.1568278,0.3205308,-0.1029062,0.460691,-0.0004998174,0.003487811,-0.08585501,0.01858219,0.08803461,10.34877,0.001938908,-0.006124136,0.09184285,9.759465
"1.92 sec",0.7221624,0.5081266,0.6581755,-7.196676,0.2205235,0.4084728,-7.138116,0.156751,0.3208341,-0.1025513,0.4616075,-0.001052567,0.002827977,-0.04932289,-0.1022619,0.09213496,9.760094,0.0008729392,-0.00214041,0.09188288,9.796584
"1.93 sec",0.7221624,0.5081266,0.6581755,-7.196676,0.222091,0.4116826,-7.139141,0.1567657,0.3211232,-0.1024075,0.4625263,-0.001751186,0.002324296,-0.04848687,-0.04425466,0.09198702,9.796009,0.001016195,-0.0009514994,0.09145562,9.793807
"1.94 sec",0.7221624,0.5081266,0.6581755,-7.196676,0.223659,0.4148952,-7.140164,0.1568376,0.3213892,-0.1022456,0.4634411,-0.00190607,0.001900433,-0.03598163,0.005041365,0.09144598,9.79419,0.001268277,0.0002969533,0.09035438,9.798757
"1.95 sec",0.7221624,0.5081266,0.6581755,-7.196676,0.2252278,0.4181103,-7.141186,0.1569182,0.3216212,-0.102132,0.4643452,-0.001622275,0.001625132,-0.02024763,0.0431257,0.09028384,9.797387,0.001675534,0.0007222508,0.08870926,9.801202
"1.96 sec",0.7221624,0.5081266,0.6581755,-7.196676,0.2267973,0.4213275,-7.142207,0.1569702,0.3218181,-0.1020431,0.4652331,-0.001109383,0.001517348,-0.003660159,0.0546529,0.08862626,9.800126,0.002334562,0.0009956236,0.0867811,9.780553
"1.97 sec",0.7221624,0.5081266,0.6581755,-7.196676,0.228367,0.4245465,-7.143226,0.1569754,0.3219892,-0.1017524,0.4661019,-0.0005600438,0.001591703,0.01471966,0.05278201,0.08669757,9.784864,0.003082947,0.001842903,0.08459975,9.757934
"1.98 sec",0.7221624,0.5081266,0.6581755,-7.196676,0.2299366,0.4277672,-7.144241,0.1569247,0.3221501,-0.1012366,0.4669491,1.347743e-05,0.001847391,0.03175514,0.05801369,0.08449365,9.765282,0.003698308,0.002741478,0.08210448,9.754322
"1.99 sec",0.7221624,0.5081266,0.6581755,-7.196676,0.2315053,0.4309896,-7.145251,0.1568067,0.3223129,-0.1006818,0.4677714,0.0006539052,0.002240316,0.04250729,0.06542045,0.08195954,9.756653,0.004173857,0.003562771,0.07939444,9.755584
"2 sec",0.7308345,0.5214634,0.6927334,-7.207839,0.2330725,0.4342135,-7.146255,0.1566108,0.3224837,-0.1001363,0.4685667,0.001356554,0.002703167,0.04653606,0.07059906,0.07920551,9.760776,-0.001593548,0.001816095,0.07860925,10.34234
"2.01 sec",0.7308345,0.5214634,0.6927334,-7.207839,0.2346372,0.4374393,-7.147281,0.1563368,0.322655,-0.1053102,0.4693533,0.001802857,0.002463236,-0.07087188,0.02530067,0.07854612,10.34185,0.001355103,-0.002620335,0.08250423,9.766386
"2.02 sec",0.7308345,0.5214634,0.6927334,-7.207839,0.2361993,0.4406664,-7.148334,0.1560923,0.3227694,-0.1050211,0.4701763,0.001428041,0.001939433,-0.03762797,-0.077974,0.08265702,9.766981,-0.0001325695,0.0006470786,0.08257242,9.820422
"2.03 sec",0.7308345,0.5214634,0.6927334,-7.207839,0.2377593,0.4438946,-7.149384,0.1559169,0.3228699,-0.1051116,0.471002,0.0009012132,0.001488667,-0.04816373,-0.03285212,0.08262224,9.819714,-3.891078e-05,0.001443839,0.0824731,9.794678
"2.04 sec",0.7308345,0.5214634,0.6927334,-7.207839,0.2393178,0.4471237,-7.150435,0.1557901,0.3229437,-0.1049629,0.4718268,0.0007805213,0.001042384,-0.04025684,0.002743487,0.08247022,9.801285,0.0001611362,0.002597911,0.08173957,9.7864
"2.05 sec",0.7308345,0.5214634,0.6927334,-7.207839,0.2408752,0.4503534,-7.151483,0.1556759,0.3229806,-0.1047299,0.4726446,0.001007082,0.0007155302,-0.0261496,0.03520178,0.08171389,9.789461,0.0005393231,0.003605618,0.08042374,9.78784
"2.06 sec",0.7308345,0.5214634,0.6927334,-7.207839,0.2424313,0.4535832,-7.152529,0.1555404,0.3229794,-0.1045082,0.4734495,0.001505841,0.0005496785,-0.00950441,0.05756646,0.08039173,9.789471,0.001099246,0.004380111,0.07869958,9.784368
"2.07 sec",0.7308345,0.5214634,0.6927334,-7.207839,0.2439858,0.4568129,-7.153573,0.1553573,0.3229449,-0.1042526,0.4742374,0.002161541,0.0005614878,0.008113511,0.06799763,0.07866151,9.785857,0.001762116,0.005015495,0.07666577,9.774349
"2.08 sec",0.7308345,0.5214634,0.6927334,-7.207839,0.2455382,0.460042,-7.154614,0.1551099,0.3228883,-0.103898,0.4750051,0.002873038,0.0007477122,0.02453549,0.07004288,0.07661399,9.77709,0.002446714,0.00449067,0.07439097,9.76212
"2.09 sec",0.7308345,0.5214634,0.6927334,-7.207839,0.2470878,0.4632706,-7.155651,0.1547933,0.3228247,-0.1034217,0.4757501,0.003451867,0.00108386,0.03778509,0.04705577,0.07434051,9.76543,0.003309551,0.00494157,0.0721256,9.72478
"2.1 sec",0.7386706,0.5348643,0.7271557,-7.219327,0.2486339,0.4664986,-7.156681,0.1544172,0.322774,-0.102579,0.4764726,0.003887363,0.001555435,0.05084629,0.03930304,0.07206506,9.725348,-0.002256128,0.006008935,0.07153491,10.3097
"2.11 sec",0.7386706,0.5348643,0.7271557,-7.219327,0.2501758,0.4697261,-7.15773,0.153967,0.3227231,-0.1074253,0.4771882,0.004353119,0.001396991,-0.06078487,0.04951051,0.07146369,10.30898,0.0002932361,0.001854803,0.07504839,9.8198
"2.12 sec",0.7386706,0.5348643,0.7271557,-7.219327,0.2517133,0.4729528,-7.158806,0.1535298,0.3226233,-0.1076476,0.4779369,0.004338042,0.0009310247,-0.03534999,-0.03586542,0.07508172,9.820212,-0.001184521,0.003782683,0.07522957,9.850638
"2.13 sec",0.7386706,0.5348643,0.7271557,-7.219327,0.2532465,0.4761785,-7.159884,0.1531306,0.3224964,-0.1080479,0.4786891,0.004072952,0.000489151,-0.04863299,-0.01884505,0.07523865,9.840746,-0.001036554,0.003682796,0.07529666,9.783006
"2.14 sec",0.7386706,0.5348643,0.7271557,-7.219327,0.254776,0.4794027,-7.160964,0.1527723,0.3223388,-0.1077917,0.479442,0.003922271,4.176713e-05,-0.04050963,-0.01177737,0.07529683,9.78381,-0.0007357961,0.004710595,0.0747128,9.750911
"2.15 sec",0.7386706,0.5348643,0.7271557,-7.219327,0.2563021,0.4826252,-7.162039,0.1524394,0.3221514,-0.1072057,0.4801895,0.003948419,-0.0002731872,-0.0244082,0.01222283,0.07471541,9.762096,-0.0002487851,0.005607466,0.07356689,9.756611
"2.16 sec",0.7386706,0.5348643,0.7271557,-7.219327,0.2578248,0.4858456,-7.163108,0.152104,0.3219375,-0.106672,0.4809257,0.004209974,-0.0004048446,-0.005440977,0.03432573,0.07358005,9.758068,0.0003862027,0.006348098,0.07200979,9.762626
"2.17 sec",0.7386706,0.5348643,0.7271557,-7.219327,0.2593441,0.4890638,-7.164173,0.1517392,0.3217042,-0.1061964,0.4816466,0.004650661,-0.0003412566,0.01351196,0.04856155,0.07202593,9.761295,0.001109804,0.006937817,0.07018404,9.761179
"2.18 sec",0.7386706,0.5348643,0.7271557,-7.219327,0.2608594,0.4922796,-7.165232,0.1513246,0.3214617,-0.1057049,0.4823494,0.005188068,-9.488405e-05,0.03043148,0.05471116,0.07018916,9.769624,0.001879644,0.007390143,0.06822772,9.753508
"2.19 sec",0.7386706,0.5348643,0.7271557,-7.219327,0.2623703,0.4954931,-7.166286,0.1508478,0.3212223,-0.1051417,0.4830327,0.005749749,0.0003070288,0.04428437,0.05454325,0.06821112,9.757381,0.002539543,0.007838359,0.06607593,9.744785
"2.2 sec",0.6410612,0.5740076,0.7301226,-7.231041,0.2638762,0.4987042,-7.167335,0.1503028,0.3209973,-0.1044903,0.4836946,0.006297102,0.0008164372,0.0523857,0.05237291,0.06603333,9.747414,0.001173783,-0.015664,0.05950042,10.11051
"2.21 sec",0.6410612,0.5740076,0.7301226,-7.231041,0.2653763,0.5019132,-7.168394,0.1497601,0.3208276,-0.1074008,0.4842929,0.004031613,0.001152353,0.01873051,-0.4048063,0.05996235,10.10988,0.008078738,-0.02151917,0.06314264,9.054048
"2.22 sec",0.6410612,0.5740076,0.7301226,-7.231041,0.2668726,0.5051215,-7.169432,0.1495706,0.3208831,-0.1001113,0.4849222,-0.001203241,0.002063706,0.135824,-0.5792346,0.06429867,9.055594,0.008774471,-0.02114729,0.07391929,8.762744
"2.23 sec",0.6410612,0.5740076,0.7301226,-7.231041,0.268369,0.508332,-7.170382,0.1497686,0.3212665,-0.08971229,0.4856555,-0.00675911,0.003601281,0.159272,-0.5132249,0.07572411,8.764095,0.01100137,-0.01771579,0.09794392,8.562807
"2.24 sec",0.6410612,0.5740076,0.7301226,-7.231041,0.269869,0.5115479,-7.171217,0.1502706,0.3219639,-0.07728682,0.4866222,-0.01090101,0.005347596,0.1782961,-0.3270171,0.09965783,8.565799,0.01331209,-0.01216462,0.1232106,8.680932
"2.25 sec",0.6410612,0.5740076,0.7301226,-7.231041,0.271375,0.5147722,-7.171933,0.1509408,0.3229372,-0.06595873,0.4878412,-0.01287673,0.007263124,0.1939183,-0.09938465,0.1239149,8.680194,0.01267963,-0.007713209,0.1311624,9.470853
"2.26 sec",0.6410612,0.5740076,0.7301226,-7.231041,0.2728881,0.5180077,-7.172574,0.1516639,0.3241943,-0.06235375,0.4891487,-0.01283583,0.008967059,0.1492744,0.07578909,0.1304825,9.469434,0.008343795,-0.010496,0.1216689,10.59761
"2.27 sec",0.6410612,0.5740076,0.7301226,-7.231041,0.2744083,0.5212571,-7.173234,0.1523581,0.3256957,-0.06992792,0.4903703,-0.01214736,0.009718369,0.02400312,0.06291801,0.121055,10.5966,0.0124497,-0.02239934,0.1221058,10.03185
"2.28 sec",0.6410612,0.5740076,0.7301226,-7.231041,0.275935,0.5245213,-7.173945,0.1529848,0.3271599,-0.07227846,0.4915911,-0.01299685,0.0101619,0.05861507,-0.1791079,0.123917,10.03239,0.01231958,-0.01671584,0.1204216,10.04466
"2.29 sec",0.6410612,0.5740076,0.7301226,-7.231041,0.2774684,0.5278007,-7.17468,0.1537079,0.3287385,-0.07460755,0.4927962,-0.01443661,0.01073077,0.05587948,-0.1112945,0.1216071,10.04218,0.01226068,-0.01600546,0.1181629,9.966564
"2.3 sec",0.6524435,0.5875657,0.7668541,-7.230259,0.2790093,0.5310963,-7.175434,0.1544965,0.3304055,-0.07617541,0.4939789,-0.0152478,0.01121069,0.04339256,-0.05467245,0.1187684,9.966977,0.00670156,-0.0233434,0.1153645,10.15239
"2.31 sec",0.6524435,0.5875657,0.7668541,-7.230259,0.2805586,0.5344092,-7.176212,0.1553688,0.3321625,-0.07953393,0.495134,-0.01650297,0.01091725,-0.07414122,-0.1654547,0.1171684,10.14803,0.007379659,-0.02327064,0.1164614,9.800994
"2.32 sec",0.6524435,0.5875657,0.7668541,-7.230259,0.2821171,0.5377393,-7.177008,0.1563766,0.3338791,-0.07951245,0.4962981,-0.0182211,0.01008025,-0.08284838,-0.1660407,0.1181293,9.80171,0.005949439,-0.02115523,0.116177,9.816514
"2.33 sec",0.6524435,0.5875657,0.7668541,-7.230259,0.2836867,0.5410867,-7.177803,0.1575591,0.3355938,-0.07955243,0.4974601,-0.01949555,0.00912451,-0.09601137,-0.09347059,0.1170177,9.813561,0.00543444,-0.01923053,0.1146745,9.810932
"2.34 sec",0.6524435,0.5875657,0.7668541,-7.230259,0.2852687,0.5444511,-7.178598,0.1588617,0.3372659,-0.07953936,0.4986077,-0.01999183,0.008146157,-0.09065613,-0.01595017,0.1147863,9.811593,0.005117268,-0.01711602,0.1117022,9.830176
"2.35 sec",0.6524435,0.5875657,0.7668541,-7.230259,0.2868641,0.5478318,-7.179395,0.1602191,0.3388679,-0.07971494,0.4997262,-0.01975082,0.007274827,-0.0769017,0.05154881,0.1113063,9.826181,0.005046188,-0.01543885,0.1074924,9.849925
"2.36 sec",0.6524435,0.5875657,0.7668541,-7.230259,0.2884731,0.5512282,-7.180194,0.1615685,0.3403811,-0.08008873,0.5008032,-0.0189653,0.006574135,-0.05862434,0.09442377,0.1068516,9.844051,0.005267905,-0.01418727,0.102545,9.855039
"2.37 sec",0.6524435,0.5875657,0.7668541,-7.230259,0.2900953,0.5546392,-7.180997,0.1628632,0.3417997,-0.08051816,0.5018312,-0.01788574,0.006083887,-0.03701136,0.1131704,0.1018396,9.852728,0.005743604,-0.01316068,0.09726996,9.846834
"2.38 sec",0.6524435,0.5875657,0.7668541,-7.230259,0.29173,0.5580639,-7.181804,0.1640746,0.3431321,-0.08087116,0.5028066,-0.01670736,0.005827889,-0.01380393,0.1164714,0.09657817,9.848286,0.006350901,-0.01219552,0.09189804,9.832635
"2.39 sec",0.6524435,0.5875657,0.7668541,-7.230259,0.2933764,0.5615016,-7.182613,0.165188,0.3443958,-0.08108623,0.5037283,-0.01553515,0.005803069,0.007831989,0.1131571,0.09123208,9.83602,0.006950079,-0.01126035,0.08654574,9.817971
"2.4 sec",0.6622676,0.601187,0.8036731,-7.238892,0.2950335,0.5649516,-7.183425,0.166196,0.3456107,-0.08115688,0.5045965,-0.01440891,0.005972713,0.02457107,0.1078677,0.08589524,9.821825,0.002187522,-0.01735194,0.0820038,10.27387
"2.41 sec",0.6622676,0.601187,0.8036731,-7.238892,0.2967003,0.5684139,-7.184258,0.1671758,0.3468431,-0.08566772,0.5054189,-0.01415252,0.005662206,-0.06529046,-0.03044337,0.08217019,10.27347,0.004666646,-0.02275514,0.08327123,9.816472
"2.42 sec",0.6622676,0.601187,0.8036731,-7.238892,0.298377,0.5718881,-7.185116,0.1681763,0.3480031,-0.08583757,0.506251,-0.01532662,0.005175172,-0.03314089,-0.1700912,0.08414599,9.816872,0.005334803,-0.0190332,0.08368193,9.755207
"2.43 sec",0.6622676,0.601187,0.8036731,-7.238892,0.3000643,0.5753741,-7.185972,0.1693073,0.3491959,-0.08529139,0.5070876,-0.01670976,0.005001284,-0.003634083,-0.1096067,0.0842199,9.756033,0.005858489,-0.0164455,0.08305266,9.753027
"2.44 sec",0.6622676,0.601187,0.8036731,-7.238892,0.3017634,0.5788722,-7.186822,0.1705247,0.3504332,-0.08470677,0.5079185,-0.01729297,0.005072826,0.01652153,-0.02014618,0.08314335,9.753811,0.005849293,-0.01411812,0.08085934,9.796841
"2.45 sec",0.6622676,0.601187,0.8036731,-7.238892,0.3034748,0.5823829,-7.187668,0.1717529,0.3516958,-0.08454846,0.5087282,-0.01703808,0.005247469,0.01964487,0.05592206,0.08055573,9.79624,0.005526349,-0.01248401,0.07755862,9.831908
"2.46 sec",0.6622676,0.601187,0.8036731,-7.238892,0.3051983,0.5859061,-7.188515,0.1729273,0.3529506,-0.08474349,0.5095055,-0.01619811,0.005382088,0.01083752,0.09979338,0.0770129,9.831401,0.005134586,-0.01131559,0.07375591,9.84075
"2.47 sec",0.6622676,0.601187,0.8036731,-7.238892,0.3069331,0.5894417,-7.189363,0.1740118,0.3541664,-0.08503556,0.510245,-0.015075,0.005407013,-0.001313501,0.1162182,0.07312002,9.838946,0.004822766,-0.01025066,0.06975193,9.833705
"2.48 sec",0.6622676,0.601187,0.8036731,-7.238892,0.3086782,0.5929892,-7.190215,0.1749952,0.3553229,-0.0852619,0.5109445,-0.01386687,0.005325733,-0.01064397,0.1189135,0.06911214,9.834981,0.004687653,-0.009257132,0.06566967,9.821144
"2.49 sec",0.6622676,0.601187,0.8036731,-7.238892,0.3104326,0.596548,-7.191068,0.1758786,0.3564107,-0.08536611,0.5116034,-0.01266854,0.005186908,-0.01394059,0.1154423,0.06506556,9.824135,0.00475209,-0.008307277,0.06154709,9.807895
"2.5 sec",0.6698145,0.6164069,0.8410382,-7.248552,0.3121955,0.6001172,-7.191922,0.1766663,0.3574291,-0.0853399,0.5122209,-0.01151833,0.005054086,-0.01094328,0.1098937,0.06098766,9.811276,-0.0005309989,-0.01536167,0.05806908,10.31246
"2.51 sec",0.6698145,0.6164069,0.8410382,-7.248552,0.3139659,0.6036965,-7.192799,0.1774401,0.3584288,-0.09022828,0.5128034,-0.01135426,0.004338756,-0.1081078,-0.04722546,0.05827315,10.31203,0.002344592,-0.02151271,0.06093676,9.774879
"2.52 sec",0.6698145,0.6164069,0.8410382,-7.248552,0.3157444,0.6072854,-7.193701,0.1782726,0.359334,-0.09000693,0.5134113,-0.01280196,0.003499323,-0.06243223,-0.2037008,0.06165172,9.775386,0.003126479,-0.01715397,0.06226576,9.717086
"2.53 sec",0.6698145,0.6164069,0.8410382,-7.248552,0.317532,0.6108833,-7.194596,0.1792749,0.3602642,-0.0890829,0.5140334,-0.01444656,0.003102789,-0.02093224,-0.1298468,0.06266411,9.717869,0.003974703,-0.01443785,0.06229266,9.730286
"2.54 sec",0.6698145,0.6164069,0.8410382,-7.248552,0.3193303,0.6144908,-7.195483,0.1803896,0.3612366,-0.08827197,0.5146562,-0.01517119,0.003082315,0.01240489,-0.02987778,0.06237772,9.727761,0.004368775,-0.01199992,0.06063483,9.789511
"2.55 sec",0.6698145,0.6164069,0.8410382,-7.248552,0.3211399,0.6181082,-7.196365,0.181526,0.3622369,-0.08803975,0.5152635,-0.01496974,0.003296091,0.02801111,0.05342111,0.06045296,9.788654,0.004440722,-0.01033482,0.05789926,9.832811
"2.56 sec",0.6698145,0.6164069,0.8410382,-7.248552,0.3229606,0.6217356,-7.197246,0.1826072,0.3632381,-0.08824565,0.5158439,-0.01413307,0.003580781,0.02888428,0.1005861,0.05753506,9.832197,0.004343189,-0.009158088,0.05471628,9.84225
"2.57 sec",0.6698145,0.6164069,0.8410382,-7.248552,0.3247917,0.6253728,-7.19813,0.1835892,0.3642151,-0.08855631,0.5163927,-0.01299364,0.003826388,0.02174923,0.1180118,0.05426176,9.840276,0.004181622,-0.008053758,0.05135224,9.833793
"2.58 sec",0.6698145,0.6164069,0.8410382,-7.248552,0.326632,0.6290197,-7.199017,0.1844576,0.365151,-0.08878713,0.5169079,-0.01176105,0.00398537,0.0122764,0.1213945,0.05086601,9.835622,0.004057236,-0.00701652,0.04791524,9.820245
