Time,desired yaw,desired x,desired y,desired z,WorldPosition_1,WorldPosition_2,WorldPosition_3,WorldVelocity_1,WorldVelocity_2,WorldVelocity_3,EulerZYX_1,EulerZYX_2,EulerZYX_3,BodyAngularRateRPY_1,BodyAngularRateRPY_2,BodyAngularRateRPY_3,Thrust,Roll CS,Pitch CS,Yaw CS,Thrust CS
"0 sec",0.6806784,0.3010184,0.2437599,-7.061348,0,0,-7,0,0,0,0,0,0,0,0,0,0,0.07209702,-0.07228513,0.5,13.88222
"0.01 sec",0.6806784,0.3010184,0.2437599,-7.061348,1.131703e-06,1.132951e-06,-7.000169,0.0004276879,0.0004286384,-0.03716091,0.00473965,-0.008428808,0.008384466,1.370566,-1.371163,0.5105804,13.88043,0.0717539,-0.07262573,0.5,13.88222
"0.02 sec",0.6806784,0.3010184,0.2437599,-7.061348,1.4604e-05,1.467358e-05,-7.000744,0.002616032,0.002632988,-0.07784535,0.009728186,-0.02360488,0.02336394,1.528764,-1.530985,0.5345731,13.8818,0.07139104,-0.07298243,0.5,13.88222
"0.03 sec",0.6806784,0.3010184,0.2437599,-7.061348,6.037811e-05,6.084013e-05,-7.001726,0.006864217,0.006933141,-0.1184338,0.01471773,-0.03799008,0.03739883,1.28009,-1.280679,0.5470565,13.88085,0.07102633,-0.07333738,0.5,13.88222
"0.04 sec",0.6806784,0.3010184,0.2437599,-7.061348,0.0001577036,0.0001593215,-7.003112,0.01285407,0.01302531,-0.1588913,0.01971122,-0.04938135,0.04833391,0.9536582,-0.9512265,0.545517,13.88147,0.07065956,-0.07369078,0.5,13.88222
"0.05 sec",0.6806784,0.3010184,0.2437599,-7.061348,0.0003217726,0.0003258451,-7.004903,0.02014021,0.02046893,-0.1992215,0.02470787,-0.05767507,0.05610422,0.6667104,-0.6616611,0.536891,13.88116,0.07029082,-0.07404253,0.5,13.88222
"0.06 sec",0.6806784,0.3010184,0.2437599,-7.061348,0.000563498,0.0005718662,-7.007096,0.02832697,0.02886552,-0.2394471,0.02970633,-0.06344487,0.06130621,0.4479546,-0.4413284,0.5269255,13.88137,0.1457645,-0.1564349,0.5,6.677207
"0.07 sec",0.6806784,0.3010184,0.2437599,-7.061348,0.0008694092,0.0008837858,-7.009351,0.03289155,0.03355438,-0.2096523,0.03469814,-0.07692973,0.07344735,1.735582,-1.837973,0.6335543,6.678446,0.1620401,-0.1761399,0.5,5.97964
"0.08 sec",0.6806784,0.3010184,0.2437599,-7.061348,0.001222545,0.001244163,-7.011255,0.03793017,0.03871822,-0.1710899,0.03967655,-0.09900367,0.09321056,2.122151,-2.270324,0.7095233,5.980526,0.1611658,-0.1769389,0.5,5.979641
"0.09 sec",0.6806784,0.3010184,0.2437599,-7.061348,0.001632241,0.001662462,-7.012772,0.04421133,0.04514915,-0.1321045,0.04465465,-0.1210954,0.1126695,1.82912,-1.95769,0.7191855,5.980592,0.1602876,-0.1777333,0.5,5.979641
"0.1 sec",0.6397031,0.3158388,0.2355907,-7.043474,0.002110422,0.002150917,-7.013896,0.05158477,0.05270832,-0.09285974,0.04964046,-0.1390243,0.128067,1.381711,-1.474896,0.688157,5.980548,0.1594041,-0.1785244,0.5,5.979641
"0.11 sec",0.6397031,0.3158388,0.2355907,-7.043474,0.002666671,0.0027195,-7.014628,0.05977953,0.06112942,-0.05338953,0.05463307,-0.1522969,0.1390247,0.9735467,-1.034356,0.6432677,5.980574,0.1585156,-0.179312,0.5,5.979641
"0.12 sec",0.6397031,0.3158388,0.2355907,-7.043474,0.003307917,0.00337554,-7.014964,0.06854754,0.07016233,-0.01374548,0.05962972,-0.1616695,0.1462912,0.6573248,-0.6936286,0.6008009,5.980557,0.1576226,-0.1800956,0.5,5.979641
"0.13 sec",0.6397031,0.3158388,0.2355907,-7.043474,0.00403889,0.004124125,-7.014903,0.07769793,0.07961053,0.02602276,0.06462838,-0.1681413,0.15082,0.4314596,-0.4509061,0.5670578,5.980568,0.1567252,-0.180875,0.5,5.979641
"0.14 sec",0.6397031,0.3158388,0.2355907,-7.043474,0.004862696,0.004968659,-7.014443,0.08709572,0.08933235,0.06587527,0.06962793,-0.172592,0.1534411,0.2777603,-0.286352,0.542692,5.980561,0.155824,-0.1816498,0.5,5.979641
"0.15 sec",0.6397031,0.3158388,0.2355907,-7.043474,0.005781323,0.005911359,-7.013585,0.09665003,0.09923065,0.1057829,0.07462784,-0.1756912,0.1547841,0.1764528,-0.1784463,0.5261024,5.980567,0.1549188,-0.18242,0.5,5.979641
"0.16 sec",0.6397031,0.3158388,0.2355907,-7.043474,0.006796019,0.006953644,-7.012327,0.1063017,0.109241,0.1457258,0.07962787,-0.1779123,0.1552928,0.1111564,-0.1093711,0.5152304,5.980562,0.08527637,-0.1004783,0.5,10.76969
"0.17 sec",0.6397031,0.3158388,0.2355907,-7.043474,0.007943595,0.008133838,-7.010892,0.1232584,0.1268492,0.1402018,0.08462377,-0.1699321,0.1472794,-1.236125,1.486076,0.2767366,10.76937,0.06573557,-0.07811331,0.5,13.88222
"0.18 sec",0.6397031,0.3158388,0.2355907,-7.043474,0.009278449,0.00950872,-7.009669,0.143428,0.1478405,0.1033854,0.08960706,-0.1512364,0.1304622,-1.772003,2.127046,0.2173852,13.8785,0.06534589,-0.0784394,0.5,13.88222
"0.19 sec",0.6397031,0.3158388,0.2355907,-7.043474,0.01080355,0.01108189,-7.008827,0.1611649,0.1663575,0.0650567,0.09458753,-0.1311178,0.1126261,-1.592501,1.914652,0.2806146,13.88119,0.06495482,-0.07876334,0.5,13.88222
"0.2 sec",0.6847452,0.3143391,0.2592965,-7.052383,0.01249385,0.0128278,-7.00837,0.176542,0.1824629,0.02613492,0.09957396,-0.1145548,0.0978655,-1.227546,1.474727,0.3533012,13.88136,0.06456167,-0.07908569,0.5,13.88222
"0.21 sec",0.6847452,0.3143391,0.2592965,-7.052383,0.01432827,0.01472485,-7.008306,0.1900823,0.1966773,-0.0131907,0.1045664,-0.1024075,0.0868464,-0.8760069,1.048978,0.4074045,13.88126,0.06416646,-0.07940646,0.5,13.88222
"0.22 sec",0.6847452,0.3143391,0.2592965,-7.052383,0.01629114,0.01675681,-7.008635,0.202311,0.2095262,-0.05277425,0.1095627,-0.09408084,0.07904959,-0.5967216,0.7107925,0.4427936,13.88132,0.06376935,-0.07972548,0.5,13.88222
"0.23 sec",0.6847452,0.3143391,0.2592965,-7.052383,0.01837154,0.01891225,-7.009361,0.2136512,0.2214365,-0.09251861,0.1145609,-0.08864067,0.0736893,-0.3939812,0.4661295,0.4648696,13.88128,0.07173576,-0.09067038,0.5,12.2657
"0.24 sec",0.6847452,0.3143391,0.2592965,-7.052383,0.02055637,0.02117731,-7.010409,0.2232397,0.2314924,-0.1167027,0.1195605,-0.08646875,0.07102115,-0.09528816,0.09742151,0.4924529,12.26656,0.1070619,-0.1372512,0.5,8.175239
"0.25 sec",0.6847452,0.3143391,0.2592965,-7.052383,0.02282138,0.02352635,-7.011502,0.2297508,0.2382982,-0.100866,0.1245594,-0.0920392,0.07443853,0.6964299,-0.9114085,0.5669568,8.177387,0.1315398,-0.1710089,0.5,6.617944
"0.26 sec",0.6847452,0.3143391,0.2592965,-7.052383,0.02514743,0.02593902,-7.012352,0.2355672,0.2443432,-0.06881345,0.1295523,-0.1065585,0.08469909,1.2853,-1.675576,0.6401819,6.619031,0.1289141,-0.1692778,0.5,6.708525
"0.27 sec",0.6847452,0.3143391,0.2592965,-7.052383,0.02753631,0.02841682,-7.012882,0.2423724,0.2513817,-0.03705615,0.1345422,-0.1235016,0.09670271,1.184198,-1.53978,0.646998,6.708048,0.05548834,-0.1309728,0.5,7.525232
"0.28 sec",0.6847452,0.3143391,0.2592965,-7.052383,0.03000201,0.03097358,-7.013132,0.2508996,0.2600289,-0.01300982,0.1395405,-0.1332785,0.09815131,-0.4574987,-0.4615828,0.5435665,7.523743,-0.04354678,-0.03587831,0.5,8.556994
"0.29 sec",0.6847452,0.3143391,0.2592965,-7.052383,0.03256074,0.03362108,-7.013191,0.260785,0.2692116,0.0008595137,0.1445309,-0.1247689,0.07874238,-2.745639,1.769879,0.3555694,8.552545,-0.1015932,0.0328164,0.5,9.518158
"0.3 sec",0.7238048,0.3254154,0.2928354,-7.07478,0.0352184,0.03635285,-7.013161,0.2704117,0.2765259,0.004806362,0.1494785,-0.09666938,0.0421563,-4.014492,3.424218,0.3465619,9.515111,0.06054071,-0.08220185,0.5,13.88222
"0.31 sec",0.7238048,0.3254154,0.2928354,-7.07478,0.03797829,0.03914888,-7.013302,0.2812624,0.2822216,-0.03424513,0.1544493,-0.075933,0.02169025,-0.5506446,1.081913,0.4747663,13.88182,0.06013183,-0.08250112,0.5,13.88222
"0.32 sec",0.7238048,0.3254154,0.2928354,-7.07478,0.0408389,0.04199346,-7.013846,0.2907361,0.2867173,-0.07457181,0.1594488,-0.07071887,0.02289383,0.629636,0.1350593,0.4958296,13.87691,0.05971908,-0.08280004,0.5,13.88222
"0.33 sec",0.7238048,0.3254154,0.2928354,-7.07478,0.04379182,0.04488577,-7.014794,0.2998331,0.2919309,-0.1148962,0.1644486,-0.07144807,0.03049802,0.8728879,-0.1875481,0.5045983,13.88068,0.05930483,-0.08309692,0.5,13.88222
"0.34 sec",0.7238048,0.3254154,0.2928354,-7.07478,0.04683571,0.04783611,-7.016144,0.3089646,0.2983388,-0.1551688,0.1694476,-0.07395044,0.03852069,0.7779732,-0.2511678,0.5085848,13.88126,0.07335403,-0.05310168,0.5,12.32053
"0.35 sec",0.7238048,0.3254154,0.2928354,-7.07478,0.04996623,0.05085245,-7.017823,0.3170594,0.3050787,-0.1802241,0.1744479,-0.07304624,0.04671241,0.8706411,0.3536249,0.4828097,12.3214,0.1614942,-0.001042385,0.5,6.307904
"0.36 sec",0.7238048,0.3254154,0.2928354,-7.07478,0.05315682,0.05392396,-7.019464,0.3208176,0.3093126,-0.1464952,0.1794571,-0.06284358,0.06474492,2.407409,1.468085,0.4065588,6.308234,0.1867285,0.08039249,0.5,5.931942
"0.37 sec",0.7238048,0.3254154,0.2928354,-7.07478,0.0563774,0.05704156,-7.020735,0.3229968,0.3144249,-0.1075469,0.1844905,-0.03818169,0.09223573,2.893503,3.080091,0.221308,5.932519,0.1581133,0.1440187,0.5,5.944936
"0.38 sec",0.7238048,0.3254154,0.2928354,-7.07478,0.0596095,0.06021668,-7.021616,0.3230004,0.3207598,-0.06855003,0.1895366,-6.784953e-06,0.1160019,1.929535,4.192224,0.01911042,5.942515,0.001374589,0.1732339,0.5,5.898289
"0.39 sec",0.7238048,0.3254154,0.2928354,-7.07478,0.06282876,0.06345766,-7.022103,0.3204343,0.3273191,-0.02901726,0.194535,0.04338744,0.1134942,-1.738205,4.287947,0.01047667,5.898906,-0.1222979,0.1842702,0.5,6.457958
"0.4 sec",0.6864994,0.3635276,0.3105672,-7.098609,0.06600863,0.06675995,-7.022222,0.3151822,0.3326674,0.005092258,0.1994628,0.08361614,0.07649817,-4.913023,3.703242,0.2067505,6.457401,0.05636306,-0.08511723,0.5,13.88222
"0.41 sec",0.6864994,0.3635276,0.3105672,-7.098609,0.06909307,0.07011663,-7.022352,0.3016602,0.3381031,-0.03294349,0.2044473,0.0845409,0.04696796,-1.55902,-2.316122,0.6093854,13.88082,0.05593861,-0.08539639,0.5,13.88222
"0.42 sec",0.6864994,0.3635276,0.3105672,-7.098609,0.07205278,0.0735165,-7.022882,0.2910636,0.3418567,-0.07320296,0.2094592,0.05169747,0.03950286,-0.2170042,-3.747224,0.6482205,13.88125,0.05551044,-0.08567495,0.5,13.88222
"0.43 sec",0.6864994,0.3635276,0.3105672,-7.098609,0.07493117,0.07695611,-7.023817,0.2854454,0.3462588,-0.1137336,0.214458,0.01466317,0.04023619,0.2419277,-3.462559,0.6393031,13.88133,0.055082,-0.08595063,0.5,13.88222
"0.44 sec",0.6864994,0.3635276,0.3105672,-7.098609,0.07777703,0.08044608,-7.025157,0.2844109,0.3519591,-0.1543293,0.2194531,-0.01650818,0.04330075,0.3396933,-2.697685,0.6168267,13.88128,0.02313566,-0.08766256,0.5,12.43911
"0.45 sec",0.6864994,0.3635276,0.3105672,-7.098609,0.08063033,0.08399573,-7.026835,0.2867194,0.3580504,-0.1808169,0.2244533,-0.03998323,0.04276024,-0.2922399,-1.960488,0.5842651,12.44003,-0.1094101,-0.1393449,0.5,6.29311
"0.46 sec",0.6864994,0.3635276,0.3105672,-7.098609,0.08350973,0.08759215,-7.028482,0.2893934,0.3610087,-0.1470982,0.2294751,-0.06259554,0.02325316,-2.938795,-2.32944,0.5568717,6.293474,-0.2022667,-0.1277547,0.5,5.979641
"0.47 sec",0.6864994,0.3635276,0.3105672,-7.098609,0.08642332,0.09121016,-7.029762,0.2936171,0.3622197,-0.1087077,0.2345198,-0.08318134,-0.01964134,-4.940576,-1.778689,0.4680372,5.980403,-0.2029069,-0.1267269,0.5,5.979641
"0.48 sec",0.6864994,0.3635276,0.3105672,-7.098609,0.08938773,0.09482799,-7.030656,0.2995231,0.3609081,-0.07009014,0.2395587,-0.09803912,-0.0688368,-4.596927,-1.256123,0.4152197,5.982509,-0.2035412,-0.1256967,0.5,5.979641
"0.49 sec",0.6864994,0.3635276,0.3105672,-7.098609,0.0924183,0.09842008,-7.031163,0.3067854,0.3571351,-0.03121987,0.2445813,-0.1080198,-0.110484,-3.589065,-0.8487493,0.4075608,5.980391,-0.1950617,-0.1189313,0.5,6.255003
"0.5 sec",0.669535,0.3956302,0.3394929,-7.116808,0.09552844,0.101963,-7.031292,0.3153842,0.3511693,0.005285393,0.2495911,-0.1136929,-0.140681,-2.398761,-0.4507995,0.4384204,6.253872,0.05203285,-0.08782715,0.5,13.88222
"0.51 sec",0.669535,0.3956302,0.3394929,-7.116808,0.0987798,0.1054008,-7.031413,0.3350914,0.3364055,-0.031247,0.2545933,-0.1128314,-0.1319436,3.145115,0.3286989,0.545364,13.88063,0.05159345,-0.08808555,0.5,13.88222
"0.52 sec",0.669535,0.3956302,0.3394929,-7.116808,0.1022258,0.1087038,-7.031919,0.3537884,0.3250608,-0.07022629,0.2596029,-0.1077946,-0.09333325,4.257513,0.5024586,0.5474784,13.8813,0.0511521,-0.08834215,0.5,13.88222
"0.53 sec",0.669535,0.3956302,0.3394929,-7.116808,0.1058486,0.1119201,-7.032819,0.3704295,0.319075,-0.1098075,0.2646139,-0.1025228,-0.05304959,3.772558,0.45942,0.5234072,13.88129,0.05070936,-0.08859657,0.5,13.88222
"0.54 sec",0.669535,0.3956302,0.3394929,-7.116808,0.1096279,0.1151015,-7.034117,0.3851384,0.3179371,-0.149737,0.2696213,-0.09824423,-0.02019875,2.885049,0.3585826,0.5054792,13.8813,0.06995035,-0.1238946,0.5,9.979572
"0.55 sec",0.669535,0.3956302,0.3394929,-7.116808,0.1135287,0.1182887,-7.03563,0.3948288,0.3199326,-0.1519428,0.2746206,-0.09921958,0.006124373,2.420462,-0.4054624,0.4995667,9.981664,0.1128656,-0.2036739,0.5,6.138421
"0.56 sec",0.669535,0.3956302,0.3394929,-7.116808,0.117507,0.1215012,-7.036973,0.4007969,0.3228366,-0.115855,0.2796028,-0.113706,0.03177521,2.632643,-2.068899,0.5601245,6.141572,0.1148396,-0.2097993,0.5,5.979641
"0.57 sec",0.669535,0.3956302,0.3394929,-7.116808,0.1215463,0.1247512,-7.037939,0.407217,0.3274459,-0.07706543,0.2845751,-0.1365761,0.05580849,2.241473,-2.285067,0.6212276,5.981384,0.1138027,-0.2103577,0.5,5.979641
"0.58 sec",0.669535,0.3956302,0.3394929,-7.116808,0.1256543,0.1280557,-7.038514,0.4145238,0.333698,-0.0379814,0.2895543,-0.1581258,0.07467557,1.68247,-1.902451,0.6358988,5.981356,0.01198047,-0.05978847,0.5,6.901857
"0.59 sec",0.669535,0.3956302,0.3394929,-7.116808,0.1298444,0.1314337,-7.038741,0.4234917,0.3419544,-0.007575548,0.2945503,-0.1575337,0.07632314,-0.7375442,1.449016,0.3838763,6.900042,-0.04335404,0.09628864,0.5,8.573138
"0.6 sec",0.6716208,0.4385732,0.3769009,-7.089191,0.1341302,0.1349005,-7.038745,0.433282,0.3510474,0.006281455,0.2995137,-0.1200496,0.05791875,-2.385054,5.174299,0.1907631,8.572305,0.1106713,-0.2120041,0.5,5.979641
"0.61 sec",0.6716208,0.4385732,0.3769009,-7.089191,0.13849,0.1384363,-7.038495,0.4384754,0.3559497,0.04434484,0.304496,-0.1019751,0.05048154,0.4886549,-0.520748,0.5242807,5.980515,0.1096216,-0.2125427,0.5,5.979641
"0.62 sec",0.6716208,0.4385732,0.3769009,-7.089191,0.1429001,0.1420204,-7.037858,0.4436581,0.3610101,0.08308996,0.3094888,-0.1179146,0.0597921,1.279695,-2.195923,0.6275799,5.981555,0.1085671,-0.2130773,0.5,5.979641
"0.63 sec",0.6716208,0.4385732,0.3769009,-7.089191,0.1473664,0.1456602,-7.036832,0.4497859,0.3671335,0.1220258,0.3144745,-0.1414587,0.07225801,1.27595,-2.287163,0.660477,5.980095,0.1075115,-0.2136058,0.5,5.97964
"0.64 sec",0.6716208,0.4385732,0.3769009,-7.089191,0.1518992,0.1493669,-7.035416,0.456941,0.3743773,0.1612043,0.319463,-0.1628747,0.08306582,1.026711,-1.866928,0.6496469,5.980841,0.08684122,-0.1740059,0.5,7.325399
"0.65 sec",0.6716208,0.4385732,0.3769009,-7.089191,0.1565162,0.1531591,-7.03367,0.4666013,0.3842379,0.1877141,0.3244592,-0.1748648,0.088765,0.3761172,-0.6116094,0.5486723,7.324482,0.04532721,-0.09146167,0.5,13.88222
"0.66 sec",0.6716208,0.4385732,0.3769009,-7.089191,0.1612741,0.1570958,-7.031967,0.4850732,0.4032136,0.1512547,0.3294572,-0.1688199,0.08532744,-0.6708635,1.468834,0.3684776,13.8819,0.04487017,-0.09168628,0.5,13.88222
"0.67 sec",0.6716208,0.4385732,0.3769009,-7.089191,0.1662127,0.1612187,-7.030647,0.5023324,0.4210471,0.1127708,0.3344488,-0.1518317,0.07644109,-0.8619606,1.832599,0.3543964,13.88093,0.006558638,0.002837127,0.5,13.81035
"0.68 sec",0.6716208,0.4385732,0.3769009,-7.089191,0.1713127,0.1655089,-7.02971,0.5171505,0.4365114,0.07442591,0.339429,-0.1237538,0.06313348,-1.472101,3.383898,0.2805235,13.81137,-0.04395497,0.09212758,0.5,13.88222
"0.69 sec",0.6716208,0.4385732,0.3769009,-7.089191,0.176543,0.1699368,-7.029164,0.528098,0.4482603,0.03466779,0.3443816,-0.0798343,0.04220865,-2.332682,4.902968,0.285769,13.88117,-0.04349881,0.09234336,0.5,13.88222
"0.7 sec",0.7170132,0.4753387,0.4303129,-7.075933,0.1818574,0.1744567,-7.029019,0.5339314,0.4548629,-0.005758305,0.3493241,-0.03247657,0.01909677,-2.146998,4.420627,0.4103651,13.88137,0.1000628,-0.2171522,0.5,5.979641
"0.71 sec",0.7170132,0.4753387,0.4303129,-7.075933,0.1872028,0.1790129,-7.028905,0.5350837,0.4562918,0.03054701,0.3543124,-0.02935061,0.01647726,1.048212,-2.472791,0.5395001,5.980627,0.09898686,-0.2176386,0.5,5.979641
"0.72 sec",0.7170132,0.4753387,0.4303129,-7.075933,0.1925626,0.1835858,-7.028408,0.5371614,0.4585682,0.06893396,0.3592854,-0.06514771,0.03180293,1.830779,-4.139024,0.6271453,5.980523,0.09791191,-0.2181182,0.5,5.979641
"0.73 sec",0.7170132,0.4753387,0.4303129,-7.075933,0.1979523,0.1881904,-7.027525,0.5410929,0.4626625,0.1075126,0.3642487,-0.1061878,0.04948698,1.718444,-3.846959,0.6850512,5.980591,0.05009013,-0.1121489,0.5,11.54691
"0.74 sec",0.7170132,0.4753387,0.4303129,-7.075933,0.2034133,0.1928687,-7.026519,0.551544,0.4734266,0.09256459,0.3692355,-0.1285304,0.05882027,0.4586,-0.9857007,0.5545662,11.54663,0.04119388,-0.09339198,0.5,13.88222
"0.75 sec",0.7170132,0.4753387,0.4303129,-7.075933,0.2089972,0.1976734,-7.025784,0.5652934,0.4875968,0.05385856,0.3742351,-0.130113,0.05896383,-0.1780742,0.4595145,0.469452,13.88161,0.07929314,0.004238682,0.5,13.85365
"0.76 sec",0.7170132,0.4753387,0.4303129,-7.075933,0.214716,0.2026192,-7.025441,0.5780527,0.5014303,0.01470322,0.3792358,-0.1120629,0.06000125,0.3909851,2.676067,0.3373504,13.86174,0.09372146,0.04043683,0.5,13.88222
"0.77 sec",0.7170132,0.4753387,0.4303129,-7.075933,0.2205461,0.2076993,-7.025492,0.5872023,0.5144601,-0.02509224,0.3842445,-0.07952011,0.06584598,0.7663512,3.535777,0.2675725,13.87768,-0.02615307,0.09684213,0.5,12.53022
"0.78 sec",0.7170132,0.4753387,0.4303129,-7.075933,0.2264414,0.212898,-7.02588,0.5911175,0.5247872,-0.05214428,0.389232,-0.03938697,0.0592571,-1.546145,4.189819,0.2486467,12.53121,-0.04929525,0.1182226,0.5,11.07498
"0.79 sec",0.7170132,0.4753387,0.4303129,-7.075933,0.2323544,0.2181785,-7.026467,0.5909191,0.5306306,-0.0650029,0.3941872,0.00225804,0.03795705,-2.414402,3.983989,0.3441307,11.07594,-0.05376646,0.1308509,0.5,10.03434
"0.8 sec",0.6648344,0.5412501,0.461011,-7.10178,0.2382508,0.2234958,-7.027131,0.5879411,0.5321989,-0.06744771,0.399141,0.03941659,0.01386846,-2.313546,3.377649,0.4487959,10.03829,0.03838716,-0.09457739,0.5,13.88222
"0.81 sec",0.6648344,0.5412501,0.461011,-7.10178,0.2440996,0.2288112,-7.027998,0.5818214,0.5306522,-0.1070393,0.4041324,0.04264641,0.003936181,-0.08989117,-1.756624,0.5065523,13.88035,0.03791531,-0.09476706,0.5,13.88222
"0.82 sec",0.6648344,0.5412501,0.461011,-7.10178,0.2498942,0.234111,-7.029272,0.5776178,0.5296204,-0.1476898,0.4091277,0.01682664,0.007468171,0.6131659,-3.015667,0.5215198,13.88117,0.03744217,-0.09495452,0.5,13.88222
"0.83 sec",0.6648344,0.5412501,0.461011,-7.10178,0.2556634,0.2394115,-7.030952,0.5767958,0.5309079,-0.1883981,0.4141172,-0.01305134,0.0143752,0.7119864,-2.819178,0.5395115,13.88137,0.03696864,-0.09513941,0.5,13.88222
"0.84 sec",0.6648344,0.5412501,0.461011,-7.10178,0.2614407,0.2447373,-7.03304,0.5791279,0.5346342,-0.2290468,0.4191086,-0.03839529,0.02089956,0.6056097,-2.206872,0.5452053,13.88125,-0.1042911,-0.04944328,0.4914515,11.45943
"0.85 sec",0.6648344,0.5412501,0.461011,-7.10178,0.2672507,0.2501044,-7.035418,0.583177,0.5386685,-0.2460185,0.424033,-0.0520446,0.009565843,-2.219042,-0.7167425,0.4985341,11.45982,-0.2230757,-0.08584654,0.4816027,5.979641
"0.86 sec",0.6648344,0.5412501,0.461011,-7.10178,0.2730981,0.2554979,-7.0377,0.5864822,0.5396545,-0.2090183,0.4288698,-0.05994692,-0.03006931,-4.913888,-0.8123214,0.4585457,5.980117,-0.2234877,-0.08475226,0.4719291,5.979641
"0.87 sec",0.6648344,0.5412501,0.461011,-7.10178,0.2789857,0.2608895,-7.039598,0.591316,0.5382441,-0.1704948,0.4336131,-0.06720782,-0.08019552,-4.79348,-0.6792191,0.4194386,5.984252,-0.1396655,0.1039988,0.4624426,5.899003
"0.88 sec",0.6648344,0.5412501,0.461011,-7.10178,0.2849278,0.266255,-7.041105,0.5970875,0.5344827,-0.1309996,0.4382205,-0.05080273,-0.1140209,-2.220769,3.037134,0.8089995,5.899429,-0.08055673,0.2250116,0.4532278,5.97964
"0.89 sec",0.6648344,0.5412501,0.461011,-7.10178,0.2909236,0.2715724,-7.042222,0.6016677,0.5287133,-0.09221356,0.4427364,-0.001314777,-0.1225689,0.1280972,5.861851,1.178921,5.979205,-0.07954837,0.2253647,0.444196,5.979641
"0.9 sec",0.7030171,0.593262,0.527936,-7.097145,0.2969508,0.2768244,-7.04295,0.6032146,0.5215018,-0.05344461,0.4471998,0.05834409,-0.1167532,0.8361731,5.598367,1.10567,5.97892,0.0785502,-0.2257094,0.5,5.979641
"0.91 sec",0.7030171,0.593262,0.527936,-7.097145,0.3029795,0.2820013,-7.04329,0.6024357,0.5141382,-0.01467839,0.4521619,0.05697216,-0.08917923,3.87584,-4.10741,0.1263214,5.978793,0.07743879,-0.2260873,0.5,5.97964
"0.92 sec",0.7030171,0.593262,0.527936,-7.097145,0.3090029,0.2871171,-7.043244,0.6025833,0.5096405,0.02380711,0.4570466,0.001174918,-0.04810815,4.052146,-6.351,0.1816008,5.97891,0.06797967,-0.2012015,0.491941,6.713939
"0.93 sec",0.7030171,0.593262,0.527936,-7.097145,0.3150398,0.2922058,-7.04285,0.6052049,0.508754,0.05502649,0.4618588,-0.05780356,-0.01205853,3.162923,-5.330721,0.4181386,6.712703,0.0419958,-0.1256442,0.4823167,10.70929
"0.94 sec",0.7030171,0.593262,0.527936,-7.097145,0.3211268,0.2973092,-7.042333,0.6126486,0.5126116,0.04739836,0.4666367,-0.0954617,0.01168899,1.795374,-2.52654,0.5073072,10.70736,0.03543567,-0.1076284,0.4727609,12.50983
"0.95 sec",0.7030171,0.593262,0.527936,-7.097145,0.3273051,0.3024731,-7.041986,0.6232093,0.5205774,0.02156807,0.4713579,-0.1110314,0.02419757,0.9074253,-0.8112187,0.4892417,12.50894,0.03431356,-0.1058883,0.4633185,12.73379
"0.96 sec",0.7030171,0.593262,0.527936,-7.097145,0.3335933,0.3077266,-7.041912,0.6344476,0.530279,-0.00674483,0.4759944,-0.1150343,0.03014061,0.4433738,-0.08112432,0.4628895,12.72687,0.1112078,0.03570469,0.4540454,12.138
"0.97 sec",0.7030171,0.593262,0.527936,-7.097145,0.3399889,0.3130784,-7.042093,0.6442162,0.5401239,-0.02937926,0.4805498,-0.09802674,0.04177313,1.678293,2.853562,0.3352073,12.13851,0.03295854,0.08323652,0.4449345,11.24646
"0.98 sec",0.7030171,0.593262,0.527936,-7.097145,0.3464624,0.3185251,-7.042458,0.6497873,0.5490191,-0.04347518,0.4850188,-0.06110226,0.04990691,0.2481055,4.117153,0.23951,11.24855,-0.03969284,0.1285651,0.4359967,10.54475
"0.99 sec",0.7030171,0.593262,0.527936,-7.097145,0.3529701,0.3240494,-7.04293,0.6511067,0.5553161,-0.05079719,0.4893637,-0.01612599,0.04077598,-1.631303,4.571478,0.2460345,10.54593,-0.04128806,0.1358668,0.4273069,9.995264
"1 sec",0.7598998,0.6392955,0.5955222,-7.112653,0.3594735,0.3296183,-7.043448,0.6490864,0.5578312,-0.05272954,0.4936002,0.02703292,0.02214141,-1.941149,3.958793,0.3356462,9.995728,0.02931027,-0.09776352,0.5,13.88222
"1.01 sec",0.7598998,0.6392955,0.5955222,-7.112653,0.3659381,0.335196,-7.044169,0.6437749,0.5574341,-0.09235169,0.4985533,0.03456467,0.01222929,-0.3295276,-1.442877,0.517609,13.88036,0.02882645,-0.09790686,0.5,13.88222
"1.02 sec",0.7598998,0.6392955,0.5955222,-7.112653,0.3723549,0.3407682,-7.045296,0.6400685,0.5572826,-0.1330208,0.5035529,0.01105299,0.01238249,0.2300565,-2.846284,0.5349243,13.88124,0.02833738,-0.09804911,0.5,13.88222
"1.03 sec",0.7598998,0.6392955,0.5955222,-7.112653,0.3787502,0.3463486,-7.046829,0.6395448,0.5591928,-0.1737241,0.5085484,-0.01757576,0.01550575,0.3586282,-2.727875,0.5418021,13.88134,0.02897721,-0.1021861,0.5,13.3414
"1.04 sec",0.7598998,0.6392955,0.5955222,-7.112653,0.3851556,0.3519589,-7.048744,0.6419733,0.5631988,-0.2090906,0.5135441,-0.0427019,0.01898345,0.3517915,-2.233897,0.5416819,13.34185,0.06736206,-0.1668019,0.4927114,7.142426
"1.05 sec",0.7598998,0.6392955,0.5955222,-7.112653,0.3915879,0.357607,-7.050716,0.6446933,0.5665975,-0.183872,0.5184653,-0.06968529,0.02642023,1.022897,-2.866551,0.5660481,7.142722,0.2301554,0.06411732,0.4828689,5.979641
"1.06 sec",0.7598998,0.6392955,0.5955222,-7.112653,0.3980492,0.3632928,-7.052366,0.6473848,0.5708044,-0.145656,0.523302,-0.07021973,0.05565285,4.133089,1.886439,0.3808886,5.980689,0.2304626,0.06298555,0.4731956,5.979641
"1.07 sec",0.7598998,0.6392955,0.5955222,-7.112653,0.4045287,0.3690282,-7.053629,0.6480702,0.5765293,-0.1070674,0.5280946,-0.04438626,0.09890082,4.2975,2.983798,0.1854609,5.979994,0.01717184,0.1868613,0.4636104,5.913804
"1.08 sec",0.7598998,0.6392955,0.5955222,-7.112653,0.4110014,0.3748257,-7.054503,0.6460224,0.5828594,-0.06774139,0.5327669,-0.001023838,0.1133019,-0.5461199,5.094725,-0.1141814,5.914696,-0.05371815,0.2098283,0.4542657,6.583554
"1.09 sec",0.7598998,0.6392955,0.5955222,-7.112653,0.417439,0.380682,-7.055016,0.6411092,0.5878926,-0.03491852,0.5372575,0.05187862,0.0908757,-3.311211,5.209213,-0.02777957,6.582728,-0.04142461,0.1643317,0.4452846,8.387117
"1.1 sec",0.7104729,0.7125313,0.6349773,-7.148723,0.4238092,0.3865748,-7.055287,0.63263,0.5899915,-0.01975837,0.5416412,0.0939872,0.05715284,-3.314088,3.369897,0.2455007,8.386241,0.02458938,-0.09905252,0.3376635,13.88222
"1.11 sec",0.7104729,0.7125313,0.6349773,-7.148723,0.4300616,0.3924683,-7.055671,0.6180664,0.5883266,-0.05828409,0.5450682,0.09023268,0.03509704,-1.411193,-2.869322,0.4392068,13.88194,0.02425033,-0.09913582,0.3308095,13.88222
"1.12 sec",0.7104729,0.7125313,0.6349773,-7.148723,0.4361843,0.3983419,-7.056455,0.6073489,0.5866635,-0.09857346,0.5483969,0.05210456,0.02609792,-0.5504,-4.254701,0.4427239,13.87972,0.02392074,-0.09921561,0.324152,13.88222
"1.13 sec",0.7104729,0.7125313,0.6349773,-7.148723,0.4422264,0.4042094,-7.057643,0.6019226,0.5872728,-0.1391778,0.5516491,0.01068881,0.0228248,-0.1759835,-3.856127,0.4126102,13.88159,0.02359848,-0.09929252,0.3176477,13.88222
"1.14 sec",0.7104729,0.7125313,0.6349773,-7.148723,0.4482384,0.4100959,-7.059238,0.6011532,0.5904296,-0.1798553,0.5548307,-0.02368242,0.02191348,-0.02382454,-2.979186,0.3829966,13.88084,-0.03398123,-0.06399139,0.3112844,13.84632
"1.15 sec",0.7104729,0.7125313,0.6349773,-7.148723,0.4542612,0.416024,-7.061238,0.6039208,0.5953164,-0.2201076,0.5579532,-0.04503809,0.01520328,-1.058387,-1.453622,0.3339339,13.85781,-0.1310969,-0.03052213,0.3050394,10.53988
"1.16 sec",0.7104729,0.7125313,0.6349773,-7.148723,0.4603197,0.4219951,-7.063483,0.608063,0.5985817,-0.2281228,0.5610137,-0.05146516,-0.007828931,-3.012931,-0.06156208,0.3043204,10.54244,-0.2326695,-0.05410745,0.2989185,5.979641
"1.17 sec",0.7104729,0.7125313,0.6349773,-7.148723,0.4664173,0.4279842,-7.065584,0.6116223,0.5988489,-0.1908796,0.5640073,-0.05206144,-0.05091314,-4.958374,-0.07153257,0.2954008,5.98006,-0.1505555,0.08116774,0.2929312,5.895886
"1.18 sec",0.7104729,0.7125313,0.6349773,-7.148723,0.4725561,0.4339641,-7.067297,0.616213,0.5967246,-0.1515381,0.5669131,-0.03681999,-0.09025282,-3.033496,2.486551,0.5149902,5.896387,-0.05128512,0.2332968,0.2871197,5.979641
"1.19 sec",0.7104729,0.7125313,0.6349773,-7.148723,0.4787399,0.4399108,-7.068618,0.620227,0.5922778,-0.1129067,0.5697604,0.008729073,-0.1026561,0.03793439,5.657859,0.8713446,5.9792,-0.05062666,0.2334381,0.2814251,5.979641
"1.2 sec",0.7158422,0.7725489,0.6959381,-7.161831,0.4849514,0.4458036,-7.069554,0.6215673,0.5860228,-0.07425182,0.5725952,0.06679579,-0.09631126,0.9887817,5.542017,0.8204331,5.97777,0.02151713,-0.09976277,0.286494,13.88222
"1.21 sec",0.7158422,0.7725489,0.6959381,-7.161831,0.4911568,0.4515842,-7.070476,0.619045,0.570124,-0.1119941,0.5754673,0.07860569,-0.07693797,2.450064,-1.881569,0.1393111,13.88023,0.02123098,-0.09982387,0.2807497,13.88222
"1.22 sec",0.7158422,0.7725489,0.6959381,-7.161831,0.4973326,0.4572193,-7.071796,0.6164147,0.557772,-0.1521307,0.5782385,0.04739483,-0.05175384,2.417995,-3.834969,0.07736403,13.88174,0.02248353,-0.1071986,0.2752074,12.93843
"1.23 sec",0.7158422,0.7725489,0.6959381,-7.161831,0.5034937,0.4627609,-7.073475,0.6162703,0.5514371,-0.1834902,0.5809481,0.008022211,-0.02958979,1.965696,-3.834774,0.1578639,12.94051,0.03935619,-0.1910666,0.2697883,7.29746
"1.24 sec",0.7158422,0.7725489,0.6959381,-7.161831,0.509663,0.4682691,-7.075198,0.6179119,0.5507279,-0.1597825,0.5836056,-0.03654276,-0.0106172,1.770638,-4.67603,0.2157279,7.297836,0.04741943,-0.2340989,0.2644731,5.979641
"1.25 sec",0.7158422,0.7725489,0.6959381,-7.161831,0.5158562,0.4737839,-7.076608,0.6210321,0.5526385,-0.1216984,0.5862115,-0.08564238,0.005939235,1.529585,-4.838803,0.2884946,5.980607,0.04681481,-0.2342184,0.2592614,5.979641
"1.26 sec",0.7158422,0.7725489,0.6959381,-7.161831,0.5220899,0.4793296,-7.077631,0.6259976,0.556868,-0.0830317,0.5887765,-0.1299668,0.01909179,1.157185,-3.94301,0.3301294,5.984014,0.02618228,-0.07720275,0.2541314,5.829356
"1.27 sec",0.7158422,0.7725489,0.6959381,-7.161831,0.5283799,0.4849261,-7.07826,0.6320637,0.5625612,-0.04266753,0.5913125,-0.1458635,0.02617946,0.4319595,0.08957908,0.2491634,5.830736,-0.03561188,0.1822596,0.2490594,7.660823
"1.28 sec",0.7158422,0.7725489,0.6959381,-7.161831,0.5347382,0.4905889,-7.078571,0.6392821,0.5697049,-0.02002096,0.593793,-0.1071878,0.02122171,-1.046568,6.254855,0.111595,7.659935,-0.02952155,0.1528232,0.2440984,9.124005
"1.29 sec",0.7158422,0.7725489,0.6959381,-7.161831,0.5411587,0.496314,-7.078732,0.6441026,0.5746543,-0.01250604,0.5961966,-0.04201736,0.009401248,-1.191263,6.394421,0.1797639,9.123146,-0.02647027,0.1387084,0.2392912,10.04935
"1.3 sec",0.7557976,0.8287936,0.7670829,-7.145921,0.5476071,0.502069,-7.078866,0.6449147,0.575662,-0.0146405,0.5985594,0.01470863,-0.001427493,-0.9564537,4.919184,0.2438149,10.04657,0.04394574,-0.2347638,0.3144763,5.979641
"1.31 sec",0.7557976,0.8287936,0.7670829,-7.145921,0.5540513,0.5078212,-7.078831,0.643964,0.5748107,0.02263455,0.6016592,0.01311188,-0.001453364,0.6338758,-3.594308,0.3081888,5.981715,0.04322451,-0.2348953,0.3082768,5.979641
"1.32 sec",0.7557976,0.8287936,0.7670829,-7.145921,0.5604911,0.5135699,-7.078413,0.6443564,0.5752723,0.06094737,0.6047239,-0.03583182,0.007261395,0.9994354,-5.544286,0.3455865,5.981026,0.04251102,-0.2350232,0.3021473,5.979641
"1.33 sec",0.7557976,0.8287936,0.7670829,-7.145921,0.5669463,0.5193344,-7.077612,0.6470517,0.5780247,0.09938274,0.6077222,-0.08998929,0.01683599,0.9191053,-5.06797,0.3840009,5.980767,0.03679394,-0.2064568,0.2961508,6.794821
"1.34 sec",0.7557976,0.8287936,0.7670829,-7.145921,0.5734422,0.5251404,-7.076463,0.6524764,0.5835235,0.1301899,0.6106708,-0.1318723,0.02410612,0.6204028,-3.384394,0.3742746,6.793635,0.01899129,-0.1078042,0.2902535,12.946
"1.35 sec",0.7557976,0.8287936,0.7670829,-7.145921,0.5800298,0.5310395,-7.075296,0.6654401,0.5966712,0.1017487,0.6135733,-0.1480035,0.02673951,0.07909653,-0.3242394,0.2958518,12.94562,0.05321835,-0.04998435,0.2844485,13.84687
"1.36 sec",0.7557976,0.8287936,0.7670829,-7.145921,0.5867557,0.5370798,-7.074471,0.6795095,0.6113474,0.06311429,0.6164224,-0.1384446,0.03003099,0.5520606,1.7912,0.2284566,13.84437,0.1005909,0.01722003,0.2787503,13.88222
"1.37 sec",0.7557976,0.8287936,0.7670829,-7.145921,0.5936111,0.543264,-7.074037,0.6908875,0.6253577,0.02358557,0.619228,-0.1103744,0.04112242,1.492286,3.377418,0.1407441,13.88167,-0.01685113,0.1006532,0.2731391,13.88222
"1.38 sec",0.7557976,0.8287936,0.7670829,-7.145921,0.6005572,0.5495813,-7.074001,0.6974862,0.6375201,-0.01643445,0.6219658,-0.06700563,0.04255933,-0.7359558,4.797872,0.06671084,13.87998,-0.01675486,0.1017894,0.2676636,13.73402
"1.39 sec",0.7557976,0.8287936,0.7670829,-7.145921,0.6075448,0.5559989,-7.07436,0.6993195,0.6451736,-0.05547289,0.6246193,-0.02060678,0.03149491,-1.288338,4.327081,0.1285198,13.73537,-0.01938256,0.119815,0.2623565,11.6812
"1.4 sec",0.6826613,0.9141158,0.8060493,-7.143651,0.6145319,0.5624659,-7.075013,0.6975972,0.6475374,-0.07466607,0.6272181,0.01986868,0.01838839,-1.26647,3.677196,0.1923093,11.68146,0.03634135,-0.2299489,0.1108863,6.131245
"1.41 sec",0.6826613,0.9141158,0.8060493,-7.143651,0.6214988,0.5689409,-7.07559,0.695944,0.6474936,-0.03927863,0.6284014,0.01127698,0.01344164,0.04541539,-3.887831,0.1631296,6.133745,0.02647041,-0.1680461,0.1085198,8.354302
"1.42 sec",0.6826613,0.9141158,0.8060493,-7.143651,0.6284558,0.5754212,-7.075904,0.6959124,0.6489236,-0.02413373,0.6294842,-0.03131107,0.01520379,0.259129,-4.307584,0.1734257,8.353998,0.02219025,-0.1416652,0.1063541,9.8972
"1.43 sec",0.6826613,0.9141158,0.8060493,-7.143651,0.6354281,0.5819297,-7.076145,0.6990088,0.6531795,-0.02446406,0.6305446,-0.06821198,0.01743188,0.1974835,-3.095393,0.159785,9.896395,-0.02556152,-0.09830846,0.1042334,10.60224
"1.44 sec",0.6826613,0.9141158,0.8060493,-7.143651,0.6424456,0.5884926,-7.076426,0.7048327,0.6595645,-0.03185039,0.6315912,-0.08900174,0.01347723,-0.7643659,-1.289923,0.1217427,10.6011,-0.129333,-0.0201646,0.1021402,10.83577
"1.45 sec",0.6826613,0.9141158,0.8060493,-7.143651,0.6495308,0.5951208,-7.076793,0.7124252,0.6657586,-0.0416033,0.6326117,-0.08818591,-0.007471168,-2.882166,1.00745,0.1078916,10.82891,-0.1312152,-0.02032354,0.1000992,10.6829
"1.46 sec",0.6826613,0.9141158,0.8060493,-7.143651,0.6566967,0.6017974,-7.077251,0.7208974,0.6689751,-0.0499794,0.6335929,-0.07464699,-0.03799827,-3.012012,1.51995,0.1553031,10.68415,-0.117314,0.003424274,0.09813678,10.37983
"1.47 sec",0.6826613,0.9141158,0.8060493,-7.143651,0.6639492,0.6084886,-7.077778,0.7295977,0.6687094,-0.05538585,0.6345516,-0.05703821,-0.06406642,-2.200106,1.828472,0.213353,10.38077,-0.02093875,0.1382136,0.09621942,10.1504
"1.48 sec",0.6826613,0.9141158,0.8060493,-7.143651,0.6712854,0.615162,-7.078348,0.7372556,0.6655579,-0.05850535,0.6355035,-0.02403917,-0.07133733,0.3107438,4.11798,0.3911912,10.15181,-0.02122701,0.1410388,0.09431565,9.949875
"1.49 sec",0.6826613,0.9141158,0.8060493,-7.143651,0.6786824,0.6217927,-7.078939,0.7415088,0.6602727,-0.059716,0.6364632,0.01825846,-0.06376756,1.023862,4.081307,0.3572458,9.952675,-0.02135499,0.1428296,0.09239626,9.827401
"1.5 sec",0.6817639,0.9835818,0.8697914,-7.16328,0.6861027,0.6283625,-7.079536,0.7419589,0.653463,-0.05967854,0.6374088,0.05561678,-0.0530884,1.041433,3.307584,0.269971,9.828281,0.01502161,-0.1009415,0.08871019,13.88222
"1.51 sec",0.6817639,0.9835818,0.8697914,-7.16328,0.693509,0.6348457,-7.080325,0.7391123,0.643373,-0.09896096,0.6382986,0.05589271,-0.03931249,1.531259,-2.204109,0.0003320449,13.88033,0.01493194,-0.1009547,0.08693051,13.88222
"1.52 sec",0.6817639,0.9835818,0.8697914,-7.16328,0.7008883,0.641241,-7.081517,0.7371004,0.6363916,-0.1394857,0.639146,0.02533357,-0.02443892,1.382596,-3.49222,-0.0009320974,13.88176,0.01484653,-0.1009673,0.08523583,13.88222
"1.53 sec",0.6817639,0.9835818,0.8697914,-7.16328,0.7082599,0.6475881,-7.083115,0.737704,0.6337223,-0.1801734,0.6399773,-0.008859543,-0.0121488,1.067017,-3.211423,0.04442225,13.88096,0.01476274,-0.1009795,0.08357322,13.88222
"1.54 sec",0.6817639,0.9835818,0.8697914,-7.16328,0.7156513,0.6539283,-7.08512,0.7409608,0.6348765,-0.2208473,0.6408,-0.03750579,-0.003071348,0.7611151,-2.49643,0.07484666,13.88144,0.02152599,-0.1483956,0.08192778,9.467464
"1.55 sec",0.6817639,0.9835818,0.8697914,-7.16328,0.723079,0.6602901,-7.087322,0.7448161,0.637818,-0.2184272,0.6416104,-0.06435026,0.004018659,0.6478807,-2.686071,0.09166005,9.46952,-0.0260722,-0.08363277,0.08030701,5.832361
"1.56 sec",0.6817639,0.9835818,0.8697914,-7.16328,0.7305434,0.6666823,-7.089316,0.7481606,0.6406825,-0.1794183,0.642413,-0.081587,0.004096413,-0.4161468,-0.9903747,0.08431169,5.834397,-0.03370794,0.2364206,0.07870185,5.979641
"1.57 sec",0.6817639,0.9835818,0.8697914,-7.16328,0.738043,0.6731034,-7.090917,0.7515349,0.6432867,-0.1409225,0.64319,-0.05008188,-0.002654701,-0.8096302,5.808533,0.09167637,5.978776,-0.03352595,0.236446,0.07714784,5.979641
"1.58 sec",0.6817639,0.9835818,0.8697914,-7.16328,0.7455662,0.6795402,-7.092135,0.7526361,0.6436079,-0.1025967,0.643935,0.01570066,-0.01076767,-0.7734452,6.790691,0.1475501,5.978708,-0.03335141,0.2364702,0.07565773,5.979641
"1.59 sec",0.6817639,0.9835818,0.8697914,-7.16328,0.7530859,0.6859663,-7.092969,0.7508412,0.6411844,-0.06420678,0.6446693,0.07931148,-0.01769685,-0.6129572,5.769487,0.1757144,5.978721,-0.02864759,0.203681,0.07418919,6.925243
"1.6 sec",0.6973374,1.056367,0.9401543,-7.163422,0.7605718,0.6923529,-7.093462,0.7459332,0.6357427,-0.0347207,0.6454001,0.1260031,-0.02235569,-0.3576918,3.701257,0.1556964,6.922636,0.02185506,-0.155742,0.1038747,9.030258
"1.61 sec",0.6973374,1.056367,0.9401543,-7.163422,0.7679913,0.6986678,-7.093762,0.7380521,0.6273685,-0.02564212,0.6464182,0.1138615,-0.0191556,0.7446489,-4.490417,0.01556984,9.029918,0.01947704,-0.1397109,0.1018386,10.05942
"1.62 sec",0.6973374,1.056367,0.9401543,-7.163422,0.7753382,0.7049059,-7.094026,0.7319517,0.6208854,-0.02746403,0.6474134,0.05927876,-0.01046935,0.898238,-5.860172,0.03757135,10.0577,0.01850871,-0.1336967,0.09984803,10.51031
"1.63 sec",0.6973374,1.056367,0.9401543,-7.163422,0.7826433,0.7110988,-7.094334,0.7297504,0.6184111,-0.03428535,0.6483886,0.004106667,-0.002075035,0.7564785,-5.027472,0.08741356,10.50955,0.01829323,-0.1330888,0.09789765,10.55942
"1.64 sec",0.6973374,1.056367,0.9401543,-7.163422,0.7899456,0.7172868,-7.094714,0.731257,0.6197371,-0.04173912,0.6493532,-0.03992547,0.004506604,0.5646603,-3.773984,0.1137124,10.55881,0.01842755,-0.1350405,0.09596848,10.40912
"1.65 sec",0.6973374,1.056367,0.9401543,-7.163422,0.7972776,0.723503,-7.095161,0.7355293,0.6239017,-0.04759251,0.6503058,-0.07206567,0.009249079,0.4004284,-2.682997,0.1199856,10.41111,0.01948008,-0.1366713,0.09406328,10.20668
"1.66 sec",0.6973374,1.056367,0.9401543,-7.163422,0.8046622,0.7297711,-7.095655,0.7416634,0.6299883,-0.05124197,0.6512434,-0.09456747,0.01263134,0.2938468,-1.849701,0.116743,10.21151,0.06277867,0.07827049,0.09218812,9.99053
"1.67 sec",0.6973374,1.056367,0.9401543,-7.163422,0.8121123,0.7361056,-7.096175,0.7481291,0.6369007,-0.05265252,0.6521705,-0.08477181,0.02006095,1.026508,2.852603,0.03603293,9.99601,-0.01887618,0.1413312,0.09033382,9.952575
"1.68 sec",0.6973374,1.056367,0.9401543,-7.163422,0.8196157,0.742505,-7.096707,0.7519696,0.6425775,-0.05384528,0.6530772,-0.04253213,0.02122016,-0.4964986,4.957303,-0.01610532,9.953259,-0.01889477,0.1424588,0.08852053,9.87552
"1.69 sec",0.6973374,1.056367,0.9401543,-7.163422,0.8271398,0.7489461,-7.097249,0.7522862,0.645034,-0.05447894,0.653945,0.006670798,0.01377451,-0.876064,4.666405,0.02214659,9.875957,-0.01886332,0.1431765,0.08678484,9.827477
"1.7 sec",0.7084353,1.126198,1.005195,-7.17776,0.8346511,0.7553942,-7.097795,0.7495053,0.6440633,-0.05461429,0.6547949,0.04860497,0.005098093,-0.8261625,3.677736,0.06635411,9.828099,0.01326745,-0.1011861,0.1072809,13.88222
"1.71 sec",0.7084353,1.126198,1.005195,-7.17776,0.8421152,0.7618139,-7.098533,0.7432989,0.6397478,-0.09408957,0.6558539,0.05168405,0.001464464,-0.04179316,-1.98914,0.1100996,13.88035,0.01316047,-0.1012001,0.1051629,13.88222
"1.72 sec",0.7084353,1.126198,1.005195,-7.17776,0.8495237,0.768194,-7.099677,0.7389274,0.6367027,-0.1347045,0.6569049,0.02277963,0.002614069,0.209427,-3.365498,0.1135761,13.8805,0.01305428,-0.1012138,0.1030608,13.88222
"1.73 sec",0.7084353,1.126198,1.005195,-7.17776,0.8569052,0.7745579,-7.101228,0.7379511,0.6366125,-0.1754166,0.6579325,-0.01044213,0.004999718,0.2466763,-3.136703,0.118341,13.88122,0.01382233,-0.1080688,0.1010056,13.00661
"1.74 sec",0.7084353,1.126198,1.005195,-7.17776,0.864293,0.7809352,-7.103144,0.7400652,0.6392715,-0.2075576,0.6589401,-0.03931826,0.007387936,0.2271154,-2.582613,0.1197133,13.00814,0.02436778,-0.1928982,0.09899044,7.320328
"1.75 sec",0.7084353,1.126198,1.005195,-7.17776,0.8717064,0.7873418,-7.105109,0.7428706,0.6422821,-0.1840023,0.6599259,-0.07161982,0.01060167,0.3799053,-3.515998,0.1353635,7.320714,0.1013627,-0.1471735,0.09701884,5.903799
"1.76 sec",0.7084353,1.126198,1.005195,-7.17776,0.879152,0.7937829,-7.106756,0.7463635,0.6461781,-0.14507,0.6608802,-0.1000486,0.02325073,1.820132,-2.250432,0.1468001,5.904712,-0.02937727,0.2369871,0.09511018,5.979641
"1.77 sec",0.7084353,1.126198,1.005195,-7.17776,0.8866338,0.8002689,-7.108013,0.7497609,0.6508821,-0.1064627,0.6618291,-0.07337684,0.02723215,-0.5693222,5.876533,-0.06668638,5.979208,-0.02915449,0.237014,0.09321237,5.979641
"1.78 sec",0.7084353,1.126198,1.005195,-7.17776,0.8941391,0.806793,-7.108886,0.7508055,0.6534297,-0.0680834,0.6627287,-0.004438599,0.01748099,-1.199621,7.261334,-0.03815783,5.978873,-0.02357896,0.192472,0.09141314,7.339681
"1.79 sec",0.7084353,1.126198,1.005195,-7.17776,0.9016389,0.813327,-7.109439,0.7486169,0.6527947,-0.04298339,0.6636057,0.05901272,0.006017935,-1.062233,5.428378,0.0555765,7.338801,-0.01950201,0.1600349,0.08965921,8.810678
"1.8 sec",0.7175098,1.194783,1.069144,-7.209935,0.9090984,0.8198357,-7.109815,0.7428889,0.6484557,-0.0323115,0.6644829,0.1010688,-0.002849546,-0.7389429,3.180512,0.09702956,8.809864,0.01228823,-0.1013093,0.1060538,13.88222
"1.81 sec",0.7175098,1.194783,1.069144,-7.209935,0.9164732,0.8262741,-7.110325,0.7321281,0.6391934,-0.07099762,0.6655329,0.0952527,-0.005161403,0.1067966,-3.103939,0.0893973,13.88194,0.01218203,-0.1013221,0.1039538,13.88222
"1.82 sec",0.7175098,1.194783,1.069144,-7.209935,0.9237512,0.832628,-7.111236,0.7241609,0.6322221,-0.1113063,0.666568,0.05504281,-0.002505839,0.3479591,-4.454813,0.09182516,13.8807,0.01207732,-0.1013346,0.1018835,13.88222
"1.83 sec",0.7175098,1.194783,1.069144,-7.209935,0.9309714,0.8389322,-7.112552,0.720608,0.6293048,-0.1519414,0.6675798,0.0119738,0.001148439,0.3552864,-4.005302,0.1057285,13.88075,0.01197496,-0.1013467,0.09986007,13.88222
"1.84 sec",0.7175098,1.194783,1.069144,-7.209935,0.9381768,0.8452268,-7.114275,0.7210811,0.6301785,-0.1926526,0.6685733,-0.02357476,0.004386057,0.2889634,-3.08287,0.1128914,13.8812,0.01187444,-0.1013585,0.09787297,13.88222
"1.85 sec",0.7175098,1.194783,1.069144,-7.209935,0.9454033,0.8515457,-7.116405,0.7246684,0.6340213,-0.2332712,0.6695496,-0.04983931,0.006849114,0.2124591,-2.19336,0.1125395,13.88136,0.05007194,-0.1166434,0.09592032,8.978013
"1.86 sec",0.7175098,1.194783,1.069144,-7.209935,0.9526681,0.8579051,-7.118707,0.7284219,0.6380836,-0.2260386,0.670504,-0.06986391,0.01303628,0.8751153,-1.777678,0.1180861,8.978446,-0.0271166,0.2372514,0.09401166,5.979641
"1.87 sec",0.7175098,1.194783,1.069144,-7.209935,0.9599658,0.8643022,-7.120783,0.7308667,0.6411285,-0.1883757,0.6714412,-0.04402871,0.01321296,-0.5544019,5.419136,0.02091231,5.980155,-0.02689631,0.237276,0.09213722,5.979641
"1.88 sec",0.7175098,1.194783,1.069144,-7.209935,0.9672781,0.8707206,-7.122475,0.7311398,0.6420785,-0.1500534,0.672339,0.0189674,0.005447792,-0.8898662,6.602398,0.05316089,5.981216,-0.02668527,0.2372994,0.09034157,5.979641
"1.89 sec",0.7175098,1.194783,1.069144,-7.209935,0.9745796,0.8771344,-7.123784,0.7287228,0.6402318,-0.1116617,0.6732154,0.08123565,-0.003239287,-0.8224981,5.681088,0.1060406,5.984203,-0.02647923,0.237322,0.08858883,5.979641
"1.9 sec",0.7267061,1.269998,1.139686,-7.1964,0.9818448,0.8835169,-7.124708,0.7239783,0.6359073,-0.073007,0.6740832,0.1311178,-0.01049336,-0.6420555,4.284126,0.1313835,5.980823,0.02627522,-0.2373443,0.1052458,5.979641
"1.91 sec",0.7267061,1.269998,1.139686,-7.1964,0.9890556,0.8898485,-7.125243,0.7183371,0.6305473,-0.03419358,0.6751211,0.1121236,-0.009736862,0.537245,-6.001399,0.04459447,5.980019,0.02603115,-0.2373707,0.1031699,5.979641
"1.92 sec",0.7267061,1.269998,1.139686,-7.1964,0.9962196,0.8961356,-7.125392,0.7150018,0.6273885,0.004301046,0.6761268,0.03793741,-0.002548095,0.796663,-8.032517,0.07932589,5.980475,0.02579465,-0.237396,0.1011585,5.97964
"1.93 sec",0.7267061,1.269998,1.139686,-7.1964,1.003367,0.9024073,-7.125158,0.7150108,0.6275029,0.04261984,0.6771085,-0.03894997,0.005190787,0.7242797,-7.095762,0.135252,5.980906,0.02556377,-0.2374205,0.09919512,5.979641
"1.94 sec",0.7267061,1.269998,1.139686,-7.1964,1.01053,0.9086956,-7.12454,0.7180285,0.6305856,0.08108907,0.6780805,-0.1016636,0.01157093,0.5625877,-5.417611,0.1598203,5.980417,0.01687445,-0.157297,0.09725118,8.977246
"1.95 sec",0.7267061,1.269998,1.139686,-7.1964,1.017747,0.9150382,-7.123677,0.7257455,0.6383749,0.09086742,0.6790461,-0.1383834,0.01526593,0.2415823,-2.314839,0.1313911,8.975244,0.01143512,-0.1073262,0.09531999,13.12837
"1.96 sec",0.7267061,1.269998,1.139686,-7.1964,1.025069,0.9214879,-7.122917,0.7390831,0.6518095,0.06013196,0.6799996,-0.1476942,0.0160901,-0.005959647,0.05263269,0.09344747,13.12642,0.01542806,0.08043332,0.093413,13.85644
"1.97 sec",0.7267061,1.269998,1.139686,-7.1964,1.03253,0.9280763,-7.122509,0.7524585,0.6654831,0.02118754,0.6809343,-0.1208435,0.01590858,-0.004268549,4.344837,0.02355815,13.85547,-0.01062282,0.1014968,0.09154356,13.88222
"1.98 sec",0.7267061,1.269998,1.139686,-7.1964,1.040104,0.9347851,-7.122497,0.7615547,0.6754914,-0.01885428,0.6818428,-0.07071111,0.01275202,-0.4975443,5.232995,0.02324562,13.87533,-0.01125523,0.1085167,0.08972657,12.9887
"1.99 sec",0.7267061,1.269998,1.139686,-7.1964,1.047742,0.9415675,-7.122845,0.7652947,0.6802081,-0.050715,0.6827266,-0.02064098,0.007164801,-0.5681717,4.620742,0.05522768,12.99037,-0.01257021,0.1223119,0.08795905,11.53111
"2 sec",0.7364182,1.341314,1.207572,-7.193169,1.055396,0.9483742,-7.123442,0.7648661,0.6805128,-0.0682899,0.6835949,0.02178956,0.001699314,-0.5072296,3.78921,0.08049677,11.53203,0.0240377,-0.2375769,0.1056465,5.979641
"2.01 sec",0.7364182,1.341314,1.207572,-7.193169,1.063038,0.9551746,-7.123947,0.7637077,0.6796426,-0.0313922,0.6846395,0.01273081,0.001480497,0.3042645,-4.044143,0.1110631,5.980084,0.01891843,-0.1882564,0.1035573,7.519743
"2.02 sec",0.7364182,1.341314,1.207572,-7.193169,1.070675,0.9619722,-7.124143,0.7641206,0.6802967,-0.008084361,0.6856676,-0.03324361,0.005200849,0.4030831,-4.756565,0.127271,7.518949,0.01410976,-0.1414904,0.1015012,9.979711
"2.03 sec",0.7364182,1.341314,1.207572,-7.193169,1.078333,0.9687926,-7.124225,0.767845,0.6842386,-0.008995987,0.6866769,-0.0723963,0.008456615,0.2676708,-3.160803,0.1275394,9.979031,0.01247947,-0.1263426,0.09948266,11.16954
"2.04 sec",0.7364182,1.341314,1.207572,-7.193169,1.086043,0.9756676,-7.124378,0.7745299,0.6910961,-0.02187127,0.6876702,-0.09632253,0.01037067,0.1454343,-1.758505,0.1171422,11.16851,0.01207754,-0.1235094,0.09749591,11.42548
"2.05 sec",0.7364182,1.341314,1.207572,-7.193169,1.093829,0.98262,-7.124674,0.7828516,0.6995512,-0.03734173,0.6886455,-0.1093079,0.01132347,0.07404108,-0.9242694,0.1073593,11.4242,0.04269242,0.03528823,0.09554529,11.09471
"2.06 sec",0.7364182,1.341314,1.207572,-7.193169,1.101699,0.9896589,-7.125109,0.7910336,0.7081447,-0.04963631,0.6896048,-0.09763496,0.01533125,0.6201621,2.531566,0.05702388,11.09566,-0.01257088,0.1312105,0.09362686,10.76049
"2.07 sec",0.7364182,1.341314,1.207572,-7.193169,1.10964,0.9967766,-7.125652,0.7964915,0.7149161,-0.05886741,0.690542,-0.05686619,0.01550115,-0.3801424,4.934859,0.01607196,10.7612,-0.01298785,0.1369461,0.09175229,10.31344
"2.08 sec",0.7364182,1.341314,1.207572,-7.193169,1.117616,1.003945,-7.126266,0.7981614,0.718035,-0.06394483,0.6914468,-0.006762125,0.01005181,-0.6270777,4.828505,0.0416581,10.31385,-0.01330944,0.1417283,0.08994281,9.968553
"2.09 sec",0.7364182,1.341314,1.207572,-7.193169,1.125592,1.011125,-7.126915,0.796486,0.7175422,-0.06559508,0.6923329,0.03747206,0.003841585,-0.5910428,3.942849,0.07352456,9.969258,-0.01345709,0.1446937,0.08817053,9.766471
"2.1 sec",0.7460759,1.414009,1.277524,-7.216598,1.133537,1.018286,-7.127568,0.7922444,0.7141604,-0.06505462,0.693206,0.07195999,-0.001445103,-0.4703568,2.952848,0.09149321,9.772297,0.009378668,-0.1016189,0.1057398,13.88222
"2.11 sec",0.7460759,1.414009,1.277524,-7.216598,1.141421,1.025393,-7.12841,0.78457,0.7073165,-0.1043388,0.6942529,0.06822588,-0.002773957,0.08979874,-2.609838,0.09814226,13.88029,0.009272457,-0.1016286,0.1036459,13.88222
"2.12 sec",0.7460759,1.414009,1.277524,-7.216598,1.149237,1.032439,-7.129656,0.7791947,0.7024882,-0.1448656,0.6952871,0.03388375,-0.0008426093,0.2455625,-3.832376,0.09986773,13.8813,0.00916753,-0.1016381,0.1015775,13.88222
"2.13 sec",0.7460759,1.414009,1.277524,-7.216598,1.157018,1.039455,-7.131308,0.7775601,0.7012019,-0.1855641,0.696299,-0.003283784,0.001699143,0.2461947,-3.464466,0.1070196,13.8813,0.009064852,-0.1016473,0.0995537,13.88222
"2.14 sec",0.7460759,1.414009,1.277524,-7.216598,1.1648,1.046475,-7.133367,0.7793649,0.7032288,-0.2262543,0.697292,-0.03407256,0.003918384,0.198839,-2.673114,0.1096993,13.8813,0.01106291,-0.1255732,0.09756768,11.24861
"2.15 sec",0.7460759,1.414009,1.277524,-7.216598,1.172611,1.053524,-7.135708,0.7830884,0.7070725,-0.2411855,0.6982662,-0.05964738,0.005833123,0.1856794,-2.358641,0.1109391,11.24919,0.08869664,0.1087241,0.09561932,5.867576
"2.16 sec",0.7460759,1.414009,1.277524,-7.216598,1.180454,1.060609,-7.137935,0.7854872,0.7098637,-0.2030276,0.6992288,-0.05320869,0.01648529,1.620582,2.649344,0.05385302,5.868027,-0.02035566,0.2379142,0.09369409,5.979641
"2.17 sec",0.7460759,1.414009,1.277524,-7.216598,1.188314,1.06772,-7.139773,0.7861492,0.7120178,-0.1646469,0.7001771,-0.004532821,0.0212197,-0.3211233,6.144398,-0.03751814,5.978648,-0.02013217,0.2379329,0.09179759,5.979641
"2.18 sec",0.7460759,1.414009,1.277524,-7.216598,1.196168,1.074841,-7.141228,0.7842148,0.711822,-0.1263017,0.7010759,0.05798811,0.01462653,-0.862977,6.033751,0.0007690931,5.978689,-0.0199203,0.2379503,0.08999991,5.979641
"2.19 sec",0.7460759,1.414009,1.277524,-7.216598,1.203991,1.081948,-7.142299,0.7798833,0.7089618,-0.08776472,0.701952,0.1126135,0.005820329,-0.8651231,4.820942,0.05923637,5.978734,-0.01971379,0.2379672,0.08824766,5.979641
"2.2 sec",0.7561376,1.491005,1.352376,-7.223337,1.21176,1.089013,-7.142982,0.7736953,0.7038655,-0.04891684,0.7028185,0.154113,-0.001927937,-0.6974698,3.501365,0.09270728,5.978708,0.008403124,-0.1017039,0.1066383,13.88222
"2.21 sec",0.7561376,1.491005,1.352376,-7.223337,1.219418,1.095982,-7.143647,0.7579124,0.6897901,-0.08596717,0.7038738,0.1438639,-0.004544786,0.02070542,-4.044043,0.08709666,13.88013,0.008295974,-0.1017127,0.1045276,13.88222
"2.22 sec",0.7561376,1.491005,1.352376,-7.223337,1.226931,1.10282,-7.144705,0.7456478,0.6786612,-0.125682,0.7049156,0.09270172,-0.002869389,0.2388847,-5.603893,0.08727155,13.88171,0.01030339,-0.1280982,0.1024441,11.03507
"2.23 sec",0.7561376,1.491005,1.352376,-7.223337,1.234357,1.109579,-7.146029,0.7403228,0.6739121,-0.1384176,0.7059325,0.035719,2.731075e-05,0.3005303,-5.495885,0.101653,11.03571,0.01365722,-0.1723641,0.1004102,8.220319
"2.24 sec",0.7561376,1.491005,1.352376,-7.223337,1.241754,1.116314,-7.14734,0.7397146,0.6735712,-0.1232289,0.7069284,-0.01918179,0.00329198,0.3284021,-5.229012,0.1167236,8.221037,0.01526604,-0.1954036,0.09841835,7.262095
"2.25 sec",0.7561376,1.491005,1.352376,-7.223337,1.249161,1.12306,-7.148447,0.7419466,0.6759508,-0.09791417,0.7079055,-0.06888507,0.006493423,0.3077752,-4.561635,0.1271042,7.265318,0.01467268,-0.1901204,0.09646428,7.46186
"2.26 sec",0.7561376,1.491005,1.352376,-7.223337,1.256602,1.129841,-7.149307,0.7466365,0.6807418,-0.0740767,0.7088658,-0.108463,0.00911546,0.2341623,-3.362075,0.1261673,7.457081,0.0112208,0.1525743,0.0945437,8.152121
"2.27 sec",0.7561376,1.491005,1.352376,-7.223337,1.2641,1.136681,-7.149961,0.752811,0.6871108,-0.05683387,0.7098123,-0.09683266,0.01061008,0.1020999,4.175726,0.04997856,8.15123,-0.01187974,0.1575273,0.09265065,8.989707
"2.28 sec",0.7561376,1.491005,1.352376,-7.223337,1.271652,1.143579,-7.150485,0.757093,0.6919724,-0.04817128,0.7107343,-0.0439147,0.008527793,-0.3981522,5.801544,0.04191844,8.988281,-0.01099173,0.1474826,0.0908066,9.597636
"2.29 sec",0.7561376,1.491005,1.352376,-7.223337,1.27923,1.150509,-7.150954,0.7578476,0.6934216,-0.0458656,0.7116307,0.01074577,0.004029633,-0.4623123,4.983815,0.06952462,9.596931,-0.01046943,0.1421506,0.08901381,9.955679
"2.3 sec",0.7653639,1.563336,1.42311,-7.233505,1.286798,1.157436,-7.151419,0.7552118,0.6913871,-0.04716706,0.7125121,0.05385832,-0.0002214643,-0.3856537,3.654161,0.08896635,9.954957,0.007418559,-0.1017802,0.1057036,13.88222
"2.31 sec",0.7653639,1.563336,1.42311,-7.233505,1.294319,1.164322,-7.152083,0.7490957,0.6858786,-0.08663643,0.713559,0.05612617,-0.001454683,0.05030342,-2.105996,0.1024232,13.88037,0.007312187,-0.1017879,0.1036098,13.88222
"2.32 sec",0.7653639,1.563336,1.42311,-7.233505,1.301786,1.171159,-7.153152,0.7447538,0.6819524,-0.1272294,0.7145942,0.02598555,-0.0001306079,0.174947,-3.488411,0.1028024,13.88178,0.007206999,-0.1017954,0.1015395,13.88222
"2.33 sec",0.7653639,1.563336,1.42311,-7.233505,1.309226,1.177972,-7.154628,0.7437819,0.6812534,-0.1679398,0.7156073,-0.008361303,0.001702741,0.1795428,-3.237474,0.1067484,13.88089,0.009294217,-0.133355,0.09951317,10.61094
"2.34 sec",0.7653639,1.563336,1.42311,-7.233505,1.316671,1.184793,-7.156355,0.7455863,0.6831966,-0.1767494,0.7166005,-0.04098434,0.003573203,0.1880683,-3.12605,0.1103075,10.61299,0.0136978,-0.2001341,0.09752691,7.09756
"2.35 sec",0.7653639,1.563336,1.42311,-7.233505,1.32414,1.191638,-7.157996,0.748523,0.6861979,-0.1503984,0.7175729,-0.07696425,0.005768653,0.2408096,-3.748566,0.1184288,7.101904,0.079184,-0.1633297,0.09558213,6.017495
"2.36 sec",0.7653639,1.563336,1.42311,-7.233505,1.331643,1.19852,-7.159311,0.7523839,0.6903483,-0.1124814,0.7185155,-0.1079456,0.0156176,1.458672,-2.510546,0.1323902,6.021267,-0.01435551,0.2160076,0.09369695,6.584174
"2.37 sec",0.7653639,1.563336,1.42311,-7.233505,1.33919,1.205451,-7.160272,0.7566153,0.6957369,-0.07971858,0.7194524,-0.08424281,0.02021523,-0.2228548,5.568174,-0.01972055,6.583642,-0.01218692,0.1856074,0.09182298,7.647218
"2.38 sec",0.7653639,1.563336,1.42311,-7.233505,1.346769,1.21243,-7.160957,0.7587749,0.6994588,-0.05768498,0.720356,-0.02174972,0.0151793,-0.662958,6.419641,-0.007815216,7.642692,-0.01053769,0.162505,0.09001589,8.723009
"2.39 sec",0.7653639,1.563336,1.42311,-7.233505,1.354354,1.219429,-7.161477,0.7575637,0.6997601,-0.04651752,0.7212372,0.0355285,0.008492114,-0.6436187,4.992225,0.04589555,8.721333,-0.009513869,0.1486287,0.0882535,9.530979
"2.4 sec",0.6694034,1.661085,1.463145,-7.252734,1.361909,1.226413,-7.161925,0.7531148,0.696545,-0.04335462,0.7221082,0.07655546,0.002829768,-0.4963401,3.308778,0.07778025,9.530111,0.006443229,-0.1018464,-0.1054096,13.88222
"2.41 sec",0.6694034,1.661085,1.463145,-7.252734,1.369398,1.233343,-7.162549,0.744707,0.6893836,-0.0825174,0.7211522,0.07424236,0.0005168692,-0.03683355,-2.618661,-0.1036835,13.88024,0.006540429,-0.1018402,-0.1034975,13.88222
"2.42 sec",0.6694034,1.661085,1.463145,-7.252734,1.376812,1.240208,-7.163577,0.738629,0.684161,-0.1230004,0.7201155,0.03912519,0.0009808885,0.110111,-3.952605,-0.09973908,13.88175,0.006645817,-0.1018334,-0.1014242,13.88222
"2.43 sec",0.6694034,1.661085,1.463145,-7.252734,1.384184,1.247038,-7.16501,0.7364402,0.6825358,-0.1636874,0.7190979,0.0006550229,0.002245577,0.1344164,-3.595836,-0.0935995,13.88116,-0.07481607,-0.03057822,-0.09938884,13.85522
"2.44 sec",0.6694034,1.661085,1.463145,-7.252734,1.391553,1.253868,-7.166849,0.7378476,0.6836588,-0.2041291,0.7181107,-0.02304865,-0.005970176,-1.433396,-1.429021,-0.10682,13.86191,-0.1359086,-0.009215702,-0.09741461,10.41411
"2.45 sec",0.6694034,1.661085,1.463145,-7.252734,1.398946,1.260709,-7.168929,0.7411364,0.6842526,-0.2109977,0.7171428,-0.02942262,-0.02908628,-2.802961,-0.06818285,-0.09923641,10.41709,-0.2382003,-0.01659962,-0.09547877,5.979641
"2.46 sec",0.6694034,1.661085,1.463145,-7.252734,1.406373,1.267548,-7.170858,0.744364,0.683246,-0.1737332,0.716185,-0.02833816,-0.06906275,-4.624682,0.2308302,-0.08021428,5.981659,-0.2381842,-0.01683217,-0.09356308,5.979641
"2.47 sec",0.6694034,1.661085,1.463145,-7.252734,1.413839,1.274366,-7.172403,0.749189,0.6801538,-0.1351495,0.7152424,-0.025759,-0.1145484,-4.288525,0.2773778,-0.06283611,5.980122,-0.01657933,0.2382016,-0.0916779,5.979641
"2.48 sec",0.6694034,1.661085,1.463145,-7.252734,1.421359,1.281144,-7.173561,0.7546843,0.6750498,-0.09637026,0.7143131,0.006470628,-0.1270634,0.8627266,5.044981,0.5539183,5.980681,-0.01679858,0.2381865,-0.08981943,5.979641
"2.49 sec",0.6694034,1.661085,1.463145,-7.252734,1.428924,1.287862,-7.17433,0.7578343,0.6683548,-0.05759865,0.7134619,0.06177555,-0.1094192,2.299407,5.556595,0.5267838,5.9805,-0.01347705,0.1881432,-0.088117,7.542346
"2.5 sec",0.6454909,1.739286,1.522526,-7.275393,1.436505,1.294498,-7.174786,0.7577332,0.6586221,-0.03387945,0.7126373,0.1076405,-0.08542637,2.367553,3.691919,0.2328291,7.541512,0.007405841,-0.1017812,-0.1342928,13.88222
"2.51 sec",0.6454909,1.739286,1.522526,-7.275393,1.44406,1.300995,-7.175306,0.7527795,0.6410845,-0.07175654,0.7113177,0.1039017,-0.0614518,2.324797,-3.100864,-0.3280926,13.88109,0.007539912,-0.1017713,-0.1316537,13.88222
"2.52 sec",0.6454909,1.739286,1.522526,-7.275393,1.451564,1.307336,-7.176223,0.7484968,0.6281342,-0.1117942,0.7099563,0.06257769,-0.04053205,1.855225,-4.619049,-0.3232406,13.88141,0.007678217,-0.101761,-0.1289309,13.88222
"2.53 sec",0.6454909,1.739286,1.522526,-7.275393,1.45904,1.313578,-7.177544,0.7472234,0.6211598,-0.1523221,0.7086282,0.01762063,-0.02460417,1.349086,-4.191151,-0.2350659,13.88122,0.007813131,-0.1017508,-0.1262746,13.88222
"2.54 sec",0.6454909,1.739286,1.522526,-7.275393,1.466519,1.319777,-7.17927,0.749097,0.6193633,-0.1930112,0.7073416,-0.0196878,-0.01329757,0.9288837,-3.239533,-0.1709512,13.88134,0.008990575,-0.1152039,-0.1237013,12.26598
"2.55 sec",0.6454909,1.739286,1.522526,-7.275393,1.474028,1.325977,-7.181327,0.7530872,0.6212865,-0.2179005,0.706091,-0.04889563,-0.005489204,0.6361263,-2.566213,-0.1385256,12.26684,-0.1220291,-0.1067019,-0.1212003,6.272845
"2.56 sec",0.6454909,1.739286,1.522526,-7.275393,1.481575,1.332201,-7.183343,0.7563573,0.6233796,-0.1839468,0.7048861,-0.069954,-0.01547011,-2.071599,-1.693342,-0.1453519,6.273165,-0.02821499,0.2275683,-0.1187904,5.966134
"2.57 sec",0.6454909,1.739286,1.522526,-7.275393,1.489157,1.338443,-7.184991,0.7601172,0.6247663,-0.1454497,0.7036861,-0.04477432,-0.02847074,-0.7283344,5.256141,0.02898654,5.966933,-0.01930498,0.2380001,-0.1163905,5.979641
"2.58 sec",0.6454909,1.739286,1.522526,-7.275393,1.49677,1.344689,-7.186254,0.7619687,0.6239411,-0.1070993,0.7025109,0.01747644,-0.03145965,0.004001823,6.591746,0.09093891,5.977191,-0.01958204,0.2379779,-0.11404,5.979641
"2.59 sec",0.6454909,1.739286,1.522526,-7.275393,1.504387,1.350913,-7.187133,0.7609078,0.6206208,-0.06868371,0.7013731,0.0799356,-0.03008924,0.2314976,5.720614,0.05907206,5.979034,-0.01860556,0.2227709,-0.1117644,6.379622
"2.6 sec",0.6419165,1.813514,1.582499,-7.297475,1.511978,1.357092,-7.187645,0.7569609,0.6148881,-0.03388966,0.7002604,0.1284876,-0.02752583,0.281875,4.043892,0.0009914633,6.37904,0.008662814,-0.1016822,-0.1166879,13.88222
"2.61 sec",0.6419165,1.813514,1.582499,-7.297475,1.519491,1.36317,-7.188163,0.7453321,0.600621,-0.07144439,0.6990942,0.124244,-0.02182026,0.7641369,-3.427166,-0.1918103,13.88116,0.008781189,-0.1016721,-0.1143554,13.88222
"2.62 sec",0.6419165,1.813514,1.582499,-7.297475,1.526894,1.369117,-7.189076,0.7360224,0.5895494,-0.1113981,0.6979319,0.07879594,-0.0140693,0.7656242,-5.084993,-0.1875146,13.88138,0.008899143,-0.1016619,-0.112031,13.88222
"2.63 sec",0.6419165,1.813514,1.582499,-7.297475,1.534226,1.374978,-7.190392,0.7312502,0.5836498,-0.1518984,0.6967928,0.02939696,-0.007161207,0.6175704,-4.608202,-0.1464646,13.88125,0.009014748,-0.1016517,-0.1097527,13.88222
"2.64 sec",0.6419165,1.813514,1.582499,-7.297475,1.541533,1.380805,-7.192115,0.7307843,0.5824704,-0.1926049,0.6956825,-0.01158167,-0.001834996,0.4511046,-3.559646,-0.1171335,13.88133,0.0110097,-0.1227008,-0.1075321,11.5089
"2.65 sec",0.6419165,1.813514,1.582499,-7.297475,1.548851,1.386639,-7.194132,0.7332908,0.584599,-0.21015,0.694599,-0.04438483,0.002198813,0.3464564,-2.937757,-0.1015186,11.50927,0.02087759,-0.231392,-0.1053652,6.142583
"2.66 sec",0.6419165,1.813514,1.582499,-7.297475,1.556197,1.392497,-7.196063,0.7361168,0.5872906,-0.1747259,0.6935362,-0.08255245,0.006350356,0.4305887,-4.23448,-0.07908791,6.145005,0.03477619,0.1919665,-0.1032394,5.922303
"2.67 sec",0.6419165,1.813514,1.582499,-7.297475,1.563577,1.398388,-7.197615,0.739659,0.5909309,-0.1356861,0.6925048,-0.07420907,0.01211323,0.6328658,4.227378,-0.1528485,5.927406,-0.02193991,0.237776,-0.1011766,5.979641
"2.68 sec",0.6419165,1.813514,1.582499,-7.297475,1.570984,1.404311,-7.19878,0.7413035,0.5932912,-0.09729077,0.691491,-0.01427969,0.01170038,-0.5026801,6.905884,-0.1836288,5.97889,-0.02217868,0.2377543,-0.09914911,5.979641
"2.69 sec",0.6419165,1.813514,1.582499,-7.297475,1.578393,1.410244,-7.199561,0.740051,0.5929177,-0.05896131,0.6904753,0.05361332,0.004932496,-0.7590086,6.391027,-0.1330677,5.978453,-0.01925648,0.2036854,-0.09711778,6.961186
