Time,Roll,Pitch,Data,Yaw,x,y,z,roll,pitch,yaw,desired x,desired y,desired z,desired yaw
"0 sec",0.07209702,-0.07228513,2.776445,0.5,0,0,-7,0,0,0,0.3375166,0.1719733,-7.1015,0.4712389
"0.01 sec",0.0717539,-0.07262573,2.776444,0.5,1.13170335680479e-06,1.13295118353562e-06,-7.000168800354,0.00473965,-0.008428808,0.008384466,0.3375166,0.1719733,-7.1015,0.4712389
"0.02 sec",0.07139104,-0.07298243,2.776445,0.5,1.46039956234745e-05,1.46735746966442e-05,-7.0007438659668,0.009728186,-0.02360488,0.02336394,0.3375166,0.1719733,-7.1015,0.4712389
"0.03 sec",0.07102633,-0.07333738,2.776445,0.5,6.03781081736088e-05,6.08401278441306e-05,-7.00172567367554,0.01471773,-0.03799008,0.03739883,0.3375166,0.1719733,-7.1015,0.4712389
"0.04 sec",0.07065956,-0.07369078,2.776444,0.5,0.000157703558215871,0.000159321512910537,-7.00311231613159,0.01971122,-0.04938135,0.04833391,0.3375166,0.1719733,-7.1015,0.4712389
"0.05 sec",0.07029082,-0.07404253,2.776444,0.5,0.000321772618917748,0.00032584514701739,-7.00490283966064,0.02470787,-0.05767507,0.05610422,0.3375166,0.1719733,-7.1015,0.4712389
"0.06 sec",0.06992018,-0.07439256,2.776445,0.5,0.000563497946131974,0.00057186622871086,-7.00709629058838,0.02970633,-0.06344487,0.06130621,0.3375166,0.1719733,-7.1015,0.4712389
"0.07 sec",0.1273531,-0.137692,1.519102,0.5,0.000890298746526241,0.000905294378753752,-7.00969171524048,0.03470569,-0.06736399,0.0646254,0.3375166,0.1719733,-7.1015,0.4712389
"0.08 sec",0.1611614,-0.1769428,1.195928,0.5,0.00128792144823819,0.00131166668143123,-7.01239061355591,0.03970134,-0.07734482,0.0733643,0.3375166,0.1719733,-7.1015,0.4712389
"0.09 sec",0.1602822,-0.1777381,1.195928,0.5,0.00173630274366587,0.00177029985934496,-7.01478815078735,0.04468497,-0.09685177,0.09053425,0.3375166,0.1719733,-7.1015,0.4712389
"0.1 sec",0.1594,-0.1785281,1.195928,0.5,0.00223987619392574,0.00228560110554099,-7.01679706573486,0.04966396,-0.1187177,0.1095362,0.3558912,0.1660773,-7.060358,0.4337311
"0.11 sec",0.1585128,-0.1793145,1.195928,0.5,0.00281033245846629,0.00286950962617993,-7.0184154510498,0.05464912,-0.1371965,0.1252294,0.3558912,0.1660773,-7.060358,0.4337311
"0.12 sec",0.1576205,-0.1800974,1.195928,0.5,0.00345750735141337,0.00353220547549427,-7.01964092254639,0.059641,-0.1511533,0.1366588,0.3558912,0.1660773,-7.060358,0.4337311
"0.13 sec",0.1567237,-0.1808763,1.195928,0.5,0.00418868009001017,0.00428134482353926,-7.02047061920166,0.06463721,-0.1611174,0.1443589,0.3558912,0.1660773,-7.060358,0.4337311
"0.14 sec",0.1558226,-0.181651,1.195928,0.5,0.00500888656824827,0.00512231234461069,-7.02090358734131,0.06963565,-0.1680353,0.1492239,0.3558912,0.1660773,-7.060358,0.4337311
"0.15 sec",0.1549175,-0.1824211,1.195928,0.5,0.00592146534472704,0.00605874182656407,-7.02093839645386,0.07463511,-0.1727983,0.1520847,0.3558912,0.1660773,-7.060358,0.4337311
"0.16 sec",0.1540086,-0.1831867,1.195928,0.5,0.00692856917157769,0.00709301838651299,-7.02057456970215,0.07963498,-0.1761061,0.1535899,0.3558912,0.1660773,-7.060358,0.4337311
"0.17 sec",0.1530959,-0.1839475,1.195928,0.5,0.00803155358880758,0.00822667498141527,-7.01981163024902,0.084635,-0.1784615,0.1542045,0.3558912,0.1660773,-7.060358,0.4337311
"0.18 sec",0.0315933,-0.09316886,2.227499,0.5,0.00923126190900803,0.0094606839120388,-7.01864910125732,0.08963508,-0.1802073,0.1542456,0.3558912,0.1660773,-7.060358,0.4337311
"0.19 sec",-0.04157307,-0.06867123,2.77092,0.5,0.0105671668425202,0.010835493914783,-7.01732540130615,0.09462694,-0.1708911,0.139902,0.3558912,0.1660773,-7.060358,0.4337311
"0.2 sec",-0.1840705,-0.1529475,1.195928,0.5,0.0120934629812837,0.0123992217704654,-7.01623392105103,0.09958991,-0.1498801,0.1058547,0.3747928,0.1573962,-7.051156,0.3803097
"0.21 sec",-0.1517041,-0.1241597,1.454316,0.5,0.0137615753337741,0.0140881221741438,-7.01515436172485,0.104553,-0.137157,0.0499803,0.3747928,0.1573962,-7.051156,0.3803097
"0.22 sec",-0.08148136,-0.06552653,2.711169,0.5,0.0155162764713168,0.0158178843557835,-7.01374673843384,0.1095389,-0.1327556,-0.009320008,0.3747928,0.1573962,-7.051156,0.3803097
"0.23 sec",-0.07987905,-0.06357672,2.776444,0.5,0.0174061544239521,0.017549641430378,-7.01237487792969,0.1145204,-0.1227424,-0.04737893,0.3747928,0.1573962,-7.051156,0.3803097
"0.24 sec",-0.08019481,-0.06317766,2.776444,0.5,0.0194692388176918,0.0192380361258984,-7.01138019561768,0.1195058,-0.1081492,-0.06564347,0.3747928,0.1573962,-7.051156,0.3803097
"0.25 sec",-0.08050907,-0.06277635,2.776445,0.5,0.0216916892677546,0.0208549480885267,-7.01078224182129,0.1244992,-0.09481792,-0.07409728,0.3747928,0.1573962,-7.051156,0.3803097
"0.26 sec",-0.08082159,-0.06237314,2.776445,0.5,0.0240572467446327,0.022386709228158,-7.01058101654053,0.1294968,-0.08442384,-0.07792037,0.3747928,0.1573962,-7.051156,0.3803097
"0.27 sec",-0.09330627,-0.07133219,2.415045,0.4916277,0.0265527907758951,0.0238266512751579,-7.01077795028687,0.1344959,-0.07690466,-0.07962696,0.3747928,0.1573962,-7.051156,0.3803097
"0.28 sec",-0.1089535,-0.08255859,2.077033,0.4817876,0.0291616208851337,0.0251773297786713,-7.0112886428833,0.1394159,-0.07276292,-0.08182921,0.3747928,0.1573962,-7.051156,0.3803097
"0.29 sec",-0.1204222,-0.09043701,1.886859,0.4721418,0.0318645909428596,0.0264479871839285,-7.01193857192993,0.1442388,-0.07249097,-0.08657366,0.3747928,0.1573962,-7.051156,0.3803097
"0.3 sec",0.06058277,-0.08217088,2.776444,0.4637448,0.0346510894596577,0.0276438593864441,-7.01259469985962,0.1489662,-0.07527322,-0.09376328,0.3905919,0.1701574,-7.095,0.3808386
"0.31 sec",0.06020126,-0.08245051,2.776445,0.4544643,0.0375390648841858,0.0287479422986507,-7.0134162902832,0.1536065,-0.07814534,-0.0801399,0.3905919,0.1701574,-7.095,0.3808386
"0.32 sec",0.0598262,-0.08272277,2.776444,0.4453712,0.0405503325164318,0.0297606363892555,-7.01463603973389,0.158153,-0.07992853,-0.04845644,0.3905919,0.1701574,-7.095,0.3808386
"0.33 sec",0.05945738,-0.08298795,2.776445,0.4364583,0.0436814278364182,0.0307242106646299,-7.01625728607178,0.1626095,-0.08109069,-0.01741035,0.3905919,0.1701574,-7.095,0.3808386
"0.34 sec",0.05909473,-0.0832463,2.776445,0.427722,0.0469274260103703,0.031681377440691,-7.01828098297119,0.1669776,-0.08187144,0.007300558,0.3905919,0.1701574,-7.095,0.3808386
"0.35 sec",0.08271031,-0.1178441,1.972857,0.4191597,0.0502837710082531,0.0326666012406349,-7.02070665359497,0.1712588,-0.08241356,0.02514055,0.3905919,0.1701574,-7.095,0.3808386
"0.36 sec",0.1358934,-0.1969322,1.195928,0.4107738,0.0537326298654079,0.0336970463395119,-7.02334451675415,0.1754517,-0.0868118,0.04007451,0.3905919,0.1701574,-7.095,0.3808386
"0.37 sec",0.1350908,-0.1974799,1.195928,0.402581,0.0572447218000889,0.0347706004977226,-7.02579975128174,0.1795481,-0.1034929,0.05923083,0.3905919,0.1701574,-7.095,0.3808386
"0.38 sec",0.1561463,-0.09117624,1.181218,0.3945706,0.0608114562928677,0.0358901284635067,-7.02786827087402,0.1835533,-0.1270517,0.08005509,0.3905919,0.1701574,-7.095,0.3808386
"0.39 sec",0.1746116,0.006454059,1.179967,0.3866908,0.0644424855709076,0.0370698720216751,-7.02954339981079,0.1874932,-0.1358114,0.09972803,0.3905919,0.1701574,-7.095,0.3808386
"0.4 sec",0.1327603,-0.1990427,1.195928,0.3664245,0.0681393966078758,0.0383219197392464,-7.03081941604614,0.1913797,-0.1184942,0.1190305,0.4302684,0.1806949,-7.079678,0.3745919
"0.41 sec",0.1320315,-0.1995233,1.195928,0.3590618,0.0718921646475792,0.0396562069654465,-7.03170013427734,0.1950611,-0.1126585,0.1310394,0.4302684,0.1806949,-7.079678,0.3745919
"0.42 sec",0.1313188,-0.1999895,1.195928,0.3518783,0.07569620013237,0.0410798750817776,-7.03218841552734,0.1986528,-0.1277855,0.1350143,0.4302684,0.1806949,-7.079678,0.3745919
"0.43 sec",0.1306183,-0.2004443,1.195928,0.3448337,0.0795585587620735,0.0425972267985344,-7.03228378295898,0.2021751,-0.146567,0.1355513,0.4302684,0.1806949,-7.079678,0.3745919
"0.44 sec",0.12993,-0.2008876,1.195928,0.3379276,0.0834893360733986,0.0442110300064087,-7.03198432922363,0.2056281,-0.1629033,0.1347741,0.4302684,0.1806949,-7.079678,0.3745919
"0.45 sec",0.08283409,-0.1280762,1.863061,0.3311597,0.0874976068735123,0.0459230542182922,-7.03128814697266,0.2090121,-0.1753732,0.1336109,0.4302684,0.1806949,-7.079678,0.3745919
"0.46 sec",0.01719778,-0.08117051,2.644633,0.3245302,0.0916126221418381,0.0477602034807205,-7.03034973144531,0.2123269,-0.1757543,0.1270323,0.4302684,0.1806949,-7.079678,0.3745919
"0.47 sec",-0.045587,-0.06402988,2.77055,0.3180609,0.095885768532753,0.0497742481529713,-7.02952146530151,0.2155615,-0.161073,0.1087384,0.4302684,0.1806949,-7.079678,0.3745919
"0.48 sec",-0.08413567,-0.04606523,2.774748,0.3117636,0.100337490439415,0.0519758127629757,-7.02903938293457,0.2187101,-0.1388504,0.07793356,0.4302684,0.1806949,-7.079678,0.3745919
"0.49 sec",-0.06949564,0.04529358,2.574841,0.3056157,0.104952536523342,0.0543233379721642,-7.02894449234009,0.2217841,-0.1151599,0.03983108,0.4302684,0.1806949,-7.079678,0.3745919
"0.5 sec",0.05419232,-0.0865135,2.776445,0.3112586,0.109705068171024,0.0567577108740807,-7.02919864654541,0.2247881,-0.08358344,0.005567238,0.4680583,0.200062,-7.098779,0.3804174
"0.51 sec",0.05392491,-0.08668017,2.776444,0.305075,0.114565223455429,0.0592268332839012,-7.02980184555054,0.2278799,-0.06388655,-0.005278466,0.4680583,0.200062,-7.098779,0.3804174
"0.52 sec",0.05366024,-0.08684401,2.776445,0.2989664,0.119514837861061,0.0617113187909126,-7.03080987930298,0.2309342,-0.06219643,0.002945117,0.4680583,0.200062,-7.098779,0.3804174
"0.53 sec",0.05340065,-0.08700363,2.776445,0.2929861,0.124548047780991,0.0642201155424118,-7.03222179412842,0.2339244,-0.06649166,0.01543042,0.4680583,0.200062,-7.098779,0.3804174
"0.54 sec",0.07106865,-0.1190415,2.030632,0.2871264,0.129666119813919,0.0667709931731224,-7.03403806686401,0.2368542,-0.07184373,0.02674951,0.4680583,0.200062,-7.098779,0.3804174
"0.55 sec",-0.03565012,-0.16678,1.1791,0.2813867,0.134861215949059,0.0693730711936951,-7.0360803604126,0.2397241,-0.08022032,0.03752952,0.4680583,0.200062,-7.098779,0.3804174
"0.56 sec",-0.1683406,-0.1340692,1.189334,0.2757486,0.140112444758415,0.0720186904072762,-7.0379524230957,0.2425431,-0.09597872,0.03499154,0.4680583,0.200062,-7.098779,0.3804174
"0.57 sec",-0.1500282,0.1014382,1.181273,0.2701845,0.145414009690285,0.0746966153383255,-7.03943204879761,0.2453252,-0.1108777,0.004906781,0.4680583,0.200062,-7.098779,0.3804174
"0.58 sec",-0.1213659,0.2061296,1.195928,0.264842,0.150776818394661,0.0773924216628075,-7.04052019119263,0.2479964,-0.0925618,-0.03616294,0.4680583,0.200062,-7.098779,0.3804174
"0.59 sec",-0.1023324,0.1742169,1.41126,0.2597173,0.156196132302284,0.0800808668136597,-7.04121875762939,0.2505587,-0.03671695,-0.06772386,0.4680583,0.200062,-7.098779,0.3804174
"0.6 sec",0.05172484,-0.0880086,2.776444,0.4807016,0.161648064851761,0.0827326253056526,-7.04158353805542,0.253099,0.02442851,-0.08569365,0.490907,0.2598172,-7.160007,0.4934498
"0.61 sec",0.05131195,-0.08824955,2.776445,0.4713194,0.167096495628357,0.085294209420681,-7.04199266433716,0.2577901,0.04219338,-0.07652623,0.490907,0.2598172,-7.160007,0.4934498
"0.62 sec",0.05089799,-0.08848853,2.776445,0.4619384,0.172518983483315,0.087741307914257,-7.0428032875061,0.2624806,0.02220217,-0.04869509,0.490907,0.2598172,-7.160007,0.4934498
"0.63 sec",0.05049239,-0.08872019,2.776445,0.4527709,0.177930042147636,0.0901153683662415,-7.04401922225952,0.2670644,-0.005702873,-0.02061846,0.490907,0.2598172,-7.160007,0.4934498
"0.64 sec",0.07074064,-0.01543688,2.769255,0.4437655,0.183356061577797,0.0924631878733635,-7.04564189910889,0.2715671,-0.0306558,0.001980537,0.490907,0.2598172,-7.160007,0.4934498
"0.65 sec",0.08905596,0.04989674,2.776445,0.4349036,0.188820585608482,0.0948241800069809,-7.04766941070557,0.275998,-0.04128571,0.02081276,0.490907,0.2598172,-7.160007,0.4934498
"0.66 sec",0.1164323,-0.2043174,1.194773,0.4432682,0.194330006837845,0.0972277745604515,-7.05010080337524,0.2803591,-0.03198391,0.03856557,0.4984156,0.2675821,-7.120405,0.5019932
"0.67 sec",0.1810471,0.01272791,1.181403,0.4344282,0.199863329529762,0.0996765121817589,-7.05256223678589,0.2847791,-0.04274156,0.05714937,0.4984156,0.2675821,-7.120405,0.5019932
"0.68 sec",0.2095017,0.1153874,1.195928,0.4257557,0.205410987138748,0.102165184915066,-7.05463647842407,0.2891153,-0.05243339,0.08200873,0.4984156,0.2675821,-7.120405,0.5019932
"0.69 sec",0.2099941,0.1144794,1.195928,0.4171687,0.210972875356674,0.104709185659885,-7.05632066726685,0.2934088,-0.03083883,0.112425,0.4984156,0.2675821,-7.120405,0.5019932
"0.7 sec",0.1110661,-0.2117998,1.195928,0.5,0.216532379388809,0.10732239484787,-7.05761766433716,0.2976364,0.004270716,0.1409804,0.5423927,0.3201169,-7.105868,0.5784978
"0.71 sec",0.1100213,-0.2123384,1.195928,0.5,0.222067326307297,0.11001493036747,-7.05852556228638,0.3026006,-0.001313981,0.1518717,0.5423927,0.3201169,-7.105868,0.5784978
"0.72 sec",0.108964,-0.2128768,1.195928,0.5,0.227577909827232,0.112793877720833,-7.05904388427734,0.3076108,-0.04423278,0.1470772,0.5423927,0.3201169,-7.105868,0.5784978
"0.73 sec",0.1079017,-0.2134112,1.195928,0.5,0.233087062835693,0.115664131939411,-7.0591721534729,0.3126329,-0.09047543,0.1380777,0.5423927,0.3201169,-7.105868,0.5784978
"0.74 sec",0.1068374,-0.2139398,1.195928,0.5,0.238621413707733,0.118629075586796,-7.05890893936157,0.3176517,-0.1288214,0.129323,0.5423927,0.3201169,-7.105868,0.5784978
"0.75 sec",0.07823955,-0.157812,1.61541,0.5,0.244203552603722,0.121691003441811,-7.05825281143188,0.3226637,-0.1573251,0.1221752,0.5423927,0.3201169,-7.105868,0.5784978
"0.76 sec",0.04703801,-0.0857904,2.775265,0.5,0.249861538410187,0.124867595732212,-7.05729961395264,0.3276702,-0.1707024,0.1135512,0.5423927,0.3201169,-7.105868,0.5784978
"0.77 sec",0.09000472,0.03965448,2.775407,0.4916644,0.255652070045471,0.12821738421917,-7.05642652511597,0.3326657,-0.1639312,0.1003302,0.5423927,0.3201169,-7.105868,0.5784978
"0.78 sec",0.09195619,0.04431318,2.776445,0.4818538,0.261607080698013,0.131771579384804,-7.0559344291687,0.3375709,-0.1319167,0.09088897,0.5423927,0.3201169,-7.105868,0.5784978
"0.79 sec",-0.01764796,0.08299477,2.771972,0.4722227,0.267690479755402,0.135505095124245,-7.05583143234253,0.3423865,-0.08787626,0.08813431,0.5423927,0.3201169,-7.105868,0.5784978
"0.8 sec",0.04324925,-0.09246024,2.776444,0.5,0.273847609758377,0.139392971992493,-7.05612373352051,0.3470863,-0.04381724,0.07539316,0.5856037,0.3642571,-7.133833,0.624867
"0.81 sec",0.04279005,-0.09267318,2.776444,0.5,0.28002941608429,0.143400803208351,-7.05681657791138,0.3520541,-0.02571255,0.06044391,0.5856037,0.3642571,-7.133833,0.624867
"0.82 sec",0.04232658,-0.09288529,2.776444,0.5,0.286218106746674,0.147501319646835,-7.05791330337524,0.3570567,-0.03310818,0.052379,0.5856037,0.3642571,-7.133833,0.624867
"0.83 sec",0.04186198,-0.09309512,2.776444,0.5,0.292424887418747,0.151686623692513,-7.05941438674927,0.3620601,-0.04705484,0.04790417,0.5856037,0.3642571,-7.133833,0.624867
"0.84 sec",0.04139647,-0.09330256,2.776444,0.5,0.29866898059845,0.155957356095314,-7.06131982803345,0.3670621,-0.06036541,0.04532602,0.5856037,0.3642571,-7.133833,0.624867
"0.85 sec",-0.09357653,-0.04117471,2.772083,0.2995219,0.30496820807457,0.160316839814186,-7.06362867355347,0.3720632,-0.07092232,0.0437578,0.6066239,0.3307348,-7.136391,0.5218241
"0.86 sec",-0.2186184,-0.09677516,1.195928,0.2933252,0.311336576938629,0.164766222238541,-7.06633901596069,0.3751615,-0.07249551,0.02707461,0.6066239,0.3307348,-7.136391,0.5218241
"0.87 sec",0.2189014,0.09612496,1.195928,0.4935343,0.317762732505798,0.169269427657127,-7.06907653808594,0.3780998,-0.07328683,-0.01624864,0.5856037,0.3642571,-7.133833,0.624867
"0.88 sec",0.07783497,0.1525751,1.179228,0.4838519,0.324231207370758,0.173781767487526,-7.07143020629883,0.382941,-0.05560638,-0.01830277,0.5856037,0.3642571,-7.133833,0.624867
"0.89 sec",-0.2198263,-0.09396192,1.195928,0.267957,0.330732852220535,0.178297057747841,-7.07339572906494,0.3878456,-0.01395496,0.01103785,0.6066239,0.3307348,-7.136391,0.5218241
"0.9 sec",0.0391884,-0.09424904,2.776445,0.3136678,0.337241947650909,0.182819932699203,-7.07497406005859,0.3906419,0.002806752,-0.001374061,0.6604198,0.3798413,-7.177605,0.5474758
"0.91 sec",0.03889435,-0.09437046,2.776445,0.3074227,0.34375274181366,0.187338605523109,-7.07654428482056,0.3937645,-0.01087265,-0.0177578,0.6604198,0.3798413,-7.177605,0.5474758
"0.92 sec",0.03860471,-0.09448902,2.776444,0.3012791,0.350286662578583,0.191842868924141,-7.07852077484131,0.3968363,-0.0314312,-0.0118029,0.6604198,0.3798413,-7.177605,0.5474758
"0.93 sec",-0.02846024,-0.06645665,2.769232,0.2952694,0.35686668753624,0.19634935259819,-7.08090400695801,0.3998411,-0.05015904,-0.0001096244,0.6604198,0.3798413,-7.177605,0.5474758
"0.94 sec",-0.09601983,-0.03877071,2.736888,0.2893639,0.363510340452194,0.200881347060204,-7.08369064331055,0.4027939,-0.06139946,0.003262779,0.6604198,0.3798413,-7.177605,0.5474758
"0.95 sec",-0.2214652,-0.08997608,1.195928,0.2835699,0.370229661464691,0.2054483294487,-7.08687114715576,0.4056908,-0.06265312,-0.009760272,0.6604198,0.3798413,-7.177605,0.5474758
"0.96 sec",-0.1915257,-0.0147183,1.183771,0.2778863,0.377010315656662,0.210032030940056,-7.0900707244873,0.4085327,-0.06429889,-0.04527455,0.6604198,0.3798413,-7.177605,0.5474758
"0.97 sec",-0.08653266,0.2228142,1.195928,0.2723336,0.383836537599564,0.214605897665024,-7.09288311004639,0.411309,-0.0609962,-0.08726514,0.6604198,0.3798413,-7.177605,0.5474758
"0.98 sec",-0.08593763,0.2230411,1.195928,0.2669508,0.390714406967163,0.219146966934204,-7.09530591964722,0.4140004,-0.02321817,-0.1084322,0.6604198,0.3798413,-7.177605,0.5474758
"0.99 sec",-0.08534805,0.2232641,1.195928,0.2616225,0.397629678249359,0.223634749650955,-7.09734201431274,0.4166645,0.03664515,-0.1105859,0.6604198,0.3798413,-7.177605,0.5474758
"1 sec",0.03647622,-0.09532879,2.776444,0.2848534,0.404551893472672,0.228053748607635,-7.09899091720581,0.4192956,0.09171942,-0.1062798,0.7249922,0.4297233,-7.201177,0.5617223
"1.01 sec",0.03620597,-0.09543149,2.776445,0.2791779,0.411433726549149,0.232344597578049,-7.10062265396118,0.4221334,0.09744594,-0.08660766,0.7249922,0.4297233,-7.201177,0.5617223
"1.02 sec",0.03594472,-0.09552994,2.776445,0.2736973,0.418245702981949,0.236473679542542,-7.10265016555786,0.4248737,0.06151665,-0.05654257,0.7249922,0.4297233,-7.201177,0.5617223
"1.03 sec",0.04944846,-0.1327322,2.004264,0.2683375,0.425013035535812,0.240496098995209,-7.10507917404175,0.4275536,0.01961382,-0.02919625,0.7249922,0.4297233,-7.201177,0.5617223
"1.04 sec",0.08234538,-0.2243727,1.195928,0.2630594,0.431771785020828,0.244473740458488,-7.10773134231567,0.4301926,-0.02029625,-0.006455479,0.7249922,0.4297233,-7.201177,0.5617223
"1.05 sec",0.08177026,-0.2245799,1.195928,0.257892,0.438546121120453,0.248451173305511,-7.1102123260498,0.4327763,-0.06539144,0.01532751,0.7249922,0.4297233,-7.201177,0.5617223
"1.06 sec",0.1489947,-0.08404992,1.179181,0.2528216,0.445352107286453,0.252453178167343,-7.11230945587158,0.4353116,-0.1105441,0.03510535,0.7249922,0.4297233,-7.201177,0.5617223
"1.07 sec",0.08200282,0.1499967,1.179158,0.2478076,0.452207267284393,0.256501287221909,-7.11401510238647,0.4378185,-0.1305454,0.05820089,0.7249922,0.4297233,-7.201177,0.5617223
"1.08 sec",-0.08008815,0.2251763,1.195928,0.242805,0.459115087985992,0.260611474514008,-7.11532402038574,0.4403198,-0.1004669,0.07533264,0.7249922,0.4297233,-7.201177,0.5617223
"1.09 sec",-0.07955401,0.2253628,1.195928,0.2380226,0.466056555509567,0.264785140752792,-7.11624097824097,0.4427111,-0.03342247,0.06316818,0.7249922,0.4297233,-7.201177,0.5617223
"1.1 sec",0.03401991,-0.09623036,2.776445,0.3342502,0.473000138998032,0.269000589847565,-7.11677312850952,0.444979,0.03802582,0.03157438,0.7801718,0.484652,-7.230504,0.6121041
"1.11 sec",0.03370662,-0.09634023,2.776445,0.3277326,0.479895919561386,0.273224502801895,-7.11729621887207,0.4482377,0.05946005,0.01330186,0.7801718,0.484652,-7.230504,0.6121041
"1.12 sec",0.03339074,-0.09644987,2.776445,0.3211687,0.486713021993637,0.277433097362518,-7.11822319030762,0.4515197,0.03572244,0.01160293,0.7801718,0.484652,-7.230504,0.6121041
"1.13 sec",0.03308155,-0.09655607,2.776445,0.3147509,0.49347910284996,0.28163555264473,-7.11955690383911,0.4547286,0.002516894,0.01529631,0.7801718,0.484652,-7.230504,0.6121041
"1.14 sec",0.03277831,-0.09665915,2.776445,0.3084633,0.50023227930069,0.285855412483215,-7.12129735946655,0.4578724,-0.02717577,0.01988745,0.7801718,0.484652,-7.230504,0.6121041
"1.15 sec",-0.1255185,-0.04245114,2.14145,0.09093177,0.507006347179413,0.290116310119629,-7.12344408035278,0.4609556,-0.04999426,0.02381503,0.8008322,0.4508392,-7.231905,0.5064215
"1.16 sec",-0.2261664,-0.07720385,1.195928,0.08887929,0.513821601867676,0.294428080320358,-7.12584543228149,0.4619819,-0.05990194,0.008333963,0.8008322,0.4508392,-7.231905,0.5064215
"1.17 sec",0.2262356,0.07699786,1.195928,0.2984488,0.520678222179413,0.298768758773804,-7.12811088562012,0.4628797,-0.06360848,-0.03436135,0.7801718,0.484652,-7.230504,0.6121041
"1.18 sec",0.2264568,0.07633482,1.195928,0.2926735,0.527575850486755,0.303110033273697,-7.12999200820923,0.4657673,-0.04944494,-0.03243602,0.7801718,0.484652,-7.230504,0.6121041
"1.19 sec",-0.1955603,-0.01021432,1.184641,0.07530087,0.534506976604462,0.307448953390121,-7.13148880004883,0.4687711,-0.02047543,0.01873761,0.8008322,0.4508392,-7.231905,0.5064215
"1.2 sec",0.06634746,-0.2048291,1.324748,0.1185712,0.541445732116699,0.311801254749298,-7.13259983062744,0.4696549,-0.002668689,0.0261191,0.8688414,0.5031623,-7.232538,0.5289406
"1.21 sec",0.05461331,-0.1688123,1.603249,0.1162362,0.548380732536316,0.316169202327728,-7.13335514068604,0.4708225,-0.02125376,0.01561044,0.8688414,0.5031623,-7.232538,0.5289406
"1.22 sec",0.04741634,-0.1469376,1.839817,0.1139277,0.555325567722321,0.320555865764618,-7.13385772705078,0.4719767,-0.05870704,0.0208624,0.8688414,0.5031623,-7.232538,0.5289406
"1.23 sec",0.04353814,-0.1353507,1.996605,0.1116704,0.562307000160217,0.324981689453125,-7.13423490524292,0.4731054,-0.08933511,0.02823879,0.8688414,0.5031623,-7.232538,0.5289406
"1.24 sec",-0.0006904309,-0.1085377,2.068544,0.1094464,0.569351673126221,0.329470098018646,-7.13458442687988,0.4742174,-0.1087794,0.03382279,0.8688414,0.5031623,-7.232538,0.5289406
"1.25 sec",-0.128535,-0.04142554,2.101345,0.1072552,0.576478123664856,0.334038376808167,-7.13496112823486,0.4753129,-0.1169036,0.03230324,0.8688414,0.5031623,-7.232538,0.5289406
"1.26 sec",-0.1294414,-0.04156816,2.087423,0.1051251,0.583696901798248,0.338689804077148,-7.13539218902588,0.476378,-0.1099764,0.01050213,0.8688414,0.5031623,-7.232538,0.5289406
"1.27 sec",-0.041678,0.1314686,2.057875,0.1030744,0.591012597084045,0.343402564525604,-7.13588285446167,0.4774034,-0.0944268,-0.0235179,0.8688414,0.5031623,-7.232538,0.5289406
"1.28 sec",-0.04217448,0.1335089,2.027294,0.1010816,0.598423898220062,0.348138928413391,-7.13642406463623,0.4783998,-0.05909298,-0.04453503,0.8688414,0.5031623,-7.232538,0.5289406
"1.29 sec",-0.04257202,0.1352467,2.002065,0.09909028,0.605908393859863,0.352863371372223,-7.13700342178345,0.4793954,-0.01062193,-0.05053682,0.8688414,0.5031623,-7.232538,0.5289406
"1.3 sec",0.03059748,-0.09736948,2.776445,0.07813305,0.613426089286804,0.357548236846924,-7.13760805130005,0.4803863,0.03282984,-0.05079063,0.9389658,0.5437034,-7.252346,0.5194528
"1.31 sec",0.0305204,-0.09739359,2.776444,0.07654762,0.620938420295715,0.362164050340652,-7.13841438293457,0.481179,0.03927624,-0.04072946,0.9389658,0.5437034,-7.252346,0.5194528
"1.32 sec",0.03044792,-0.09741621,2.776444,0.07505691,0.62843132019043,0.366706758737564,-7.13962554931641,0.4819244,0.01458165,-0.02368376,0.9389658,0.5437034,-7.252346,0.5194528
"1.33 sec",0.0303772,-0.09743822,2.776444,0.07360297,0.635922014713287,0.371211051940918,-7.14124345779419,0.4826513,-0.01499108,-0.007811217,0.9389658,0.5437034,-7.252346,0.5194528
"1.34 sec",0.04233526,-0.136386,1.987902,0.07216263,0.643435895442963,0.375714778900146,-7.14326810836792,0.4833715,-0.04030914,0.004588738,0.9389658,0.5437034,-7.252346,0.5194528
"1.35 sec",-0.07732815,-0.1520603,1.179088,0.07074279,0.6509889960289,0.38024428486824,-7.14551162719727,0.4840814,-0.06389259,0.01487652,0.9389658,0.5437034,-7.252346,0.5194528
"1.36 sec",-0.07008569,0.2284369,1.195928,0.06931663,0.65858119726181,0.384806096553802,-7.14757490158081,0.4847945,-0.08722361,0.009501049,0.9389658,0.5437034,-7.252346,0.5194528
"1.37 sec",-0.06993306,0.228483,1.195928,0.06796885,0.666214406490326,0.389395177364349,-7.1492486000061,0.4854684,-0.06283946,-0.008288313,0.9389658,0.5437034,-7.252346,0.5194528
"1.38 sec",-0.06979202,0.2285254,1.195928,0.06672353,0.673881471157074,0.393996596336365,-7.15053844451904,0.486091,0.001663802,-0.02583455,0.9389658,0.5437034,-7.252346,0.5194528
"1.39 sec",-0.05787915,0.1893208,1.438813,0.06548268,0.681554853916168,0.398584067821503,-7.15144443511963,0.4867115,0.06606722,-0.03987569,0.9389658,0.5437034,-7.252346,0.5194528
"1.4 sec",0.02992037,-0.09757907,2.776444,0.09143513,0.689202129840851,0.403128176927567,-7.15202283859253,0.4873438,0.1132953,-0.0487074,1.014484,0.5950563,-7.257616,0.5330613
"1.41 sec",0.02983321,-0.09760568,2.776444,0.08964604,0.69677072763443,0.407574653625488,-7.15264987945557,0.4882383,0.1094434,-0.04302811,1.014484,0.5950563,-7.257616,0.5330613
"1.42 sec",0.03745674,-0.1230631,2.205308,0.08791846,0.704236626625061,0.411900252103806,-7.15367460250854,0.4891021,0.06779435,-0.02706096,1.014484,0.5950563,-7.257616,0.5330613
"1.43 sec",0.04784701,-0.1579783,1.721927,0.08624244,0.711642563343048,0.416154712438583,-7.15496683120728,0.4899401,0.01954301,-0.01013811,1.014484,0.5950563,-7.257616,0.5330613
"1.44 sec",0.05291414,-0.1754276,1.552943,0.08459228,0.719034731388092,0.420389652252197,-7.15626573562622,0.4907652,-0.02741254,0.005608923,1.014484,0.5950563,-7.257616,0.5330613
"1.45 sec",0.05183224,-0.1723094,1.581062,0.08295912,0.726443886756897,0.424638479948044,-7.15740442276001,0.4915818,-0.06957786,0.01934344,1.014484,0.5950563,-7.257616,0.5330613
"1.46 sec",0.1351913,0.001045933,1.690922,0.08133638,0.733893513679504,0.428925961256027,-7.15834283828735,0.4923931,-0.1030271,0.03005262,1.014484,0.5950563,-7.257616,0.5330613
"1.47 sec",0.01054969,0.1188762,1.827303,0.07971281,0.741403341293335,0.433274358510971,-7.15911245346069,0.4932049,-0.1067957,0.04735111,1.014484,0.5950563,-7.257616,0.5330613
"1.48 sec",-0.04180315,0.139918,1.944308,0.07809436,0.748973608016968,0.437701612710953,-7.15977334976196,0.4940141,-0.07318879,0.0553792,1.014484,0.5950563,-7.257616,0.5330613
"1.49 sec",-0.0404674,0.1357874,2.003415,0.0765909,0.756578981876373,0.442205041646957,-7.16039037704468,0.4947659,-0.02275339,0.04305225,1.014484,0.5950563,-7.257616,0.5330613
"1.5 sec",0.02912638,-0.09781831,2.776445,0.1176964,0.764184296131134,0.446755945682526,-7.16101169586182,0.4954836,0.02425481,0.02282252,1.084198,0.6448703,-7.271178,0.5543318
"1.51 sec",0.02901457,-0.09785143,2.776444,0.1154072,0.771753370761871,0.451317936182022,-7.16183614730835,0.4966282,0.0334846,0.01227275,1.084198,0.6448703,-7.271178,0.5543318
"1.52 sec",0.0289017,-0.09788473,2.776445,0.113097,0.779275894165039,0.45587545633316,-7.16306686401367,0.4977834,0.01070828,0.01225809,1.084198,0.6448703,-7.271178,0.5543318
"1.53 sec",0.03050804,-0.1037789,2.620271,0.1108418,0.78677761554718,0.460441410541534,-7.1647047996521,0.4989109,-0.01759563,0.01549571,1.084198,0.6448703,-7.271178,0.5543318
"1.54 sec",0.05234512,-0.1795403,1.521891,0.1086324,0.794289529323578,0.465036809444427,-7.16671180725098,0.5000156,-0.04278174,0.01929371,1.084198,0.6448703,-7.271178,0.5543318
"1.55 sec",0.06638572,-0.2295219,1.195928,0.1064743,0.801829516887665,0.469670385122299,-7.16878652572632,0.5010947,-0.07136516,0.02519711,1.084198,0.6448703,-7.271178,0.5543318
"1.56 sec",0.104147,0.1375419,1.179469,0.1043741,0.809403598308563,0.474342256784439,-7.17056179046631,0.5021448,-0.1072219,0.03396494,1.084198,0.6448703,-7.271178,0.5543318
"1.57 sec",-0.06276849,0.218506,1.255658,0.1022747,0.817021310329437,0.479061365127563,-7.17194700241089,0.5031945,-0.09953989,0.04742327,1.084198,0.6448703,-7.271178,0.5543318
"1.58 sec",-0.0504548,0.1757287,1.556295,0.1002522,0.824676096439362,0.483832597732544,-7.17295551300049,0.5042058,-0.04141137,0.0432734,1.084198,0.6448703,-7.271178,0.5543318
"1.59 sec",-0.04321348,0.1507993,1.810986,0.09837842,0.832340598106384,0.488642305135727,-7.17368078231812,0.5051426,0.02248932,0.02275251,1.084198,0.6448703,-7.271178,0.5543318
"1.6 sec",0.02809012,-0.09812002,2.776445,0.1085587,0.839979588985443,0.493459284305573,-7.17426300048828,0.5060778,0.06942958,0.002919427,1.154141,0.6905789,-7.301703,0.5603572
"1.61 sec",0.02798497,-0.09814998,2.776444,0.1064121,0.847550213336945,0.498242288827896,-7.1749963760376,0.5071511,0.07096215,-0.003966761,1.154141,0.6905789,-7.301703,0.5603572
"1.62 sec",0.02788122,-0.09817941,2.776445,0.104295,0.855040073394775,0.502975523471832,-7.17613315582275,0.5082096,0.03840683,0.000122706,1.154141,0.6905789,-7.301703,0.5603572
"1.63 sec",0.0277801,-0.098208,2.776445,0.1022321,0.862483501434326,0.507683455944061,-7.17767572402954,0.5092411,0.001587165,0.006800822,1.154141,0.6905789,-7.301703,0.5603572
"1.64 sec",0.02768073,-0.09823596,2.776445,0.1002054,0.869919836521149,0.51239812374115,-7.17962598800659,0.5102544,-0.02937385,0.01296664,1.154141,0.6905789,-7.301703,0.5603572
"1.65 sec",0.01709607,-0.1473737,1.671098,0.09821093,0.877382159233093,0.517147839069366,-7.18198204040527,0.5112517,-0.05246738,0.01775596,1.154141,0.6905789,-7.301703,0.5603572
"1.66 sec",-0.06384791,0.230229,1.195928,0.0962497,0.884884834289551,0.521942317485809,-7.18448162078857,0.5122323,-0.074323,0.01994337,1.154141,0.6905789,-7.301703,0.5603572
"1.67 sec",-0.06363129,0.230288,1.195928,0.09435129,0.892424464225769,0.526773393154144,-7.18672132492065,0.5131815,-0.05142477,0.01064639,1.154141,0.6905789,-7.301703,0.5603572
"1.68 sec",-0.06342813,0.2303431,1.195928,0.09257138,0.899986386299133,0.531623899936676,-7.18857717514038,0.5140715,0.01073892,-0.006731413,1.154141,0.6905789,-7.301703,0.5603572
"1.69 sec",-0.06322876,0.2303971,1.195928,0.09082508,0.907544732093811,0.536467790603638,-7.19004964828491,0.5149446,0.07299828,-0.02321177,1.154141,0.6905789,-7.301703,0.5603572
"1.7 sec",0.02713452,-0.09838777,2.776445,0.08889997,0.915072441101074,0.541278660297394,-7.19113731384277,0.5158193,0.1231348,-0.03618244,1.222771,0.7343056,-7.338977,0.5602692
"1.71 sec",0.0270478,-0.09841158,2.776445,0.08713448,0.922513961791992,0.546000421047211,-7.19220924377441,0.516702,0.1214157,-0.0349896,1.222771,0.7343056,-7.338977,0.5602692
"1.72 sec",0.02696478,-0.09843429,2.776444,0.08544469,0.929836809635162,0.550600349903107,-7.19367694854736,0.5175469,0.07793649,-0.02253027,1.222771,0.7343056,-7.338977,0.5602692
"1.73 sec",0.02688402,-0.09845632,2.776445,0.08380151,0.937081515789032,0.555119872093201,-7.19554758071899,0.5183685,0.0299403,-0.009025346,1.222771,0.7343056,-7.338977,0.5602692
"1.74 sec",0.0268039,-0.0984781,2.776444,0.08217132,0.944295585155487,0.559607267379761,-7.19782447814941,0.5191836,-0.0100905,0.00217141,1.222771,0.7343056,-7.338977,0.5602692
"1.75 sec",0.04671314,-0.2014183,1.331342,0.08055258,0.95151948928833,0.564103305339813,-7.20050811767578,0.5199929,-0.03982422,0.01046197,1.222771,0.7343056,-7.338977,0.5602692
"1.76 sec",-0.0240366,0.2094049,1.188294,0.07896626,0.958771884441376,0.568627178668976,-7.20325517654419,0.5207861,-0.07253154,0.0185465,1.222771,0.7343056,-7.338977,0.5602692
"1.77 sec",-0.06171417,0.2308006,1.195928,0.07739615,0.966055750846863,0.573182046413422,-7.20565176010132,0.5215712,-0.06005497,0.01832769,1.222771,0.7343056,-7.338977,0.5602692
"1.78 sec",-0.06154547,0.2308449,1.195928,0.07592118,0.973363637924194,0.577762484550476,-7.2076621055603,0.5223086,-0.001038341,0.005625966,1.222771,0.7343056,-7.338977,0.5602692
"1.79 sec",-0.06138435,0.2308871,1.195928,0.07451296,0.98067033290863,0.582345962524414,-7.20928907394409,0.5230128,0.06263842,-0.01144244,1.222771,0.7343056,-7.338977,0.5602692
"1.8 sec",0.02635794,-0.09859803,2.776445,0.09401453,0.987948477268219,0.586905121803284,-7.21053171157837,0.5237166,0.1153359,-0.02653702,1.294626,0.7837889,-7.355378,0.5707239
"1.81 sec",0.02626713,-0.0986222,2.776444,0.09216976,0.995142877101898,0.591386079788208,-7.2117600440979,0.524639,0.1159525,-0.02783844,1.294626,0.7837889,-7.355378,0.5707239
"1.82 sec",0.02617838,-0.09864571,2.776444,0.0903672,1.00222110748291,0.595756530761719,-7.21338558197021,0.5255403,0.07422768,-0.01769854,1.294626,0.7837889,-7.355378,0.5707239
"1.83 sec",0.03866019,-0.1465217,1.874099,0.0886147,1.00922286510468,0.600054502487183,-7.21541404724121,0.5264165,0.02746163,-0.006007715,1.294626,0.7837889,-7.355378,0.5707239
"1.84 sec",-0.230711,-0.06205408,1.195928,-0.1306002,1.016197681427,0.604327619075775,-7.21763467788696,0.5272775,-0.01731575,0.005343869,1.314553,0.7495259,-7.354332,0.4619774
"1.85 sec",-0.2306382,-0.06232844,1.195928,-0.1282592,1.02318048477173,0.608607232570648,-7.21965026855469,0.526107,-0.0466711,-0.01598297,1.314553,0.7495259,-7.354332,0.4619774
"1.86 sec",-0.23056,-0.06262197,1.195928,-0.1182109,1.03019201755524,0.6128910779953,-7.22128248214722,0.5248543,-0.0588786,-0.0645659,1.325576,0.7566065,-7.315431,0.4657489
"1.87 sec",-0.2304863,-0.06289726,1.195928,-0.1158603,1.03725290298462,0.617159008979797,-7.22252941131592,0.523679,-0.06342208,-0.1121326,1.325576,0.7566065,-7.315431,0.4657489
"1.88 sec",0.2304134,0.06316814,1.195928,0.1011465,1.04437947273254,0.621388137340546,-7.22338771820068,0.5225222,-0.06474072,-0.1500719,1.3052,0.7916415,-7.316499,0.5730954
"1.89 sec",0.2304718,0.06295131,1.195928,0.0992943,1.05158126354218,0.625561654567719,-7.22385597229004,0.5234482,-0.05012702,-0.1239253,1.3052,0.7916415,-7.316499,0.5730954
"1.9 sec",0.06103342,-0.2309786,1.195928,0.07918882,1.05884408950806,0.629687786102295,-7.22393608093262,0.5245459,-0.02350964,-0.04658424,1.380709,0.8333423,-7.317328,0.5641403
"1.91 sec",0.06085138,-0.2310258,1.195928,0.07759857,1.06613540649414,0.633796870708466,-7.22363185882568,0.525341,-0.0325988,0.01187924,1.380709,0.8333423,-7.317328,0.5641403
"1.92 sec",0.02832789,-0.1070036,2.560818,0.07616365,1.07344210147858,0.637921333312988,-7.22294425964355,0.5260585,-0.07420256,0.03967643,1.380709,0.8333423,-7.317328,0.5641403
"1.93 sec",0.02605398,-0.09867854,2.776444,0.07467413,1.08079206943512,0.6421138048172,-7.22219371795654,0.5268033,-0.1033561,0.04869115,1.380709,0.8333423,-7.317328,0.5641403
"1.94 sec",0.02598031,-0.09869791,2.776444,0.07317877,1.08822691440582,0.646429479122162,-7.22178506851196,0.5275509,-0.1121782,0.04725214,1.380709,0.8333423,-7.317328,0.5641403
"1.95 sec",0.0259081,-0.09871683,2.776445,0.07171345,1.09576213359833,0.650879144668579,-7.22177362442017,0.5282836,-0.112289,0.04265289,1.380709,0.8333423,-7.317328,0.5641403
"1.96 sec",0.09870224,0.02596381,2.776445,0.070279,1.10340166091919,0.655458092689514,-7.22215890884399,0.5290008,-0.1096688,0.03795678,1.380709,0.8333423,-7.317328,0.5641403
"1.97 sec",0.02534978,0.06892014,2.769463,0.0688622,1.11114323139191,0.660159230232239,-7.22294282913208,0.5297092,-0.09219444,0.04261978,1.380709,0.8333423,-7.317328,0.5641403
"1.98 sec",-0.03079918,0.1184696,2.316785,0.06746984,1.11896359920502,0.664974629878998,-7.22412490844727,0.5304054,-0.05867214,0.04648778,1.380709,0.8333423,-7.317328,0.5641403
"1.99 sec",-0.03631542,0.1402134,1.960041,0.06615651,1.12681972980499,0.669878125190735,-7.22559976577759,0.5310621,-0.01753806,0.03704266,1.380709,0.8333423,-7.317328,0.5641403
"2 sec",0.02557239,-0.09880406,2.776444,-0.09451938,1.13467311859131,0.67482590675354,-7.22716617584229,0.5316884,0.02437609,0.020226,1.467507,0.8499809,-7.338236,0.4844287
"2.01 sec",-0.01607437,-0.07436521,2.770013,-0.09277606,1.14249122142792,0.679780423641205,-7.22892475128174,0.5308167,0.03222176,0.01114998,1.467507,0.8499809,-7.338236,0.4844287
"2.02 sec",-0.09872536,-0.02587548,2.776445,-0.09092867,1.15026557445526,0.684727489948273,-7.23108816146851,0.529893,0.01191324,0.00629857,1.467507,0.8499809,-7.338236,0.4844287
"2.03 sec",-0.0987021,-0.02596432,2.776444,-0.08913386,1.15802145004272,0.689672291278839,-7.23365688323975,0.5289956,-0.005623112,-0.0091958,1.467507,0.8499809,-7.338236,0.4844287
"2.04 sec",-0.1864507,-0.0496549,1.475587,-0.08737159,1.16579008102417,0.694608926773071,-7.23663282394409,0.5281145,-0.0150608,-0.03150125,1.467507,0.8499809,-7.338236,0.4844287
"2.05 sec",-0.2307094,-0.06206011,1.195928,-0.08564615,1.17358815670013,0.699525535106659,-7.23970651626587,0.5272518,-0.02290136,-0.06179034,1.467507,0.8499809,-7.338236,0.4844287
"2.06 sec",-0.1435999,0.09240911,1.179116,-0.08396745,1.18141996860504,0.704414248466492,-7.2424693107605,0.5264124,-0.03203101,-0.1007275,1.467507,0.8499809,-7.338236,0.4844287
"2.07 sec",0.2306043,0.06245573,1.195928,0.1285582,1.18929696083069,0.709260880947113,-7.24484205245972,0.5255638,-0.02276842,-0.1281004,1.447426,0.8841603,-7.337435,0.5898429
"2.08 sec",0.2306795,0.06217263,1.195928,0.1261423,1.19722151756287,0.714051246643066,-7.24682235717773,0.5267718,-0.0008883477,-0.0960698,1.447426,0.8841603,-7.337435,0.5898429
"2.09 sec",0.2307623,0.06185969,1.195928,0.1234727,1.20517456531525,0.718793988227844,-7.24841690063477,0.5281066,0.01821786,-0.02225665,1.447426,0.8841603,-7.337435,0.5898429
"2.1 sec",0.02579826,-0.09874551,2.776445,-0.0784663,1.21312510967255,0.723519802093506,-7.2496280670166,0.5293979,0.03266082,0.05017208,1.543996,0.9000725,-7.364293,0.4901648
"2.11 sec",0.0258658,-0.09872789,2.776445,-0.0770961,1.221022605896,0.728275895118713,-7.25082969665527,0.5287128,0.02414608,0.08414618,1.543996,0.9000725,-7.364293,0.4901648
"2.12 sec",0.02594182,-0.098708,2.776445,-0.07555342,1.22883605957031,0.733113527297974,-7.25243234634399,0.5279415,-0.002504414,0.08334294,1.543996,0.9000725,-7.364293,0.4901648
"2.13 sec",-0.01193892,-0.07666638,2.770334,-0.074072,1.23659491539001,0.738051772117615,-7.2544379234314,0.5272008,-0.02960083,0.07188462,1.543996,0.9000725,-7.364293,0.4901648
"2.14 sec",-0.1084655,-0.02884623,2.5257,-0.07262242,1.24433851242065,0.743095576763153,-7.25684499740601,0.526476,-0.0489773,0.05493464,1.543996,0.9000725,-7.364293,0.4901648
"2.15 sec",-0.2306164,-0.06241033,1.195928,-0.07118571,1.25210046768188,0.748233079910278,-7.25959444046021,0.5257576,-0.05486094,0.02535107,1.543996,0.9000725,-7.364293,0.4901648
"2.16 sec",-0.1571837,0.06901159,1.179311,-0.0697639,1.25989365577698,0.753419458866119,-7.26230812072754,0.5250467,-0.05553672,-0.0242263,1.543996,0.9000725,-7.364293,0.4901648
"2.17 sec",-0.06108524,0.2309651,1.195928,-0.06830955,1.26772165298462,0.758609771728516,-7.26463413238525,0.5243195,-0.04180681,-0.07142408,1.543996,0.9000725,-7.364293,0.4901648
"2.18 sec",-0.06125166,0.2309217,1.195928,-0.06685555,1.27559018135071,0.763776183128357,-7.26657104492188,0.5235925,0.002961893,-0.09167832,1.543996,0.9000725,-7.364293,0.4901648
"2.19 sec",0.2304385,0.06307492,1.195928,0.1455784,1.28348350524902,0.768894851207733,-7.26812171936035,0.5229203,0.06143306,-0.09204823,1.524054,0.9342846,-7.362306,0.5957095
"2.2 sec",0.02629853,-0.09861385,2.776445,-0.1363945,1.29137289524078,0.773950278759003,-7.26928615570068,0.5243201,0.09318694,-0.05214385,1.621898,0.9361154,-7.40438,0.4561228
"2.21 sec",0.02642072,-0.09858128,2.776445,-0.133912,1.29920828342438,0.778923809528351,-7.2704381942749,0.5230788,0.07836413,-0.008264439,1.621898,0.9361154,-7.40438,0.4561228
"2.22 sec",0.02655669,-0.09854485,2.776445,-0.1311483,1.3069589138031,0.783832132816315,-7.27199220657349,0.521697,0.03920379,0.01215546,1.621898,0.9361154,-7.40438,0.4561228
"2.23 sec",-0.08075753,-0.03703056,2.772932,-0.1284835,1.31465458869934,0.78872686624527,-7.2739520072937,0.5203646,0.0001088785,0.0213354,1.621898,0.9361154,-7.40438,0.4561228
"2.24 sec",-0.09843998,-0.02694399,2.776445,-0.1259258,1.32233488559723,0.79364424943924,-7.27631759643555,0.5190857,-0.02417284,0.01273906,1.621898,0.9361154,-7.40438,0.4561228
"2.25 sec",-0.1512783,-0.04180222,1.810054,-0.1234258,1.33003485202789,0.798591375350952,-7.27908945083618,0.5178357,-0.03308437,-0.01025344,1.621898,0.9361154,-7.40438,0.4561228
"2.26 sec",-0.1357107,0.1063178,1.179443,-0.1209652,1.33777248859406,0.803547859191895,-7.28203821182251,0.5166054,-0.03640966,-0.04079152,1.621898,0.9361154,-7.40438,0.4561228
"2.27 sec",-0.06313054,0.2304235,1.195928,-0.1185037,1.34554731845856,0.808492124080658,-7.28475999832153,0.5153747,-0.02127174,-0.07007179,1.621898,0.9361154,-7.40438,0.4561228
"2.28 sec",-0.06340808,0.2303486,1.195928,-0.1160729,1.35335183143616,0.813406348228455,-7.28709363937378,0.5141593,0.02280288,-0.08357685,1.621898,0.9361154,-7.40438,0.4561228
"2.29 sec",0.2298014,0.06539531,1.195928,0.1016463,1.361168384552,0.818270862102509,-7.28904151916504,0.5129952,0.07707235,-0.08385711,1.601908,0.9702961,-7.406437,0.5638183
"2.3 sec",0.02731881,-0.09833692,2.776445,-0.133511,1.36896979808807,0.823071777820587,-7.290602684021,0.5139426,0.1046935,-0.04578323,1.699457,0.9815701,-7.43007,0.4471871
"2.31 sec",0.02744083,-0.09830304,2.776445,-0.131025,1.37670421600342,0.827791213989258,-7.29215049743652,0.5126996,0.08655685,-0.003658331,1.699457,0.9815701,-7.43007,0.4471871
"2.32 sec",0.02757361,-0.09826598,2.776444,-0.1283186,1.38434016704559,0.832446396350861,-7.29409980773926,0.5113464,0.04481695,0.01551067,1.699457,0.9815701,-7.43007,0.4471871
"2.33 sec",0.02807926,-0.09957502,2.739096,-0.1257123,1.39191174507141,0.837088704109192,-7.29645442962646,0.5100433,0.003875742,0.02384404,1.699457,0.9815701,-7.43007,0.4471871
"2.34 sec",-0.02823509,-0.1791295,1.181366,-0.1231828,1.39946186542511,0.841756165027618,-7.29920673370361,0.5087785,-0.02897422,0.02725226,1.699457,0.9815701,-7.43007,0.4471871
"2.35 sec",-0.2294424,-0.06666446,1.195928,-0.1207332,1.40702104568481,0.846458852291107,-7.30197715759277,0.5075537,-0.06225955,0.02193832,1.699457,0.9815701,-7.43007,0.4471871
"2.36 sec",-0.1719988,0.04136032,1.180412,-0.1183783,1.41460633277893,0.851189076900482,-7.30435943603516,0.5063763,-0.08237147,-0.01294747,1.699457,0.9815701,-7.43007,0.4471871
"2.37 sec",-0.0654572,0.2297841,1.195928,-0.1159731,1.42223703861237,0.855935275554657,-7.30635356903076,0.5051736,-0.07301741,-0.05941408,1.699457,0.9815701,-7.43007,0.4471871
"2.38 sec",-0.06573369,0.2297064,1.195928,-0.1135449,1.4299201965332,0.860671579837799,-7.30795764923096,0.5039595,-0.0258443,-0.08345672,1.699457,0.9815701,-7.43007,0.4471871
"2.39 sec",0.169607,0.04974553,1.609196,0.1051666,1.43763983249664,0.865372121334076,-7.30917644500732,0.5028075,0.03876346,-0.08748938,1.679819,1.015969,-7.431875,0.5553908
"2.4 sec",0.02831394,-0.09805587,2.776445,-0.1381837,1.44536399841309,0.870008647441864,-7.31010723114014,0.5037923,0.07521512,-0.05707727,1.781469,1.02607,-7.438454,0.4347005
"2.41 sec",0.02843818,-0.09802001,2.776445,-0.1356452,1.45304751396179,0.874557256698608,-7.31113433837891,0.5025231,0.0643848,-0.01975711,1.781469,1.02607,-7.438454,0.4347005
"2.42 sec",0.03600547,-0.1235966,2.203622,-0.1328542,1.46066927909851,0.879038512706757,-7.31256484985352,0.5011276,0.02930666,0.00126797,1.781469,1.02607,-7.438454,0.4347005
"2.43 sec",0.05033633,-0.1724104,1.583886,-0.1301425,1.46825754642487,0.883501410484314,-7.31426572799683,0.4997717,-0.009454655,0.01402419,1.781469,1.02607,-7.438454,0.4347005
"2.44 sec",0.05537517,-0.1962532,1.383624,-0.1274956,1.4758460521698,0.887978792190552,-7.31594038009644,0.4984483,-0.04949736,0.02399223,1.781469,1.02607,-7.438454,0.4347005
"2.45 sec",-0.1684752,-0.06836268,1.437188,-0.1249064,1.48345792293549,0.892488956451416,-7.3173770904541,0.4971537,-0.08874583,0.03287027,1.781469,1.02607,-7.438454,0.4347005
"2.46 sec",-0.1628326,-0.03899175,1.609254,-0.1224262,1.49111330509186,0.897046983242035,-7.31853485107422,0.4959136,-0.1070783,0.01398394,1.781469,1.02607,-7.438454,0.4347005
"2.47 sec",-0.04525608,0.1519459,1.792074,-0.1199558,1.49883460998535,0.901650726795197,-7.31946659088135,0.4946784,-0.1018285,-0.02688149,1.781469,1.02607,-7.438454,0.4347005
"2.48 sec",-0.04219768,0.1409505,1.929856,-0.1174702,1.50663995742798,0.906274676322937,-7.32026052474976,0.4934356,-0.06570892,-0.05245276,1.781469,1.02607,-7.438454,0.4347005
"2.49 sec",-0.04066687,0.1352096,2.010413,-0.1150817,1.51451981067657,0.910884976387024,-7.32099914550781,0.4922414,-0.01323397,-0.05866502,1.781469,1.02607,-7.438454,0.4347005
"2.5 sec",0.06865828,-0.2288631,1.195928,-0.13638,1.52243840694427,0.915451169013977,-7.32173871994019,0.4910919,0.03255566,-0.05723553,1.865036,1.06964,-7.434198,0.4229019
"2.51 sec",0.06300468,-0.2086292,1.308944,-0.1336516,1.53036046028137,0.919967412948608,-7.32230710983276,0.4897277,0.02447757,-0.04083581,1.865036,1.06964,-7.434198,0.4229019
"2.52 sec",0.04026506,-0.1319823,2.056792,-0.1308464,1.53828287124634,0.924455642700195,-7.32251930236816,0.4883251,-0.02515052,-0.0149746,1.865036,1.06964,-7.434198,0.4229019
"2.53 sec",0.03447761,-0.11236,2.412527,-0.1281305,1.54623126983643,0.928944766521454,-7.32258176803589,0.4869672,-0.06750108,0.005717746,1.865036,1.06964,-7.434198,0.4229019
"2.54 sec",0.03371522,-0.1093554,2.477479,-0.1255313,1.55424237251282,0.933474004268646,-7.32277345657349,0.4856676,-0.09098765,0.01827766,1.865036,1.06964,-7.434198,0.4229019
"2.55 sec",-0.07234704,-0.05713059,2.379266,-0.1230089,1.56234049797058,0.938073813915253,-7.32320022583008,0.4844064,-0.1021196,0.02528351,1.865036,1.06964,-7.434198,0.4229019
"2.56 sec",-0.04251612,0.1112637,2.242738,-0.1205428,1.57053351402283,0.942756295204163,-7.32385492324829,0.4831733,-0.1009185,0.01676628,1.865036,1.06964,-7.434198,0.4229019
"2.57 sec",-0.04008657,0.1284425,2.108966,-0.1180844,1.57881844043732,0.94750839471817,-7.32467985153198,0.4819441,-0.07239213,0.0001831643,1.865036,1.06964,-7.434198,0.4229019
"2.58 sec",-0.04227953,0.1349413,2.007388,-0.1156567,1.58717203140259,0.952297151088715,-7.32561111450195,0.4807303,-0.02564355,-0.013045,1.865036,1.06964,-7.434198,0.4229019
"2.59 sec",-0.04370752,0.1389566,1.949135,-0.1132948,1.59555542469025,0.957086801528931,-7.3265905380249,0.4795493,0.01976217,-0.02272688,1.865036,1.06964,-7.434198,0.4229019
"2.6 sec",0.0307904,-0.09730882,2.776444,-0.1226416,1.60393261909485,0.961848199367523,-7.3275785446167,0.4784012,0.0568626,-0.02975832,1.944629,1.112803,-7.44978,0.4170804
"2.61 sec",0.03090942,-0.09727118,2.776445,-0.120191,1.61226856708527,0.966549932956696,-7.32875442504883,0.4771759,0.05693768,-0.02601314,1.944629,1.112803,-7.44978,0.4170804
"2.62 sec",0.03102803,-0.09723352,2.776444,-0.1177478,1.62055337429047,0.971185743808746,-7.33033418655396,0.4759543,0.02684168,-0.0137289,1.944629,1.112803,-7.44978,0.4170804
"2.63 sec",0.03188556,-0.09951801,2.711943,-0.1153467,1.62881410121918,0.97578763961792,-7.33232069015503,0.4747537,-0.006761043,-0.001152655,1.944629,1.112803,-7.44978,0.4170804
"2.64 sec",0.05952075,-0.1859462,1.45871,-0.1130062,1.63708329200745,0.980391681194305,-7.33469915390015,0.4735835,-0.03515602,0.009171966,1.944629,1.112803,-7.44978,0.4170804
"2.65 sec",-0.1823207,-0.08161564,1.18553,-0.110709,1.64537930488586,0.985019385814667,-7.33715391159058,0.4724349,-0.06662828,0.02006807,1.944629,1.112803,-7.44978,0.4170804
"2.66 sec",-0.07312685,0.2274967,1.195928,-0.1085153,1.6537082195282,0.989676773548126,-7.3392915725708,0.4713381,-0.08758799,0.003023034,1.944629,1.112803,-7.44978,0.4170804
"2.67 sec",-0.07338013,0.2274164,1.195928,-0.1062688,1.66208052635193,0.994357764720917,-7.34104108810425,0.4702148,-0.05697009,-0.02576988,1.944629,1.112803,-7.44978,0.4170804
"2.68 sec",-0.06735943,0.2076048,1.307133,-0.1040185,1.67048835754395,0.999040246009827,-7.34240627288818,0.4690897,0.00810841,-0.04401971,1.944629,1.112803,-7.44978,0.4170804
"2.69 sec",0.1288805,0.04258482,2.090784,0.1110486,1.67890381813049,1.00369596481323,-7.34341382980347,0.4680128,0.06889756,-0.05478108,1.926324,1.147955,-7.450957,0.5235371
"2.7 sec",0.03169983,-0.0970172,2.776444,0.08708572,1.68728709220886,1.00828635692596,-7.34427690505981,0.4690267,0.09569836,-0.03774045,2.007244,1.188338,-7.482131,0.5125695
"2.71 sec",0.03161623,-0.09704439,2.776445,0.08535987,1.69559097290039,1.01278793811798,-7.34536123275757,0.4698896,0.07739714,-0.01120421,2.007244,1.188338,-7.482131,0.5125695
"2.72 sec",0.03153674,-0.09707018,2.776445,0.08371943,1.70380890369415,1.01722705364227,-7.34684801101685,0.4707098,0.03761519,0.005386936,2.007244,1.188338,-7.482131,0.5125695
"2.73 sec",0.03145756,-0.09709579,2.776444,0.08208573,1.71197700500488,1.02164840698242,-7.34874105453491,0.4715267,-0.001086064,0.01563801,2.007244,1.188338,-7.482131,0.5125695
"2.74 sec",0.03137891,-0.09712117,2.776445,0.08046317,1.72013592720032,1.02608895301819,-7.35104084014893,0.472338,-0.03189359,0.02191054,2.007244,1.188338,-7.482131,0.5125695
"2.75 sec",0.1851867,0.06051187,1.46182,0.07886142,1.72831964492798,1.03057610988617,-7.35374689102173,0.4731388,-0.05422863,0.02570978,2.007244,1.188338,-7.482131,0.5125695
"2.76 sec",0.2270719,0.07445578,1.195928,0.07727069,1.73653888702393,1.03511333465576,-7.35654592514038,0.4739342,-0.0512111,0.04590677,2.007244,1.188338,-7.482131,0.5125695
"2.77 sec",0.1253611,0.1275228,1.180779,0.07563025,1.74477362632751,1.0396933555603,-7.35903072357178,0.4747544,-0.02683872,0.08427285,2.007244,1.188338,-7.482131,0.5125695
"2.78 sec",-0.07217397,0.227796,1.195928,0.07401866,1.75299954414368,1.04432427883148,-7.36112642288208,0.4755602,0.006700921,0.1122701,2.007244,1.188338,-7.482131,0.5125695
"2.79 sec",-0.0720122,0.2278464,1.195928,0.07258618,1.76119196414948,1.04901039600372,-7.36283159255981,0.4762765,0.05242011,0.1005545,2.007244,1.188338,-7.482131,0.5125695
"2.8 sec",0.03093515,-0.09726303,2.776445,-0.0730778,1.76932954788208,1.05373442173004,-7.36414957046509,0.4769109,0.1009319,0.06314897,2.100656,1.209867,-7.504293,0.440372
"2.81 sec",0.03100043,-0.0972423,2.776445,-0.07173324,1.77735352516174,1.05846500396729,-7.36545372009277,0.4762386,0.1029704,0.03703867,2.100656,1.209867,-7.504293,0.440372
"2.82 sec",-0.0150502,-0.07354367,2.7698,-0.07033366,1.78523027896881,1.06317949295044,-7.36715602874756,0.4755388,0.06448772,0.02775037,2.100656,1.209867,-7.504293,0.440372
"2.83 sec",-0.09715209,-0.03128276,2.776445,-0.06895661,1.79301011562347,1.06788742542267,-7.36926031112671,0.4748503,0.02366884,0.02015723,2.100656,1.209867,-7.504293,0.440372
"2.84 sec",-0.1871604,-0.06095389,1.447069,-0.06762475,1.80074715614319,1.07260322570801,-7.37176942825317,0.4741844,-0.003115371,0.001372033,2.100656,1.209867,-7.504293,0.440372
"2.85 sec",-0.2270424,-0.07454699,1.195928,-0.06633264,1.8084831237793,1.07732164859772,-7.37437009811401,0.4735383,-0.02042396,-0.03419889,2.100656,1.209867,-7.504293,0.440372
"2.86 sec",-0.2269956,-0.07469193,1.195928,-0.06507427,1.81624102592468,1.08202612400055,-7.37665319442749,0.4729092,-0.03532929,-0.07980198,2.100656,1.209867,-7.504293,0.440372
"2.87 sec",-0.0729131,0.2275642,1.195928,-0.06382728,1.82403910160065,1.08669781684875,-7.37855100631714,0.4722857,-0.04766453,-0.1227668,2.100656,1.209867,-7.504293,0.440372
"2.88 sec",0.2269004,0.07498491,1.195928,0.1533161,1.83189308643341,1.09131753444672,-7.38006114959717,0.4716369,-0.02159813,-0.1385673,2.082715,1.245138,-7.501803,0.5482949
"2.89 sec",-0.05714874,0.1781599,1.521309,-0.0655219,1.83979427814484,1.09587216377258,-7.3811821937561,0.473133,0.01740288,-0.09573385,2.100656,1.209867,-7.504293,0.440372
"2.9 sec",0.07282635,-0.2275916,1.195928,-0.1346614,1.84771311283112,1.1003645658493,-7.38199424743652,0.4726701,0.05279465,-0.05242141,2.190773,1.247572,-7.502139,0.4053394
"2.91 sec",0.05104641,-0.1579547,1.712409,-0.1320133,1.85562026500702,1.10480904579163,-7.38250684738159,0.4713461,0.04107124,-0.02471517,2.190773,1.247572,-7.502139,0.4053394
"2.92 sec",0.04053139,-0.1245932,2.165496,-0.1292457,1.86351191997528,1.10922682285309,-7.38275861740112,0.4699623,-0.006929397,0.0004421263,2.190773,1.247572,-7.502139,0.4053394
"2.93 sec",-0.01858015,-0.08673792,2.334604,-0.1265848,1.87141025066376,1.11364853382111,-7.3829927444458,0.4686319,-0.04747733,0.0169747,2.190773,1.247572,-7.502139,0.4053394
"2.94 sec",-0.1148842,-0.03799805,2.343665,-0.1240381,1.87934684753418,1.11810958385468,-7.38336706161499,0.4673585,-0.07075258,0.01987088,2.190773,1.247572,-7.502139,0.4053394
"2.95 sec",-0.1194509,-0.03968845,2.253546,-0.1215605,1.8873462677002,1.1226259469986,-7.38392639160156,0.4661197,-0.07545356,0.002053994,2.190773,1.247572,-7.502139,0.4053394
"2.96 sec",-0.1256036,-0.04192681,2.142826,-0.1191107,1.89542150497437,1.12718224525452,-7.38465213775635,0.4648948,-0.06981596,-0.02686699,2.190773,1.247572,-7.502139,0.4053394
"2.97 sec",-0.04363471,0.1313843,2.050185,-0.1167048,1.90357828140259,1.13174688816071,-7.38549470901489,0.4636919,-0.06245593,-0.05467158,2.190773,1.247572,-7.502139,0.4053394
"2.98 sec",-0.0451179,0.1353461,1.989868,-0.1143388,1.91181695461273,1.13629007339478,-7.38640165328979,0.4625089,-0.03598576,-0.06764277,2.190773,1.247572,-7.502139,0.4053394
"2.99 sec",-0.04599553,0.1374729,1.9586,-0.1120502,1.92011713981628,1.14078879356384,-7.38733577728271,0.4613646,0.00540985,-0.06718659,2.190773,1.247572,-7.502139,0.4053394
"3 sec",0.03254864,-0.09673651,2.776444,0.07179111,1.92844235897064,1.14522635936737,-7.3882737159729,0.4602513,0.04393176,-0.06286078,2.257045,1.323102,-7.507333,0.4961468
"3.01 sec",0.03248838,-0.09675671,2.776445,0.07054359,1.93675541877747,1.1495772600174,-7.38940095901489,0.460875,0.04692455,-0.04907924,2.257045,1.323102,-7.507333,0.4961468
"3.02 sec",0.04302929,-0.128626,2.092346,0.06918627,1.9450432062149,1.15384042263031,-7.39093255996704,0.4615537,0.01978384,-0.02886489,2.257045,1.323102,-7.507333,0.4961468
"3.03 sec",0.05670098,-0.1702957,1.58509,0.0678708,1.95332467556,1.15805959701538,-7.39270734786987,0.4622114,-0.01515153,-0.009376015,2.257045,1.323102,-7.507333,0.4961468
"3.04 sec",0.06244878,-0.1882056,1.436592,0.06658161,1.96162176132202,1.16227579116821,-7.39442729949951,0.462856,-0.05305571,0.008515328,2.257045,1.323102,-7.507333,0.4961468
"3.05 sec",0.1797114,0.06062556,1.501096,0.06530857,1.96995162963867,1.16651511192322,-7.39592218399048,0.4634925,-0.08985228,0.02417471,2.257045,1.323102,-7.507333,0.4961468
"3.06 sec",0.163002,0.0547568,1.653751,0.06400281,1.97832989692688,1.17079937458038,-7.39716672897339,0.4641454,-0.09155404,0.05018955,2.257045,1.323102,-7.507333,0.4961468
"3.07 sec",0.1488343,0.04980452,1.810251,0.06263155,1.98675262928009,1.17515087127686,-7.39821290969849,0.4648311,-0.06305245,0.08162273,2.257045,1.323102,-7.507333,0.4961468
"3.08 sec",0.003735419,0.1148739,1.921202,0.06129813,1.99519181251526,1.17958927154541,-7.39913702011108,0.4654978,-0.03175163,0.1056397,2.257045,1.323102,-7.507333,0.4961468
"3.09 sec",-0.04431616,0.134542,2.004017,0.06007022,2.00361371040344,1.184126496315,-7.40000677108765,0.4661117,0.001499626,0.104663,2.257045,1.323102,-7.507333,0.4961468
"3.1 sec",0.03192812,-0.09694251,2.776445,-0.06274837,2.01198887825012,1.18875253200531,-7.40086984634399,0.466669,0.03629635,0.07905512,2.351557,1.346667,-7.517278,0.4352948
"3.11 sec",0.03198377,-0.09692422,2.776444,-0.06159842,2.02028608322144,1.1934427022934,-7.40193319320679,0.466094,0.03936602,0.05585327,2.351557,1.346667,-7.517278,0.4352948
"3.12 sec",0.03204195,-0.09690506,2.776445,-0.0603959,2.0285017490387,1.19817996025085,-7.40340042114258,0.4654927,0.01369181,0.04397147,2.351557,1.346667,-7.517278,0.4352948
"3.13 sec",-0.1141261,-0.05033906,2.088988,-0.05920577,2.03667330741882,1.20296406745911,-7.40527296066284,0.4648977,-0.01591134,0.0379484,2.351557,1.346667,-7.517278,0.4352948
"3.14 sec",-0.1912204,-0.06442793,1.412146,-0.05805612,2.04483962059021,1.20779621601105,-7.40738868713379,0.4643228,-0.03553237,0.017903,2.351557,1.346667,-7.517278,0.4352948
"3.15 sec",-0.2217608,-0.07519808,1.220011,-0.05693793,2.05302548408508,1.21265614032745,-7.40940618515015,0.4637637,-0.04618596,-0.02311172,2.351557,1.346667,-7.517278,0.4352948
"3.16 sec",-0.1514495,0.0427694,1.299895,-0.05583936,2.06124520301819,1.21751618385315,-7.41110277175903,0.4632145,-0.05433591,-0.07228668,2.351557,1.346667,-7.517278,0.4352948
"3.17 sec",-0.05847207,0.1759385,1.535133,-0.05470371,2.06951451301575,1.22235095500946,-7.41244459152222,0.4626466,-0.04722551,-0.1086125,2.351557,1.346667,-7.517278,0.4352948
"3.18 sec",-0.05131695,0.1538942,1.751883,-0.053581,2.07784509658813,1.22713208198547,-7.41350650787354,0.4620853,-0.01193091,-0.1174635,2.351557,1.346667,-7.517278,0.4352948
"3.19 sec",-0.04703528,0.1407018,1.914165,-0.05254996,2.08622550964355,1.23183214664459,-7.41440105438232,0.4615698,0.03319217,-0.1078744,2.351557,1.346667,-7.517278,0.4352948
"3.2 sec",0.03246947,-0.09676304,2.776445,0.05550587,2.09462285041809,1.23643124103546,-7.41522264480591,0.4610708,0.06928878,-0.09334225,2.421639,1.410364,-7.544072,0.4888238
"3.21 sec",0.03242148,-0.09677909,2.776445,0.05451256,2.10299777984619,1.24090075492859,-7.41621780395508,0.4615675,0.06682432,-0.07050896,2.421639,1.410364,-7.544072,0.4888238
"3.22 sec",0.03237309,-0.09679525,2.776445,0.05351096,2.11133623123169,1.24524343013763,-7.41761302947998,0.4620683,0.03409188,-0.04331733,2.421639,1.410364,-7.544072,0.4888238
"3.23 sec",0.03232551,-0.0968111,2.776445,0.05252647,2.1196596622467,1.24951088428497,-7.41941356658936,0.4625605,-0.001674237,-0.02008697,2.421639,1.410364,-7.544072,0.4888238
"3.24 sec",0.03227735,-0.09682712,2.776445,0.05153018,2.12799739837646,1.25375354290009,-7.42162084579468,0.4630587,-0.03140006,-0.002619739,2.421639,1.410364,-7.544072,0.4888238
"3.25 sec",0.1968551,0.0585926,1.33988,0.05052757,2.13637495040894,1.25801146030426,-7.42423439025879,0.46356,-0.05343989,0.009639229,2.421639,1.410364,-7.544072,0.4888238
"3.26 sec",0.2263271,0.07672422,1.195928,0.04950404,2.14479470252991,1.26230132579803,-7.42691278457642,0.4640718,-0.05068514,0.0370431,2.421639,1.410364,-7.544072,0.4888238
"3.27 sec",0.05922677,0.1610108,1.179294,0.04840809,2.15323185920715,1.26662659645081,-7.42924499511719,0.4646197,-0.02638131,0.08021354,2.421639,1.410364,-7.544072,0.4888238
"3.28 sec",-0.07452163,0.2270506,1.195928,0.04735172,2.16166162490845,1.27099990844727,-7.43118810653687,0.4651479,0.01113184,0.1027351,2.421639,1.410364,-7.544072,0.4888238
"3.29 sec",-0.07442368,0.2270823,1.195928,0.04648155,2.17005848884583,1.27542269229889,-7.43274068832397,0.465583,0.05978093,0.08567774,2.421639,1.410364,-7.544072,0.4888238
"3.3 sec",0.03199688,-0.0969199,2.776445,-0.08117187,2.17840099334717,1.27987444400787,-7.43390703201294,0.4659585,0.1076151,0.0490345,2.511242,1.430662,-7.576295,0.4253726
"3.31 sec",0.03207043,-0.09689566,2.776445,-0.07965153,2.18663048744202,1.28431916236877,-7.43505907058716,0.4651984,0.1081141,0.02584991,2.511242,1.430662,-7.576295,0.4253726
"3.32 sec",0.001134083,-0.08137922,2.771173,-0.07808173,2.19471311569214,1.28873252868652,-7.43660926818848,0.4644135,0.06821548,0.01986559,2.511242,1.430662,-7.576295,0.4253726
"3.33 sec",-0.09679531,-0.0323729,2.776445,-0.07653159,2.20269894599915,1.293128490448,-7.43856191635132,0.4636384,0.02534377,0.01680856,2.511242,1.430662,-7.576295,0.4253726
"3.34 sec",-0.09677113,-0.03244527,2.776445,-0.07503986,2.21064209938049,1.29752719402313,-7.44091939926147,0.4628925,-0.003150737,0.001409031,2.511242,1.430662,-7.576295,0.4253726
"3.35 sec",-0.2261802,-0.07716305,1.195928,-0.07357436,2.21858716011047,1.30192828178406,-7.44368410110474,0.4621598,-0.01774966,-0.0225593,2.511242,1.430662,-7.576295,0.4253726
"3.36 sec",-0.1742928,0.03226714,1.18049,-0.07214814,2.22655606269836,1.30631828308105,-7.44648027420044,0.4614467,-0.03038624,-0.05958828,2.511242,1.430662,-7.576295,0.4253726
"3.37 sec",-0.07551575,0.226727,1.195928,-0.07071191,2.23455619812012,1.31068432331085,-7.44888877868652,0.4607286,-0.03073185,-0.09762079,2.511242,1.430662,-7.576295,0.4253726
"3.38 sec",-0.07567988,0.2266731,1.195928,-0.06925142,2.242595911026,1.31500685214996,-7.4509072303772,0.4599983,0.004100857,-0.112942,2.511242,1.430662,-7.576295,0.4253726
