Time,Roll,Pitch,Data,Yaw,x,y,z,roll,pitch,yaw,desired x,desired y,desired z,desired yaw
"0 sec",0.07209702,-0.07228513,2.776445,0.5,0,0,-7,0,0,0,0.2437599,0.3010184,-7.061348,0.8901179
"0.01 sec",0.0717539,-0.07262573,2.776444,0.5,1.13170335680479e-06,1.13295118353562e-06,-7.000168800354,0.00473965,-0.008428808,0.008384466,0.2437599,0.3010184,-7.061348,0.8901179
"0.02 sec",0.07139104,-0.07298243,2.776445,0.5,1.46039956234745e-05,1.46735746966442e-05,-7.0007438659668,0.009728186,-0.02360488,0.02336394,0.2437599,0.3010184,-7.061348,0.8901179
"0.03 sec",0.07102633,-0.07333738,2.776445,0.5,6.03781081736088e-05,6.08401278441306e-05,-7.00172567367554,0.01471773,-0.03799008,0.03739883,0.2437599,0.3010184,-7.061348,0.8901179
"0.04 sec",0.07065956,-0.07369078,2.776444,0.5,0.000157703558215871,0.000159321512910537,-7.00311231613159,0.01971122,-0.04938135,0.04833391,0.2437599,0.3010184,-7.061348,0.8901179
"0.05 sec",0.07029082,-0.07404253,2.776444,0.5,0.000321772618917748,0.00032584514701739,-7.00490283966064,0.02470787,-0.05767507,0.05610422,0.2437599,0.3010184,-7.061348,0.8901179
"0.06 sec",0.1457645,-0.1564349,1.335441,0.5,0.000563497946131974,0.00057186622871086,-7.00709629058838,0.02970633,-0.06344487,0.06130621,0.2437599,0.3010184,-7.061348,0.8901179
"0.07 sec",0.1620401,-0.1761399,1.195928,0.5,0.000869409181177616,0.000883785774931312,-7.00935077667236,0.03469814,-0.07692973,0.07344735,0.2437599,0.3010184,-7.061348,0.8901179
"0.08 sec",0.1611658,-0.1769389,1.195928,0.5,0.00122254528105259,0.00124416255857795,-7.01125526428223,0.03967655,-0.09900367,0.09321056,0.2437599,0.3010184,-7.061348,0.8901179
"0.09 sec",0.1602876,-0.1777333,1.195928,0.5,0.0016322408337146,0.00166246201843023,-7.01277160644531,0.04465465,-0.1210954,0.1126695,0.2437599,0.3010184,-7.061348,0.8901179
"0.1 sec",0.1594041,-0.1785244,1.195928,0.5,0.00211042212322354,0.00215091742575169,-7.01389646530151,0.04964046,-0.1390243,0.128067,0.2315068,0.318862,-7.043324,0.9439419
"0.11 sec",0.1585156,-0.179312,1.195928,0.5,0.00266667036339641,0.00271949963644147,-7.0146279335022,0.05463307,-0.1522969,0.1390247,0.2315068,0.318862,-7.043324,0.9439419
"0.12 sec",0.1576226,-0.1800956,1.195928,0.5,0.00330791692249477,0.00337554002180696,-7.01496362686157,0.05962972,-0.1616695,0.1462912,0.2315068,0.318862,-7.043324,0.9439419
"0.13 sec",0.1567252,-0.180875,1.195928,0.5,0.00403888989239931,0.00412412546575069,-7.01490259170532,0.06462838,-0.1681413,0.15082,0.2315068,0.318862,-7.043324,0.9439419
"0.14 sec",0.155824,-0.1816498,1.195928,0.5,0.00486269546672702,0.00496865902096033,-7.01444292068481,0.06962793,-0.172592,0.1534411,0.2315068,0.318862,-7.043324,0.9439419
"0.15 sec",0.1549188,-0.18242,1.195928,0.5,0.00578132271766663,0.00591135816648602,-7.01358461380005,0.07462784,-0.1756912,0.1547841,0.2315068,0.318862,-7.043324,0.9439419
"0.16 sec",0.08553506,-0.1007857,2.14744,0.5,0.00679601822048426,0.00695364410057664,-7.01232719421387,0.07962787,-0.1779123,0.1552928,0.2315068,0.318862,-7.043324,0.9439419
"0.17 sec",0.06573556,-0.07811331,2.776445,0.5,0.0079433498904109,0.00813358370214701,-7.0108904838562,0.0846238,-0.169968,0.1473095,0.2315068,0.318862,-7.043324,0.9439419
"0.18 sec",0.06534589,-0.0784394,2.776444,0.5,0.00927773024886847,0.00950797274708748,-7.00966501235962,0.08960714,-0.1513007,0.130516,0.2315068,0.318862,-7.043324,0.9439419
"0.19 sec",0.06495482,-0.07876334,2.776444,0.5,0.0108024347573519,0.0110807279124856,-7.00881862640381,0.09458761,-0.1311785,0.1126767,0.2315068,0.318862,-7.043324,0.9439419
"0.2 sec",0.06456167,-0.07908569,2.776445,0.5,0.0124924080446362,0.0128262992948294,-7.00835943222046,0.09957401,-0.1146024,0.09790529,0.2583006,0.3152535,-7.052071,0.8883083
"0.21 sec",0.06416646,-0.07940646,2.776445,0.5,0.0143265640363097,0.0147230681031942,-7.00829124450684,0.1045664,-0.1024418,0.08687512,0.2583006,0.3152535,-7.052071,0.8883083
"0.22 sec",0.06376934,-0.07972549,2.776445,0.5,0.0162892062216997,0.0167547948658466,-7.00861740112305,0.1095627,-0.0941042,0.07906929,0.2583006,0.3152535,-7.052071,0.8883083
"0.23 sec",0.07219694,-0.09125692,2.437496,0.5,0.0183694176375866,0.0189100429415703,-7.00934076309204,0.114561,-0.08865606,0.07370238,0.2583006,0.3152535,-7.052071,0.8883083
"0.24 sec",0.107101,-0.137302,1.634454,0.5,0.0205537918955088,0.0211746208369732,-7.0103816986084,0.1195605,-0.086547,0.07108325,0.2583006,0.3152535,-7.052071,0.8883083
"0.25 sec",0.1308448,-0.170086,1.330579,0.5,0.0228180736303329,0.0235229004174471,-7.0114631652832,0.1245595,-0.09217411,0.07454447,0.2583006,0.3152535,-7.052071,0.8883083
"0.26 sec",0.1280775,-0.1681565,1.35042,0.5,0.0251436065882444,0.0259350314736366,-7.01230382919312,0.1295525,-0.1065812,0.08472019,0.2583006,0.3152535,-7.052071,0.8883083
"0.27 sec",0.04646612,-0.1402194,1.513807,0.5,0.0275323465466499,0.0284126792103052,-7.01282787322998,0.1345427,-0.1232811,0.09654129,0.2583006,0.3152535,-7.052071,0.8883083
"0.28 sec",-0.01023363,-0.02825549,1.713723,0.5,0.0299983453005552,0.0309695713222027,-7.01307535171509,0.1395416,-0.1340118,0.09684641,0.2583006,0.3152535,-7.052071,0.8883083
"0.29 sec",-0.0477306,0.06884553,1.902023,0.5,0.032558299601078,0.0336169190704823,-7.01313638687134,0.1445337,-0.1254996,0.08049999,0.2583006,0.3152535,-7.052071,0.8883083
"0.3 sec",0.06053992,-0.08220242,2.776445,0.5,0.0352170988917351,0.0363507308065891,-7.01310777664185,0.1494881,-0.09247968,0.05342576,0.2662596,0.3471188,-7.075052,0.9314963
"0.31 sec",0.06013076,-0.08250189,2.776445,0.5,0.0379711128771305,0.0391610153019428,-7.01325035095215,0.1544623,-0.06820986,0.03797596,0.2662596,0.3471188,-7.075052,0.9314963
"0.32 sec",0.07046034,-0.01712393,2.769277,0.5,0.0408123023808002,0.0420398712158203,-7.01379489898682,0.1594615,-0.06340557,0.03756177,0.2662596,0.3471188,-7.075052,0.9314963
"0.33 sec",0.08022616,0.04257374,2.773425,0.5,0.0437315478920937,0.044984694570303,-7.01474189758301,0.1644629,-0.0580365,0.04305414,0.2662596,0.3471188,-7.075052,0.9314963
"0.34 sec",0.09113503,0.06472796,2.536749,0.5,0.046718817204237,0.0480015650391579,-7.01608943939209,0.1694695,-0.04144187,0.05128638,0.2662596,0.3471188,-7.075052,0.9314963
"0.35 sec",0.1812368,0.1286803,1.285368,0.5,0.0497484616935253,0.0510948300361633,-7.01778364181519,0.174481,-0.01730898,0.06083166,0.2662596,0.3471188,-7.075052,0.9314963
"0.36 sec",0.1956521,0.1377423,1.195928,0.5,0.0527866259217262,0.0542491227388382,-7.01946640014648,0.1795109,0.01363684,0.08029395,0.2662596,0.3471188,-7.075052,0.9314963
"0.37 sec",0.1963426,0.1367497,1.195928,0.5,0.0558077096939087,0.0574511922895908,-7.02078771591187,0.1845578,0.04672791,0.107856,0.2662596,0.3471188,-7.075052,0.9314963
"0.38 sec",0.197027,0.135755,1.195928,0.5,0.0587899722158909,0.0607113689184189,-7.02172136306763,0.1895963,0.07461703,0.1337799,0.2662596,0.3471188,-7.075052,0.9314963
"0.39 sec",0.0962849,0.1531819,1.193306,0.5,0.0617142245173454,0.064041331410408,-7.02226543426514,0.1946193,0.09525719,0.1542446,0.2662596,0.3471188,-7.075052,0.9314963
"0.4 sec",0.05634939,-0.08512627,2.776445,0.5,0.0645660161972046,0.0674495622515678,-7.02241611480713,0.1996237,0.1115917,0.1573053,0.2946033,0.3704291,-7.117709,0.9214014
"0.41 sec",0.05592253,-0.08540691,2.776444,0.5,0.0672850832343102,0.0709837898612022,-7.02254104614258,0.2046359,0.09707697,0.1416977,0.2946033,0.3704291,-7.117709,0.9214014
"0.42 sec",0.05549162,-0.08568712,2.776445,0.5,0.0698367655277252,0.0746828317642212,-7.02305269241333,0.2096791,0.05699103,0.1200552,0.2946033,0.3704291,-7.117709,0.9214014
"0.43 sec",0.05505954,-0.08596499,2.776444,0.5,0.0722769796848297,0.0785284712910652,-7.02395915985107,0.2147196,0.01671943,0.1006448,0.2946033,0.3704291,-7.117709,0.9214014
"0.44 sec",0.05462733,-0.08623988,2.776445,0.5,0.0746639296412468,0.0825058296322823,-7.02526473999023,0.2197455,-0.01580881,0.08563204,0.2946033,0.3704291,-7.117709,0.9214014
"0.45 sec",0.05523228,-0.095947,2.470832,0.5,0.0770452544093132,0.086604118347168,-7.02697277069092,0.2247595,-0.03963846,0.07485326,0.2946033,0.3704291,-7.117709,0.9214014
"0.46 sec",-0.08156961,-0.1561247,1.180231,0.5,0.0794540718197823,0.0908102616667747,-7.02901029586792,0.2297666,-0.05726758,0.0675553,0.2946033,0.3704291,-7.117709,0.9214014
"0.47 sec",-0.2029407,-0.1266722,1.195928,0.5,0.0818987861275673,0.0950890928506851,-7.03099250793457,0.2347875,-0.07728247,0.04688332,0.2946033,0.3704291,-7.117709,0.9214014
"0.48 sec",-0.2035751,-0.1256413,1.195928,0.5,0.0843817889690399,0.0994043573737144,-7.03258514404297,0.2398293,-0.09538369,0.001130034,0.2946033,0.3704291,-7.117709,0.9214014
"0.49 sec",-0.2042033,-0.1246088,1.195928,0.5,0.0869197323918343,0.103733390569687,-7.03379249572754,0.2448626,-0.1068597,-0.0531353,0.2946033,0.3704291,-7.117709,0.9214014
"0.5 sec",0.05200747,-0.08784215,2.776445,0.5,0.0895268470048904,0.108047425746918,-7.03461217880249,0.2498804,-0.1138379,-0.0995454,0.3304827,0.4039444,-7.125054,0.8873823
"0.51 sec",0.06920955,-0.1184479,2.06946,0.5,0.0922645330429077,0.112294666469097,-7.03541278839111,0.2548831,-0.1137606,-0.104624,0.3304827,0.4039444,-7.125054,0.8873823
"0.52 sec",0.09665288,-0.1679799,1.470325,0.5,0.0951670557260513,0.116455689072609,-7.03643798828125,0.2598853,-0.1122939,-0.07360304,0.3304827,0.4039444,-7.125054,0.8873823
"0.53 sec",0.1069298,-0.1883553,1.318027,0.5,0.0981836542487144,0.120577871799469,-7.03736686706543,0.2648725,-0.1189155,-0.0328507,0.3304827,0.4039444,-7.125054,0.8873823
"0.54 sec",0.09812784,-0.1746089,1.423349,0.5,0.101286686956882,0.124699048697948,-7.03800821304321,0.2698448,-0.1330492,0.006332794,0.3304827,0.4039444,-7.125054,0.8873823
"0.55 sec",0.08490898,-0.1525485,1.629812,0.5,0.104476109147072,0.128848418593407,-7.03834676742554,0.2748225,-0.146751,0.03715708,0.3304827,0.4039444,-7.125054,0.8873823
"0.56 sec",0.07469314,-0.1355953,1.835689,0.5,0.107764646410942,0.133054822683334,-7.03845596313477,0.2798143,-0.1539595,0.05711883,0.3304827,0.4039444,-7.125054,0.8873823
"0.57 sec",-0.001846101,-0.1048933,1.980166,0.5,0.111166320741177,0.137344613671303,-7.03843641281128,0.2848139,-0.1539942,0.06756999,0.3304827,0.4039444,-7.125054,0.8873823
"0.58 sec",-0.09236522,-0.02700319,2.072794,0.5,0.114689499139786,0.141735702753067,-7.03837490081787,0.2898118,-0.1468426,0.06331586,0.3304827,0.4039444,-7.125054,0.8873823
"0.59 sec",-0.07324918,0.08525725,2.111915,0.5,0.118335396051407,0.146228209137917,-7.03833150863647,0.2947868,-0.1273051,0.03878389,0.3304827,0.4039444,-7.125054,0.8873823
"0.6 sec",0.1106267,-0.2120271,1.195928,0.5,0.122094817459583,0.150796979665756,-7.03834390640259,0.2997256,-0.0884703,0.007904056,0.3400441,0.4684957,-7.111557,0.9695112
"0.61 sec",0.1095766,-0.2125657,1.195928,0.5,0.125926733016968,0.155399009585381,-7.03820943832397,0.3047095,-0.07701016,0.003969721,0.3400441,0.4684957,-7.111557,0.9695112
"0.62 sec",0.1652317,-0.04312121,1.179141,0.5,0.129803046584129,0.160018637776375,-7.03769063949585,0.3096877,-0.09991415,0.0234345,0.3400441,0.4684957,-7.111557,0.9695112
"0.63 sec",0.1528854,0.07849257,1.655262,0.5,0.133730515837669,0.164669767022133,-7.03678178787231,0.3146729,-0.1093923,0.05277552,0.3400441,0.4684957,-7.111557,0.9695112
"0.64 sec",0.09615327,0.04849109,2.63239,0.5,0.137716725468636,0.169380277395248,-7.03558921813965,0.3197061,-0.08532423,0.08245398,0.3400441,0.4684957,-7.111557,0.9695112
"0.65 sec",0.09138013,0.0454917,2.776445,0.5,0.141757234930992,0.174201413989067,-7.03446817398071,0.3247378,-0.04938852,0.0989096,0.3400441,0.4684957,-7.111557,0.9695112
"0.66 sec",0.09160669,0.04503277,2.776445,0.5,0.145818755030632,0.179168969392776,-7.03370761871338,0.3297449,-0.01945178,0.1030249,0.3400441,0.4684957,-7.111557,0.9695112
"0.67 sec",0.09183059,0.04457343,2.776445,0.5,0.149860516190529,0.184280022978783,-7.03334665298462,0.334744,0.00250098,0.1021297,0.3400441,0.4684957,-7.111557,0.9695112
"0.68 sec",0.07603507,0.06040357,2.437072,0.5,0.153853312134743,0.189523741602898,-7.03338575363159,0.3397423,0.01759703,0.09987224,0.3400441,0.4684957,-7.111557,0.9695112
"0.69 sec",-0.05570415,0.1185208,2.166889,0.5,0.157781794667244,0.194882825016975,-7.03374481201172,0.34474,0.02941994,0.09579524,0.3400441,0.4684957,-7.111557,0.9695112
"0.7 sec",0.09997676,-0.2171914,1.195928,0.5,0.161641463637352,0.200332850217819,-7.03427171707153,0.3497233,0.04595642,0.07536066,0.3908896,0.5127744,-7.094439,0.9377888
"0.71 sec",0.09889717,-0.2176789,1.195928,0.5,0.16544497013092,0.205833554267883,-7.03466701507568,0.3547277,0.0262456,0.06152187,0.3908896,0.5127744,-7.094439,0.9377888
"0.72 sec",0.09781776,-0.2181599,1.195928,0.5,0.169222176074982,0.21136462688446,-7.03467845916748,0.3597204,-0.02749542,0.06447397,0.3908896,0.5127744,-7.094439,0.9377888
"0.73 sec",0.09673867,-0.2186344,1.195928,0.5,0.173001065850258,0.216937735676765,-7.03430461883545,0.3647008,-0.08145425,0.07184086,0.3908896,0.5127744,-7.094439,0.9377888
"0.74 sec",0.05650963,-0.1285018,2.022391,0.5,0.176809459924698,0.222568050026894,-7.03354454040527,0.3696855,-0.1250373,0.07896259,0.3908896,0.5127744,-7.094439,0.9377888
"0.75 sec",0.04068523,-0.09361417,2.776445,0.5,0.180687963962555,0.228292658925056,-7.03258895874023,0.3746835,-0.1464076,0.07988744,0.3908896,0.5127744,-7.094439,0.9377888
"0.76 sec",-0.07473959,-0.04801217,2.772928,0.5,0.184691548347473,0.234167605638504,-7.03182601928711,0.379683,-0.1454915,0.07374499,0.3908896,0.5127744,-7.094439,0.9377888
"0.77 sec",-0.09201593,-0.03509495,2.775443,0.5,0.188842698931694,0.24020928144455,-7.03145122528076,0.384665,-0.1297219,0.05197758,0.3908896,0.5127744,-7.094439,0.9377888
"0.78 sec",-0.0506262,0.07434832,2.667012,0.5,0.193132743239403,0.246383532881737,-7.03146934509277,0.3896259,-0.1072607,0.01853912,0.3908896,0.5127744,-7.094439,0.9377888
"0.79 sec",-0.04615806,0.1123465,2.335151,0.5,0.19754646718502,0.252637088298798,-7.03185987472534,0.394579,-0.07333727,-0.008518399,0.3908896,0.5127744,-7.094439,0.9377888
"0.8 sec",0.08912717,-0.2218035,1.195928,0.5,0.202048614621162,0.258917689323425,-7.03252029418945,0.3995418,-0.02944277,-0.0244998,0.4215329,0.5788909,-7.089427,0.969565
"0.81 sec",0.08802806,-0.2222359,1.195928,0.5,0.206588789820671,0.265193253755569,-7.03309631347656,0.4045331,-0.02697708,-0.01787447,0.4215329,0.5788909,-7.089427,0.969565
"0.82 sec",0.05951735,-0.1515589,1.745668,0.5,0.211149409413338,0.271466732025146,-7.03328943252563,0.409491,-0.06436912,0.004902,0.4215329,0.5788909,-7.089427,0.969565
"0.83 sec",0.04598955,-0.1186017,2.230187,0.5,0.215752601623535,0.277763515710831,-7.03322792053223,0.4144543,-0.09868314,0.02483582,0.4215329,0.5788909,-7.089427,0.969565
"0.84 sec",0.047642,-0.09793111,2.401841,0.5,0.220434591174126,0.284121692180634,-7.03316831588745,0.4194432,-0.1159013,0.03619407,0.4215329,0.5788909,-7.089427,0.969565
"0.85 sec",0.1102567,0.03983409,2.38181,0.5,0.22522060573101,0.290571630001068,-7.03327465057373,0.4244419,-0.1194049,0.04181704,0.4215329,0.5788909,-7.089427,0.969565
"0.86 sec",0.04782245,0.07564668,2.258924,0.5,0.23011326789856,0.297125250101089,-7.03358745574951,0.4294516,-0.1002794,0.05201639,0.4215329,0.5788909,-7.089427,0.969565
"0.87 sec",-0.04546411,0.1245975,2.139434,0.5,0.235085338354111,0.303781002759933,-7.03407287597656,0.4344653,-0.06281257,0.05937276,0.4215329,0.5788909,-7.089427,0.969565
"0.88 sec",-0.04728736,0.131667,2.029011,0.5,0.240093052387238,0.310523331165314,-7.03467464447021,0.4394425,-0.01839105,0.04866595,0.4215329,0.5788909,-7.089427,0.969565
"0.89 sec",-0.04835842,0.136805,1.95682,0.5,0.245097413659096,0.317319303750992,-7.03533744812012,0.444395,0.0242496,0.02686313,0.4215329,0.5788909,-7.089427,0.969565
"0.9 sec",0.03359899,-0.09637772,2.776445,0.5,0.250069171190262,0.324129641056061,-7.03601598739624,0.4493564,0.05917152,0.005560844,0.4806363,0.6309279,-7.116689,0.9263188
"0.91 sec",0.03311798,-0.09654361,2.776445,0.5,0.254977703094482,0.330917119979858,-7.03688430786133,0.4543507,0.05809797,-0.002023888,0.4806363,0.6309279,-7.116689,0.9263188
"0.92 sec",0.03263629,-0.09670706,2.776444,0.5,0.259817332029343,0.337669312953949,-7.03815746307373,0.4593436,0.02756685,0.002452514,0.4806363,0.6309279,-7.116689,0.9263188
"0.93 sec",0.03215433,-0.09686793,2.776444,0.5,0.26462122797966,0.344408005475998,-7.03983688354492,0.464331,-0.006221965,0.009681395,0.4806363,0.6309279,-7.116689,0.9263188
"0.94 sec",0.03409593,-0.1044862,2.579074,0.5,0.269426286220551,0.351162254810333,-7.04192399978638,0.4693213,-0.03445775,0.01627305,0.4806363,0.6309279,-7.116689,0.9263188
"0.95 sec",-0.1706125,-0.1041618,1.185545,0.5,0.274261742830276,0.357956141233444,-7.0443696975708,0.4743154,-0.05634524,0.02158706,0.4806363,0.6309279,-7.116689,0.9263188
"0.96 sec",-0.2274699,-0.07321137,1.195928,0.5,0.27913436293602,0.364790081977844,-7.04679203033447,0.4793297,-0.07250763,0.001789912,0.4806363,0.6309279,-7.116689,0.9263188
"0.97 sec",-0.1223742,0.1330166,1.18119,0.5,0.284044981002808,0.371643483638763,-7.04882717132568,0.4843479,-0.08001159,-0.04472218,0.4806363,0.6309279,-7.116689,0.9263188
"0.98 sec",-0.06906239,0.2287434,1.195928,0.5,0.28900820016861,0.378495275974274,-7.0504732131958,0.4893103,-0.05687745,-0.08263027,0.4806363,0.6309279,-7.116689,0.9263188
"0.99 sec",-0.06793639,0.229075,1.195928,0.5,0.294022172689438,0.385319888591766,-7.05172967910767,0.4942724,-0.001366958,-0.0958379,0.4806363,0.6309279,-7.116689,0.9263188
"1 sec",0.02875581,-0.09792756,2.776445,0.5,0.299063473939896,0.392094999551773,-7.05260038375854,0.4992758,0.06091661,-0.09440836,0.5162927,0.7033828,-7.151119,0.9615211
"1.01 sec",0.02826583,-0.0980697,2.776445,0.5,0.304094403982162,0.398762613534927,-7.05345678329468,0.5042838,0.07505189,-0.07741262,0.5162927,0.7033828,-7.151119,0.9615211
"1.02 sec",0.02777966,-0.09820811,2.776445,0.5,0.309090048074722,0.405289232730865,-7.05471229553223,0.5092456,0.04557927,-0.05150091,0.5162927,0.7033828,-7.151119,0.9615211
"1.03 sec",0.02729356,-0.09834392,2.776445,0.5,0.314066201448441,0.411722809076309,-7.05637168884277,0.5141999,0.008254288,-0.02803005,0.5162927,0.7033828,-7.151119,0.9615211
"1.04 sec",0.02680534,-0.09847771,2.776445,0.5,0.319051265716553,0.41811603307724,-7.05843782424927,0.5191689,-0.02423854,-0.009978725,0.5162927,0.7033828,-7.151119,0.9615211
"1.05 sec",0.2145528,0.03443215,1.194081,0.5,0.324071854352951,0.424512952566147,-7.06091022491455,0.5241522,-0.04889034,0.002792315,0.5162927,0.7033828,-7.151119,0.9615211
"1.06 sec",0.2308268,0.06161456,1.195928,0.5,0.329130440950394,0.430934548377991,-7.0634126663208,0.5291517,-0.0508347,0.03329017,0.5162927,0.7033828,-7.151119,0.9615211
"1.07 sec",0.004203167,0.1949365,1.184444,0.5,0.33420392870903,0.437388747930527,-7.06553173065186,0.5341959,-0.03174081,0.08011057,0.5162927,0.7033828,-7.151119,0.9615211
"1.08 sec",-0.05766576,0.2318278,1.195928,0.5,0.339269310235977,0.443891495466232,-7.06726217269897,0.5392296,0.007868788,0.09781379,0.5162927,0.7033828,-7.151119,0.9615211
"1.09 sec",-0.05652788,0.2321031,1.195928,0.5,0.344301253557205,0.450439751148224,-7.06860399246216,0.5441792,0.06105945,0.07796551,0.5162927,0.7033828,-7.151119,0.9615211
"1.1 sec",0.02385144,-0.09923224,2.776445,0.5,0.349278420209885,0.457008600234985,-7.0695595741272,0.5490965,0.1110952,0.04551145,0.5768029,0.7620578,-7.164281,0.929949
"1.11 sec",0.023357,-0.09934942,2.776444,0.5,0.354142159223557,0.463556677103043,-7.07050085067749,0.5540844,0.1118066,0.02485667,0.5768029,0.7620578,-7.164281,0.929949
"1.12 sec",0.02326459,-0.101234,2.728106,0.5,0.358859181404114,0.470056384801865,-7.07183980941772,0.5590975,0.07082251,0.01810271,0.5768029,0.7620578,-7.164281,0.929949
"1.13 sec",0.04013516,-0.1794497,1.54726,0.5,0.363480269908905,0.476526260375977,-7.073570728302,0.5641003,0.02460803,0.01688953,0.5768029,0.7620578,-7.164281,0.929949
"1.14 sec",0.05078079,-0.2334052,1.195928,0.5,0.368065297603607,0.482995420694351,-7.07540369033813,0.5690941,-0.02347616,0.01958795,0.5768029,0.7620578,-7.164281,0.929949
"1.15 sec",0.04962718,-0.2336489,1.195928,0.5,0.372655600309372,0.489484071731567,-7.07694530487061,0.5740792,-0.07521404,0.02554175,0.5768029,0.7620578,-7.164281,0.929949
"1.16 sec",-0.1368285,-0.1145195,1.180697,0.5,0.377275049686432,0.496009826660156,-7.07810211181641,0.5790643,-0.1222731,0.0320634,0.5768029,0.7620578,-7.164281,0.929949
"1.17 sec",-0.1597489,-0.0005294115,1.510442,0.5,0.381944268941879,0.502589344978333,-7.07886791229248,0.5840775,-0.144798,0.01570986,0.5768029,0.7620578,-7.164281,0.929949
"1.18 sec",-0.03051447,0.1540683,1.808539,0.5,0.386687695980072,0.509228229522705,-7.07931470870972,0.5890552,-0.1325351,-0.02184916,0.5768029,0.7620578,-7.164281,0.929949
"1.19 sec",-0.02695011,0.1395692,1.996734,0.5,0.391528993844986,0.515911161899567,-7.07959890365601,0.5939999,-0.084837,-0.04526827,0.5768029,0.7620578,-7.164281,0.929949
"1.2 sec",0.01888165,-0.1002933,2.776445,0.5,0.396458745002747,0.522603571414948,-7.07984638214111,0.5989851,-0.0249753,-0.04906768,0.617035,0.8313198,-7.179018,0.950408
"1.21 sec",0.01838008,-0.1003861,2.776445,0.5,0.401445746421814,0.529266476631165,-7.08029460906982,0.6039922,-0.002134799,-0.04047232,0.617035,0.8313198,-7.179018,0.950408
"1.22 sec",0.01787958,-0.1004762,2.776445,0.5,0.406469851732254,0.53588742017746,-7.08114862442017,0.6089841,-0.01424435,-0.02626297,0.617035,0.8313198,-7.179018,0.950408
"1.23 sec",0.01737921,-0.1005636,2.776445,0.5,0.411531865596771,0.542490243911743,-7.08240938186646,0.6139703,-0.03489213,-0.01322621,0.617035,0.8313198,-7.179018,0.950408
"1.24 sec",0.02654029,-0.1586878,1.765775,0.5,0.416644036769867,0.549105525016785,-7.08407592773438,0.6189603,-0.05417542,-0.003202014,0.617035,0.8313198,-7.179018,0.950408
"1.25 sec",0.1581315,-0.07237875,1.17977,0.5,0.421808451414108,0.555752396583557,-7.08590841293335,0.6239516,-0.07603515,0.0049547,0.617035,0.8313198,-7.179018,0.950408
"1.26 sec",0.1769846,0.08210348,1.18443,0.5,0.427014976739883,0.562434613704681,-7.08750152587891,0.6289391,-0.0889786,0.02699224,0.617035,0.8313198,-7.179018,0.950408
"1.27 sec",-0.03418559,0.2260284,1.248364,0.5,0.432252913713455,0.569160223007202,-7.08870220184326,0.6339667,-0.07186589,0.06166974,0.617035,0.8313198,-7.179018,0.950408
"1.28 sec",-0.0270384,0.1844426,1.526287,0.5,0.437502980232239,0.575939357280731,-7.08952713012695,0.6389877,-0.01976715,0.07048519,0.617035,0.8313198,-7.179018,0.950408
"1.29 sec",-0.02239114,0.1579114,1.781095,0.5,0.442734569311142,0.582763373851776,-7.09005928039551,0.6439389,0.03965314,0.05378409,0.617035,0.8313198,-7.179018,0.950408
"1.3 sec",0.03089026,-0.2268993,1.246215,0.5,0.4479139149189,0.589602708816528,-7.09043169021606,0.6488926,0.08340619,0.03345683,0.6461895,0.9166836,-7.177031,1.025833
"1.31 sec",0.01984693,-0.1506404,1.868817,0.5,0.453030526638031,0.596428275108337,-7.09058380126953,0.6538941,0.06681817,0.02244495,0.6461895,0.9166836,-7.177031,1.025833
"1.32 sec",0.01610073,-0.1269551,2.216331,0.5,0.458099126815796,0.603239119052887,-7.09052419662476,0.6589027,0.0131738,0.01925688,0.6461895,0.9166836,-7.177031,1.025833
"1.33 sec",0.06656305,-0.05518133,2.317608,0.5,0.463145703077316,0.610057830810547,-7.09050035476685,0.6639065,-0.03276654,0.01779956,0.6461895,0.9166836,-7.177031,1.025833
"1.34 sec",0.1225043,0.01440884,2.298935,0.5,0.468207091093063,0.616914629936218,-7.09062623977661,0.668902,-0.0571177,0.02279399,0.6461895,0.9166836,-7.177031,1.025833
"1.35 sec",0.127771,0.01438401,2.205921,0.5,0.47330117225647,0.623832285404205,-7.09092378616333,0.6739031,-0.05625222,0.039389,0.6461895,0.9166836,-7.177031,1.025833
"1.36 sec",0.1339116,0.01439968,2.106488,0.5,0.478415995836258,0.630823731422424,-7.09136486053467,0.6789184,-0.04224214,0.06142827,0.6461895,0.9166836,-7.177031,1.025833
"1.37 sec",0.03392184,0.1002554,2.020982,0.5,0.483524858951569,0.637895047664642,-7.09190082550049,0.6839347,-0.02687794,0.08200219,0.6461895,0.9166836,-7.177031,1.025833
"1.38 sec",-0.01371185,0.1422,1.986678,0.5,0.488602221012115,0.645047724246979,-7.09248542785645,0.6889401,-0.004069422,0.08695546,0.6461895,0.9166836,-7.177031,1.025833
"1.39 sec",-0.01315741,0.1439306,1.963858,0.5,0.49362787604332,0.652268469333649,-7.09308767318726,0.6939176,0.02831683,0.07267289,0.6461895,0.9166836,-7.177031,1.025833
"1.4 sec",0.02043729,-0.2379073,1.195928,0.5,0.498586595058441,0.659526228904724,-7.09369373321533,0.6988824,0.06090491,0.05149829,0.7154248,0.9766543,-7.172469,0.9710559
"1.41 sec",0.01925695,-0.2380039,1.195928,0.5,0.503484308719635,0.666788697242737,-7.0941162109375,0.7038899,0.04285881,0.03620302,0.7154248,0.9766543,-7.172469,0.9710559
"1.42 sec",0.01140618,-0.1494038,1.894773,0.5,0.508349776268005,0.674052655696869,-7.09415435791016,0.7089149,-0.01758647,0.02809243,0.7154248,0.9766543,-7.172469,0.9710559
"1.43 sec",0.008633833,-0.1208986,2.339313,0.5,0.513213574886322,0.68134331703186,-7.09397506713867,0.7139302,-0.06913004,0.02275549,0.7154248,0.9766543,-7.172469,0.9710559
"1.44 sec",0.007614287,-0.1146528,2.466976,0.5,0.518116295337677,0.688699245452881,-7.09386491775513,0.7189375,-0.0975282,0.01843913,0.7154248,0.9766543,-7.172469,0.9710559
"1.45 sec",-0.08615425,-0.0352049,2.40196,0.4942312,0.5230912566185,0.696147918701172,-7.09396743774414,0.7239403,-0.1101982,0.01500433,0.7154248,0.9766543,-7.172469,0.9710559
"1.46 sec",-0.1243665,-0.007072821,2.276501,0.4843485,0.528153836727142,0.70369690656662,-7.09429979324341,0.7288816,-0.1057393,0.00156374,0.7154248,0.9766543,-7.172469,0.9710559
"1.47 sec",-0.06624512,0.06720361,2.126914,0.4747,0.533307135105133,0.711328029632568,-7.09481573104858,0.7337059,-0.0872371,-0.02414943,0.7154248,0.9766543,-7.172469,0.9710559
"1.48 sec",-0.006535127,0.1394781,2.032254,0.4652604,0.538548409938812,0.719003796577454,-7.09544897079468,0.7384257,-0.05710017,-0.04486689,0.7154248,0.9766543,-7.172469,0.9710559
"1.49 sec",-0.006092468,0.1443648,1.964319,0.4559635,0.543863296508789,0.726685702800751,-7.09613943099976,0.7430741,-0.01498871,-0.04842743,0.7154248,0.9766543,-7.172469,0.9710559
"1.5 sec",0.004989856,-0.1325287,2.138962,0.5,0.549221575260162,0.734342753887177,-7.09684753417969,0.7476542,0.02885692,-0.04118332,0.7556876,1.058937,-7.173039,1.004273
"1.51 sec",0.00467874,-0.1432433,1.980288,0.5,0.554589092731476,0.741951465606689,-7.09759712219238,0.7526348,0.03280325,-0.03071428,0.7556876,1.058937,-7.173039,1.004273
"1.52 sec",0.004141776,-0.1496132,1.896848,0.4933087,0.559955716133118,0.749515652656555,-7.09839630126953,0.7576184,0.0004581172,-0.02057973,0.7556876,1.058937,-7.173039,1.004273
"1.53 sec",0.003449046,-0.1514352,1.874426,0.4834673,0.565335988998413,0.757064998149872,-7.09918451309204,0.762539,-0.03845167,-0.01265879,0.7556876,1.058937,-7.173039,1.004273
"1.54 sec",0.02568486,-0.1267719,1.882698,0.4738073,0.57075047492981,0.764630317687988,-7.09993410110474,0.767369,-0.07251263,-0.007087906,0.7556876,1.058937,-7.173039,1.004273
"1.55 sec",0.1478293,0.001979654,1.920123,0.4643351,0.576217830181122,0.772237479686737,-7.10063934326172,0.7721052,-0.09567917,-0.0007759734,0.7556876,1.058937,-7.173039,1.004273
"1.56 sec",0.0276844,0.1175113,1.942,0.4550316,0.581748247146606,0.779907047748566,-7.10130977630615,0.7767569,-0.09401038,0.02055815,0.7556876,1.058937,-7.173039,1.004273
"1.57 sec",-0.0005826009,0.1439965,1.971022,0.445869,0.587327897548676,0.787652015686035,-7.10195970535278,0.7813382,-0.06134559,0.03810508,0.7556876,1.058937,-7.173039,1.004273
"1.58 sec",5.790855e-05,0.1434797,1.978088,0.4369391,0.592923939228058,0.795463681221008,-7.10260438919067,0.7858031,-0.01316896,0.03834473,0.7556876,1.058937,-7.173039,1.004273
"1.59 sec",0.0006810863,0.1435106,1.977643,0.4282247,0.598502933979034,0.803310990333557,-7.1032543182373,0.7901604,0.03248638,0.03101023,0.7556876,1.058937,-7.173039,1.004273
"1.6 sec",-0.0009202979,-0.1020452,2.776445,0.325395,0.604038238525391,0.811157643795013,-7.10391092300415,0.7944321,0.06840834,0.02284529,0.824383,1.123974,-7.189869,0.9571296
"1.61 sec",-0.001257096,-0.1020416,2.776444,0.3187823,0.609500229358673,0.818967401981354,-7.10476207733154,0.7977384,0.06568596,0.01582138,0.824383,1.123974,-7.189869,0.9571296
"1.62 sec",-0.001583096,-0.1020371,2.776445,0.3123816,0.614885032176971,0.826729893684387,-7.10601711273193,0.8009388,0.03208525,0.01028412,0.824383,1.123974,-7.189869,0.9571296
"1.63 sec",-0.001902403,-0.1020316,2.776444,0.3061119,0.620228588581085,0.834470570087433,-7.10767841339111,0.8040736,-0.00456927,0.006203789,0.824383,1.123974,-7.189869,0.9571296
"1.64 sec",-0.003742584,-0.1729505,1.643201,0.2999737,0.625569760799408,0.842221438884735,-7.1097469329834,0.8071427,-0.0350161,0.00331547,0.824383,1.123974,-7.189869,0.9571296
"1.65 sec",-0.215768,-0.01931268,1.189806,0.2939606,0.630933344364166,0.850001513957977,-7.11195278167725,0.8101493,-0.06584217,0.0011294,0.824383,1.123974,-7.189869,0.9571296
"1.66 sec",-0.2361806,0.009234825,1.195231,0.2880516,0.636328101158142,0.857813596725464,-7.11389064788818,0.8131038,-0.07844977,-0.02524033,0.824383,1.123974,-7.189869,0.9571296
"1.67 sec",0.007227381,0.2386596,1.195928,0.2823356,0.641765892505646,0.865647733211517,-7.11544132232666,0.8159618,-0.06743055,-0.07303365,0.824383,1.123974,-7.189869,0.9571296
"1.68 sec",0.007789983,0.2356422,1.210849,0.2767534,0.647260367870331,0.873481094837189,-7.11660671234131,0.8187529,-0.02225058,-0.09136577,0.824383,1.123974,-7.189869,0.9571296
"1.69 sec",0.006423355,0.1784691,1.592263,0.2711271,0.652802348136902,0.881287038326263,-7.11738920211792,0.821566,0.04242718,-0.07764632,0.824383,1.123974,-7.189869,0.9571296
"1.7 sec",-0.00396576,-0.1019725,2.776444,0.3019049,0.65836238861084,0.889034569263458,-7.11788415908813,0.8243366,0.09362169,-0.05671977,0.8710434,1.202926,-7.21805,0.9752891
"1.71 sec",-0.004271964,-0.1019602,2.776444,0.2958885,0.663899183273315,0.896669387817383,-7.11846876144409,0.8273448,0.09344777,-0.03901591,0.8710434,1.202926,-7.21805,0.9752891
"1.72 sec",-0.004570969,-0.1019472,2.776444,0.2900128,0.669391512870789,0.90417492389679,-7.11945390701294,0.8302827,0.05519703,-0.02675515,0.8710434,1.202926,-7.21805,0.9752891
"1.73 sec",-0.004864526,-0.1019337,2.776445,0.2842435,0.674860179424286,0.911598920822144,-7.12084293365479,0.8331674,0.01257217,-0.01866334,0.8710434,1.202926,-7.21805,0.9752891
"1.74 sec",-0.005153041,-0.1019196,2.776445,0.2785724,0.680335938930511,0.918991684913635,-7.12263870239258,0.8360029,-0.02307994,-0.01349065,0.8710434,1.202926,-7.21805,0.9752891
"1.75 sec",0.1427532,-0.05156472,1.503351,0.2730042,0.685846567153931,0.926394760608673,-7.12484121322632,0.838787,-0.04958983,-0.01027564,0.8710434,1.202926,-7.21805,0.9752891
"1.76 sec",0.09783782,0.1462329,1.18018,0.2675586,0.69139838218689,0.933828413486481,-7.12714767456055,0.8415098,-0.0622197,0.008924573,0.8710434,1.202926,-7.21805,0.9752891
"1.77 sec",0.01390251,0.2383696,1.195928,0.2621515,0.696972668170929,0.941295564174652,-7.12914657592773,0.8442134,-0.04107855,0.03581879,0.8710434,1.202926,-7.21805,0.9752891
"1.78 sec",0.01452904,0.2383329,1.195928,0.2568442,0.702546775341034,0.948793172836304,-7.1307578086853,0.846867,0.01279497,0.04658428,0.8710434,1.202926,-7.21805,0.9752891
"1.79 sec",0.01513427,0.238296,1.195928,0.2517165,0.708095252513885,0.95630294084549,-7.13198518753052,0.8494309,0.07362825,0.04371217,0.8710434,1.202926,-7.21805,0.9752891
"1.8 sec",-0.006773241,-0.1018251,2.776445,0.3344491,0.713595569133759,0.963797211647034,-7.1328272819519,0.8519343,0.1247485,0.03725445,0.9114448,1.285315,-7.239019,1.019159
"1.81 sec",-0.007108871,-0.1018023,2.776445,0.3278446,0.71899026632309,0.971223831176758,-7.13365364074707,0.8552365,0.1232537,0.02839793,0.9114448,1.285315,-7.239019,1.019159
"1.82 sec",-0.007444493,-0.1017783,2.776445,0.3212389,0.724246382713318,0.978551089763641,-7.13487577438354,0.8585394,0.07884211,0.01868994,0.9114448,1.285315,-7.239019,1.019159
"1.83 sec",-0.007773268,-0.1017538,2.776444,0.3147663,0.729411542415619,0.985813081264496,-7.13650035858154,0.8617757,0.02974478,0.01051507,0.9114448,1.285315,-7.239019,1.019159
"1.84 sec",0.03192298,-0.1335759,1.639216,0.3084377,0.734537959098816,0.99305260181427,-7.13853120803833,0.86494,-0.01121999,0.004346256,0.9114448,1.285315,-7.239019,1.019159
"1.85 sec",0.2379366,-0.02008744,1.195928,0.3022611,0.739665329456329,1.00030243396759,-7.14069938659668,0.8680283,-0.04536157,0.004615294,0.9114448,1.285315,-7.239019,1.019159
"1.86 sec",0.237875,-0.02081694,1.195928,0.2962433,0.744808435440063,1.00757837295532,-7.14260005950928,0.8710372,-0.06003546,0.03398807,0.9114448,1.285315,-7.239019,1.019159
"1.87 sec",0.02093107,0.2378652,1.195928,0.2902991,0.749957919120789,1.01489472389221,-7.14411640167236,0.8740093,-0.0569614,0.08296442,0.9114448,1.285315,-7.239019,1.019159
"1.88 sec",0.02162268,0.2378045,1.195928,0.284428,0.75509113073349,1.02226638793945,-7.14524698257446,0.8769448,-0.01888114,0.1032335,0.9114448,1.285315,-7.239019,1.019159
"1.89 sec",0.01859355,0.1977609,1.433434,0.2787896,0.760184645652771,1.02968430519104,-7.14599132537842,0.879764,0.04312287,0.09363466,0.9114448,1.285315,-7.239019,1.019159
"1.9 sec",-0.009877435,-0.1015718,2.776444,0.131037,0.765213191509247,1.0371185541153,-7.14640522003174,0.8825082,0.09582082,0.07629333,0.9869463,1.345897,-7.242764,0.9480267
"1.91 sec",-0.01074671,-0.1089792,2.588072,0.128273,0.770120620727539,1.04452621936798,-7.14686632156372,0.8838902,0.09730714,0.05632145,0.9869463,1.345897,-7.242764,0.9480267
"1.92 sec",-0.01381885,-0.1384369,2.03965,0.1256294,0.774889171123505,1.0518844127655,-7.14768123626709,0.8852119,0.05807326,0.0370759,0.9869463,1.345897,-7.242764,0.9480267
"1.93 sec",-0.01625479,-0.1609221,1.756463,0.1230359,0.779579877853394,1.05921733379364,-7.1486759185791,0.8865087,0.009806471,0.021373,0.9869463,1.345897,-7.242764,0.9480267
"1.94 sec",-0.01722038,-0.1684381,1.678591,0.1205136,0.784247577190399,1.06655538082123,-7.14964151382446,0.8877699,-0.03678996,0.009293019,0.9869463,1.345897,-7.242764,0.9480267
"1.95 sec",-0.1010703,-0.06176262,1.70881,0.1180629,0.788928329944611,1.07392263412476,-7.15048551559448,0.8889952,-0.07641587,0.0003886545,0.9869463,1.345897,-7.242764,0.9480267
"1.96 sec",-0.1555011,0.01648912,1.816244,0.1156721,0.793649017810822,1.08133852481842,-7.15119218826294,0.8901906,-0.09430028,-0.01562082,0.9869463,1.345897,-7.242764,0.9480267
"1.97 sec",-0.1481726,0.01587292,1.905136,0.1133833,0.798432052135468,1.0888078212738,-7.15179443359375,0.891335,-0.08438545,-0.04363525,0.9869463,1.345897,-7.242764,0.9480267
"1.98 sec",-0.05801001,0.08456431,1.960116,0.1111825,0.803295373916626,1.09631156921387,-7.15234041213989,0.8924354,-0.06164564,-0.07331822,0.9869463,1.345897,-7.242764,0.9480267
"1.99 sec",0.0151685,0.1402038,2.012403,0.1089989,0.808249473571777,1.10381734371185,-7.15286636352539,0.8935272,-0.03140957,-0.08664798,0.9869463,1.345897,-7.242764,0.9480267
"2 sec",-0.01110646,-0.1014452,2.776445,0.06351352,0.813287854194641,1.11129415035248,-7.15339994430542,0.8946364,0.007138862,-0.07665876,1.0402,1.413275,-7.258818,0.9263932
"2.01 sec",-0.01117434,-0.1014378,2.776445,0.06217289,0.818391442298889,1.11870944499969,-7.15413665771484,0.8953067,0.01698766,-0.05865476,1.0402,1.413275,-7.258818,0.9263932
"2.02 sec",-0.01123588,-0.101431,2.776445,0.06095743,0.82354611158371,1.12605798244476,-7.15527772903442,0.8959144,-0.003085244,-0.04377298,1.0402,1.413275,-7.258818,0.9263932
"2.03 sec",-0.01129619,-0.1014243,2.776445,0.05976617,0.828751564025879,1.13337194919586,-7.15682458877563,0.8965101,-0.02855162,-0.03278569,1.0402,1.413275,-7.258818,0.9263932
"2.04 sec",-0.01862871,-0.1668711,1.69255,0.05858767,0.834017395973206,1.14068782329559,-7.15877723693848,0.8970993,-0.05072025,-0.02516637,1.0402,1.413275,-7.258818,0.9263932
"2.05 sec",-0.08477245,-0.1664597,1.182533,0.05742526,0.839340806007385,1.14802896976471,-7.16087818145752,0.8976805,-0.07515115,-0.02094213,1.0402,1.413275,-7.258818,0.9263932
"2.06 sec",-0.06010507,0.1697562,1.181079,0.05626202,0.844709992408752,1.15540194511414,-7.16272115707397,0.8982621,-0.1006272,-0.02688774,1.0402,1.413275,-7.258818,0.9263932
"2.07 sec",0.02677008,0.23729,1.195928,0.05515003,0.850127100944519,1.16280937194824,-7.16417121887207,0.8988181,-0.08226456,-0.03717729,1.0402,1.413275,-7.258818,0.9263932
"2.08 sec",0.02355864,0.2073168,1.365587,0.05403185,0.855589985847473,1.17024004459381,-7.16523218154907,0.8993772,-0.01945109,-0.03472113,1.0402,1.413275,-7.258818,0.9263932
"2.09 sec",0.01914969,0.1672229,1.688491,0.0528667,0.861076772212982,1.17766618728638,-7.16594934463501,0.8999598,0.04676707,-0.02229735,1.0402,1.413275,-7.258818,0.9263932
"2.1 sec",-0.01170215,-0.1013784,2.776445,0.1035701,0.866554319858551,1.18505394458771,-7.16644382476807,0.9005205,0.09407575,-0.00994671,1.086779,1.494518,-7.264054,0.9523056
"2.11 sec",-0.01180464,-0.1013666,2.776445,0.1015447,0.871977567672729,1.19235587120056,-7.16705513000488,0.9015332,0.09181353,-0.003990231,1.086779,1.494518,-7.264054,0.9523056
"2.12 sec",-0.01449356,-0.1234729,2.281057,0.09951341,0.877329111099243,1.19955718517303,-7.16806793212891,0.9025488,0.05337088,-0.00367174,1.086779,1.494518,-7.264054,0.9523056
"2.13 sec",-0.01913708,-0.1619439,1.742295,0.0975132,0.882641732692719,1.2067015171051,-7.16936779022217,0.903549,0.008599903,-0.005498402,1.086779,1.494518,-7.264054,0.9523056
"2.14 sec",-0.02183828,-0.1834984,1.539455,0.0955478,0.887952089309692,1.21383392810822,-7.17069959640503,0.9045317,-0.03561921,-0.008390306,1.086779,1.494518,-7.264054,0.9523056
"2.15 sec",0.1125614,-0.0772813,1.542118,0.09362054,0.89328533411026,1.22098433971405,-7.17187261581421,0.9054953,-0.07657333,-0.01173153,1.086779,1.494518,-7.264054,0.9523056
"2.16 sec",0.1574718,-0.006410461,1.672762,0.0917654,0.89866030216217,1.22817516326904,-7.17283296585083,0.9064229,-0.09784624,0.0008911904,1.086779,1.494518,-7.264054,0.9523056
"2.17 sec",0.01897876,0.1554975,1.813067,0.08991158,0.904080748558044,1.23542773723602,-7.17361068725586,0.9073498,-0.09221342,0.03186502,1.086779,1.494518,-7.264054,0.9523056
"2.18 sec",0.01804309,0.1466332,1.921559,0.08805013,0.909527659416199,1.24275767803192,-7.1742730140686,0.9082805,-0.05485854,0.04990557,1.086779,1.494518,-7.264054,0.9523056
"2.19 sec",0.0175663,0.1416968,1.987794,0.08628726,0.914969503879547,1.25015461444855,-7.17488384246826,0.9091619,-0.003170495,0.0493887,1.086779,1.494518,-7.264054,0.9523056
"2.2 sec",-0.02939967,-0.2369843,1.195928,0.1191139,0.920375764369965,1.25758361816406,-7.17548894882202,0.9100115,0.04161501,0.04307192,1.13795,1.574775,-7.251947,0.9695685
"2.21 sec",-0.02967704,-0.2369504,1.195928,0.1167508,0.925737619400024,1.26501214504242,-7.17591762542725,0.9111931,0.03101958,0.03066015,1.13795,1.574775,-7.251947,0.9695685
"2.22 sec",-0.02996166,-0.2369152,1.195928,0.1143258,0.931075036525726,1.27243876457214,-7.17596292495728,0.9124056,-0.02461754,0.01500769,1.13795,1.574775,-7.251947,0.9695685
"2.23 sec",-0.02117754,-0.165066,1.707577,0.1119522,0.936414301395416,1.27988278865814,-7.17562437057495,0.9135924,-0.08340565,0.001316154,1.13795,1.574775,-7.251947,0.9695685
"2.24 sec",-0.01418543,-0.1092911,2.571736,0.1096679,0.941790163516998,1.28737533092499,-7.17502212524414,0.9147345,-0.1233242,-0.008093379,1.13795,1.574775,-7.251947,0.9695685
"2.25 sec",0.04566672,-0.05609139,2.769238,0.1074632,0.947252035140991,1.29496550559998,-7.17448902130127,0.9158369,-0.1374093,-0.01279293,1.13795,1.574775,-7.251947,0.9695685
"2.26 sec",0.03084483,0.07849643,2.77185,0.1053064,0.952836275100708,1.30268895626068,-7.17429542541504,0.9169153,-0.1301079,-0.007562047,1.13795,1.574775,-7.251947,0.9695685
"2.27 sec",0.01449304,0.1088906,2.580063,0.1031656,0.958535850048065,1.31054651737213,-7.17449474334717,0.9179857,-0.09770881,0.00273683,1.13795,1.574775,-7.251947,0.9695685
"2.28 sec",0.01640137,0.1223148,2.297832,0.1010662,0.96431177854538,1.31850898265839,-7.17504692077637,0.9190354,-0.04966566,0.00953728,1.13795,1.574775,-7.251947,0.9695685
"2.29 sec",0.01830569,0.1355499,2.074436,0.09902585,0.970116376876831,1.32652747631073,-7.17583894729614,0.9200556,-0.00217224,0.0128676,1.13795,1.574775,-7.251947,0.9695685
"2.3 sec",-0.01753963,-0.1288733,2.18094,0.1101511,0.9759122133255,1.33455753326416,-7.17674589157104,0.9210511,0.03847412,0.01484165,1.191466,1.653264,-7.25262,0.9761267
"2.31 sec",-0.01987547,-0.1449603,1.940127,0.1079563,0.9816734790802,1.34256732463837,-7.17773389816284,0.9221485,0.0393023,0.01197159,1.191466,1.653264,-7.25262,0.9761267
"2.32 sec",-0.02130728,-0.1542301,1.824141,0.1057711,0.987402021884918,1.3505539894104,-7.17877292633057,0.9232411,0.004838884,0.005028901,1.191466,1.653264,-7.25262,0.9761267
"2.33 sec",-0.02173878,-0.1561376,1.801781,0.1036228,0.993124008178711,1.3585399389267,-7.17977333068848,0.9243153,-0.03622966,-0.002189355,1.191466,1.653264,-7.25262,0.9761267
"2.34 sec",-0.02154626,-0.153559,1.831516,0.1015248,0.99886691570282,1.36655068397522,-7.18069887161255,0.9253643,-0.07228656,-0.008250836,1.191466,1.653264,-7.25262,0.9761267
"2.35 sec",0.09025603,-0.02896711,1.867292,0.09947872,1.00465488433838,1.37460887432098,-7.18154907226562,0.9263873,-0.09959064,-0.01277575,1.191466,1.653264,-7.25262,0.9761267
"2.36 sec",0.02070803,0.1453971,1.932953,0.0974859,1.01050531864166,1.382732629776,-7.18233823776245,0.9273837,-0.1041279,-0.002889561,1.191466,1.653264,-7.25262,0.9761267
"2.37 sec",0.02053558,0.1431525,1.962762,0.09549403,1.01641499996185,1.39093124866486,-7.18309020996094,0.9283797,-0.07056224,0.01028185,1.191466,1.653264,-7.25262,0.9761267
"2.38 sec",0.02055619,0.1423087,1.974044,0.0935483,1.02235734462738,1.39918923377991,-7.18383264541626,0.9293525,-0.01819066,0.01641175,1.191466,1.653264,-7.25262,0.9761267
"2.39 sec",0.02068619,0.1422629,1.974409,0.09166098,1.02829802036285,1.40747129917145,-7.18457746505737,0.9302962,0.029534,0.01915379,1.191466,1.653264,-7.25262,0.9761267
"2.4 sec",-0.01480277,-0.1009737,2.776445,0.1125463,1.03420662879944,1.41574203968048,-7.18532752990723,0.9312162,0.06641839,0.02031988,1.244892,1.735008,-7.271789,0.9874894
"2.41 sec",-0.01491531,-0.1009572,2.776444,0.1103132,1.0400515794754,1.42396628856659,-7.18627214431763,0.9323328,0.0643955,0.01663183,1.244892,1.735008,-7.271789,0.9874894
"2.42 sec",-0.01502781,-0.1009405,2.776444,0.1080807,1.04582715034485,1.43213498592377,-7.18762016296387,0.933449,0.03146819,0.009319791,1.244892,1.735008,-7.271789,0.9874894
"2.43 sec",-0.01513815,-0.1009241,2.776444,0.1058904,1.05156636238098,1.44027650356293,-7.18937492370605,0.9345442,-0.004646666,0.002277017,1.244892,1.735008,-7.271789,0.9874894
"2.44 sec",-0.02275046,-0.1509098,1.860678,0.1037525,1.05730628967285,1.4484246969223,-7.19153642654419,0.9356132,-0.03469695,-0.003330196,1.244892,1.735008,-7.271789,0.9874894
"2.45 sec",0.1491683,-0.06675156,1.177672,0.1016608,1.06307172775269,1.45660161972046,-7.19388723373413,0.936659,-0.06280901,-0.008289363,1.244892,1.735008,-7.271789,0.9874894
"2.46 sec",0.03588115,0.2361064,1.195928,0.09964347,1.06886839866638,1.46481263637543,-7.19602346420288,0.9376677,-0.07897511,0.007350382,1.244892,1.735008,-7.271789,0.9874894
"2.47 sec",0.03612039,0.2360706,1.195928,0.09759796,1.07468771934509,1.47306191921234,-7.1977710723877,0.9386904,-0.04636621,0.02673042,1.244892,1.735008,-7.271789,0.9874894
"2.48 sec",0.03635521,0.2360352,1.195928,0.09558976,1.08050990104675,1.4813414812088,-7.199134349823,0.9396945,0.01895539,0.034599,1.244892,1.735008,-7.271789,0.9874894
"2.49 sec",0.03167623,0.2038508,1.381041,0.09365594,1.08630919456482,1.4896240234375,-7.20011425018311,0.9406614,0.08170089,0.03741284,1.244892,1.735008,-7.271789,0.9874894
"2.5 sec",-0.01584868,-0.1008153,2.776444,0.1198801,1.09205830097198,1.49787843227386,-7.20075178146362,0.9416,0.1276387,0.03756944,1.295064,1.815115,-7.31004,1.00154
"2.51 sec",-0.01596837,-0.1007965,2.776445,0.1175011,1.09770178794861,1.50605142116547,-7.2014217376709,0.9427895,0.1213548,0.03094404,1.295064,1.815115,-7.31004,1.00154
"2.52 sec",-0.01608928,-0.1007773,2.776444,0.1150979,1.10321474075317,1.5141167640686,-7.20248794555664,0.9439911,0.07600812,0.01972595,1.295064,1.815115,-7.31004,1.00154
"2.53 sec",-0.01620785,-0.1007584,2.776445,0.1127406,1.1086437702179,1.52211320400238,-7.20395708084106,0.9451697,0.02736003,0.009234751,1.295064,1.815115,-7.31004,1.00154
"2.54 sec",-0.01632313,-0.1007399,2.776445,0.1104482,1.11403930187225,1.53008568286896,-7.20583200454712,0.9463159,-0.0128108,0.0009842466,1.295064,1.815115,-7.31004,1.00154
"2.55 sec",0.05798514,-0.07573506,2.101729,0.1082178,1.11944329738617,1.53807258605957,-7.20811414718628,0.9474311,-0.04249287,-0.004980186,1.295064,1.815115,-7.31004,1.00154
"2.56 sec",0.03841578,0.2357145,1.195928,0.1060563,1.12487995624542,1.5460969209671,-7.21064233779907,0.9485119,-0.06020139,-0.0004148399,1.295064,1.815115,-7.31004,1.00154
"2.57 sec",0.03866674,0.2356742,1.195928,0.103907,1.13034451007843,1.55415868759155,-7.2130241394043,0.9495866,-0.03248764,0.01013705,1.295064,1.815115,-7.31004,1.00154
"2.58 sec",0.03891606,0.2356339,1.195928,0.1017712,1.13581454753876,1.56223845481873,-7.21502304077148,0.9506544,0.02852248,0.01900179,1.295064,1.815115,-7.31004,1.00154
"2.59 sec",0.03915882,0.2355944,1.195928,0.09969139,1.14126563072205,1.57031106948853,-7.21663808822632,0.9516944,0.08797657,0.0256781,1.295064,1.815115,-7.31004,1.00154
"2.6 sec",-0.01696531,-0.100634,2.776445,0.1178545,1.14667415618896,1.57835030555725,-7.21786737442017,0.9527047,0.1353259,0.03041688,1.345992,1.896859,-7.330201,1.011632
"2.61 sec",-0.01708321,-0.1006142,2.776445,0.1155071,1.15198361873627,1.58630013465881,-7.21907949447632,0.9538784,0.1305027,0.02708504,1.345992,1.896859,-7.330201,1.011632
"2.62 sec",-0.01720159,-0.1005941,2.776444,0.1131499,1.15716099739075,1.59412789344788,-7.22068691253662,0.955057,0.0838579,0.01742638,1.345992,1.896859,-7.330201,1.011632
"2.63 sec",-0.02181303,-0.1268134,2.204351,0.1108334,1.16225183010101,1.60187494754791,-7.22269630432129,0.9562153,0.03330711,0.00765266,1.345992,1.896859,-7.330201,1.011632
"2.64 sec",-0.04047709,-0.2353755,1.195928,0.1085749,1.16730856895447,1.60959148406982,-7.2249755859375,0.9573445,-0.01163779,-0.00080621,1.345992,1.896859,-7.330201,1.011632
"2.65 sec",-0.04073576,-0.2353317,1.195928,0.1063564,1.17236924171448,1.61731338500977,-7.22713708877563,0.9584538,-0.0607684,-0.009750904,1.345992,1.896859,-7.330201,1.011632
"2.66 sec",0.05844837,0.1531771,1.177778,0.1041808,1.17745542526245,1.62506175041199,-7.22891426086426,0.9595416,-0.1101644,-0.01861774,1.345992,1.896859,-7.330201,1.011632
"2.67 sec",0.04123448,0.2352464,1.195928,0.1020778,1.18258571624756,1.63285505771637,-7.23030042648315,0.960593,-0.104753,-0.01417713,1.345992,1.896859,-7.330201,1.011632
"2.68 sec",0.04148228,0.2352036,1.195928,0.09995127,1.1877566576004,1.6406923532486,-7.23129606246948,0.9616563,-0.0431336,-0.0006142667,1.345992,1.896859,-7.330201,1.011632
"2.69 sec",0.03186367,0.1788345,1.565917,0.09785509,1.19294226169586,1.64855003356934,-7.23190784454346,0.9627044,0.03042034,0.01183725,1.345992,1.896859,-7.330201,1.011632
"2.7 sec",-0.041961,-0.2351202,1.195928,0.1131256,1.1981086730957,1.65639460086823,-7.23222351074219,0.9637109,0.08675684,0.02043474,1.397256,1.980832,-7.326432,1.020274
"2.71 sec",-0.03504574,-0.1945033,1.440776,0.1108614,1.20323300361633,1.66420161724091,-7.23225116729736,0.964843,0.0740801,0.01676897,1.397256,1.980832,-7.326432,1.020274
"2.72 sec",-0.02322842,-0.1275927,2.187232,0.1085711,1.20832288265228,1.67197740077972,-7.23195219039917,0.9659882,0.01446932,0.004946459,1.397256,1.980832,-7.326432,1.020274
"2.73 sec",-0.02036737,-0.1110975,2.509661,0.1063406,1.21340382099152,1.67974698543549,-7.23156929016113,0.9671034,-0.03711493,-0.005203334,1.397256,1.980832,-7.326432,1.020274
"2.74 sec",-0.02027659,-0.1099319,2.535656,0.1041888,1.2185138463974,1.68754839897156,-7.23137426376343,0.9681793,-0.06892613,-0.01158271,1.397256,1.980832,-7.326432,1.020274
"2.75 sec",-0.01478204,-0.1109933,2.411235,0.1020951,1.22368407249451,1.69541203975677,-7.23145627975464,0.9692261,-0.08693114,-0.01529294,1.397256,1.980832,-7.326432,1.020274
"2.76 sec",0.04583506,0.09105232,2.243914,0.1000491,1.22893011569977,1.70335292816162,-7.2317910194397,0.9702491,-0.09715293,-0.01679133,1.397256,1.980832,-7.326432,1.020274
"2.77 sec",0.02476997,0.1321453,2.110311,0.09803116,1.23425364494324,1.71137404441833,-7.23230504989624,0.9712581,-0.07951298,-0.009807918,1.397256,1.980832,-7.326432,1.020274
"2.78 sec",0.02615395,0.138806,2.009342,0.09602189,1.23963367938995,1.71945917606354,-7.2329249382019,0.9722627,-0.03592228,0.0007883072,1.397256,1.980832,-7.326432,1.020274
"2.79 sec",0.02704412,0.1427918,1.953303,0.09405923,1.24503421783447,1.72757518291473,-7.23359441757202,0.9732441,0.01125248,0.008952408,1.397256,1.980832,-7.326432,1.020274
"2.8 sec",-0.04440198,-0.2346795,1.195928,0.1104853,1.25042188167572,1.73568761348724,-7.23427391052246,0.9741986,0.05131914,0.01498449,1.448169,2.064568,-7.315073,1.029441
"2.81 sec",-0.04465863,-0.2346317,1.195928,0.1082777,1.25578045845032,1.74377691745758,-7.23476791381836,0.9753024,0.03770715,0.01090934,1.448169,2.064568,-7.315073,1.029441
"2.82 sec",-0.04491872,-0.2345829,1.195928,0.10604,1.26112246513367,1.7518527507782,-7.23487901687622,0.9764212,-0.01972794,-0.001216696,1.448169,2.064568,-7.315073,1.029441
"2.83 sec",-0.0328099,-0.1695406,1.646352,0.1038398,1.26647162437439,1.7599378824234,-7.23460674285889,0.9775214,-0.07957863,-0.0135589,1.448169,2.064568,-7.315073,1.029441
"2.84 sec",-0.02174667,-0.1114144,2.497184,0.1017202,1.27186071872711,1.76806473731995,-7.23405599594116,0.9785811,-0.1209138,-0.02217278,1.448169,2.064568,-7.315073,1.029441
"2.85 sec",0.06277267,-0.04494676,2.770249,0.09967566,1.27733731269836,1.77628123760223,-7.23354148864746,0.9796034,-0.136512,-0.02567109,1.448169,2.064568,-7.315073,1.029441
"2.86 sec",0.01997393,0.1012045,2.746918,0.09767056,1.28293883800507,1.78462612628937,-7.23334646224976,0.980606,-0.1287283,-0.01615637,1.448169,2.064568,-7.315073,1.029441
"2.87 sec",0.0218621,0.1102299,2.522409,0.09566891,1.28865528106689,1.79310309886932,-7.23353910446167,0.9816068,-0.09292708,-0.002768371,1.448169,2.064568,-7.315073,1.029441
"2.88 sec",0.02440025,0.1224623,2.271219,0.09370756,1.29444313049316,1.80167889595032,-7.23406505584717,0.9825875,-0.04281192,0.006065102,1.448169,2.064568,-7.315073,1.029441
"2.89 sec",0.02687905,0.1343109,2.071646,0.09180105,1.30025458335876,1.81030249595642,-7.23480987548828,0.9835407,0.004109458,0.01221584,1.448169,2.064568,-7.315073,1.029441
"2.9 sec",-0.0424976,-0.2123718,1.31658,0.1108829,1.30605351924896,1.81893074512482,-7.23566198348999,0.9844692,0.04321658,0.01682329,1.500675,2.150423,-7.313315,1.039911
"2.91 sec",-0.03252439,-0.1610544,1.729503,0.1086719,1.31182360649109,1.82754027843475,-7.23638916015625,0.9855747,0.03281778,0.01215334,1.500675,2.150423,-7.313315,1.039911
"2.92 sec",-0.02825719,-0.1389634,2.001512,0.106446,1.31757473945618,1.83613634109497,-7.23689126968384,0.9866877,-0.01233393,0.001166255,1.500675,2.150423,-7.313315,1.039911
"2.93 sec",-0.02676479,-0.1308468,2.124334,0.1042737,1.32333159446716,1.84474313259125,-7.23734092712402,0.9877738,-0.05286604,-0.008370547,1.500675,2.150423,-7.313315,1.039911
"2.94 sec",-0.02201453,-0.1265331,2.143706,0.102165,1.32912504673004,1.8533900976181,-7.23783826828003,0.9888282,-0.08135581,-0.01507949,1.500675,2.150423,-7.313315,1.039911
"2.95 sec",0.09893998,0.02286337,2.10396,0.1001115,1.33497893810272,1.86209988594055,-7.2384181022644,0.9898549,-0.09938963,-0.01891646,1.500675,2.150423,-7.313315,1.039911
"2.96 sec",0.02794478,0.1345281,2.065285,0.09809387,1.34090483188629,1.87088572978973,-7.23907375335693,0.9908637,-0.09291267,-0.006638301,1.500675,2.150423,-7.313315,1.039911
"2.97 sec",0.02878445,0.1378953,2.014784,0.09607089,1.34688794612885,1.87974643707275,-7.23978662490845,0.9918752,-0.05528663,0.00953475,1.500675,2.150423,-7.313315,1.039911
"2.98 sec",0.02949518,0.14063,1.975489,0.09410214,1.35289394855499,1.88865876197815,-7.24053764343262,0.9928596,-0.006105945,0.01827592,1.500675,2.150423,-7.313315,1.039911
"2.99 sec",0.02997556,0.1422596,1.952644,0.09219503,1.35888862609863,1.89758658409119,-7.24130535125732,0.9938132,0.03765291,0.02315796,1.500675,2.150423,-7.313315,1.039911
"3 sec",-0.02117243,-0.09983627,2.776444,0.1144817,1.36484467983246,1.9064964056015,-7.24207353591919,0.9947414,0.07158259,0.02599536,1.554306,2.23831,-7.330383,1.051982
"3.01 sec",-0.02128567,-0.09981225,2.776445,0.1122091,1.37073171138763,1.91535437107086,-7.24302911758423,0.9958777,0.0677628,0.02171015,1.554306,2.23831,-7.330383,1.051982
"3.02 sec",-0.02139922,-0.09978805,2.776445,0.1099297,1.376544713974,1.92415237426758,-7.24438858032227,0.9970174,0.03384255,0.01197708,1.554306,2.23831,-7.330383,1.051982
"3.03 sec",-0.02151066,-0.09976416,2.776445,0.1076924,1.38231825828552,1.93292021751404,-7.24615430831909,0.9981361,-0.002819031,0.002417937,1.554306,2.23831,-7.330383,1.051982
"3.04 sec",-0.03737767,-0.1730729,1.606144,0.1055115,1.38809049129486,1.9416925907135,-7.24832677841187,0.9992265,-0.03316906,-0.005245701,1.554306,2.23831,-7.330383,1.051982
"3.05 sec",0.188409,0.021487,1.183207,0.1033754,1.39388561248779,1.95049095153809,-7.25062799453735,1.000295,-0.06416089,-0.01267991,1.554306,2.23831,-7.330383,1.051982
"3.06 sec",0.05069445,0.2334237,1.195928,0.1013067,1.39970970153809,1.95932126045227,-7.25264978408813,1.001329,-0.07243294,0.006458928,1.554306,2.23831,-7.330383,1.051982
"3.07 sec",0.05093974,0.2333712,1.195928,0.09918547,1.40555214881897,1.96818792819977,-7.25428438186646,1.00239,-0.0319991,0.03191724,1.554306,2.23831,-7.330383,1.051982
"3.08 sec",0.05117852,0.2333198,1.195928,0.09712029,1.41138887405396,1.97707962989807,-7.25553464889526,1.003422,0.03242364,0.04356167,1.554306,2.23831,-7.330383,1.051982
"3.09 sec",0.03964088,0.1791444,1.55063,0.09514189,1.41719377040863,1.98596906661987,-7.25640106201172,1.004411,0.09172746,0.04870056,1.554306,2.23831,-7.330383,1.051982
"3.1 sec",-0.02223024,-0.09960679,2.776444,-0.09166551,1.42293703556061,1.99482333660126,-7.25696468353271,1.005367,0.1315429,0.04947476,1.638547,2.302486,-7.369438,0.9595338
"3.11 sec",-0.02214934,-0.09962475,2.776445,-0.09003854,1.42856359481812,2.00358963012695,-7.25760364532471,1.004553,0.1207771,0.04060328,1.638547,2.302486,-7.369438,0.9595338
"3.12 sec",-0.0220632,-0.09964381,2.776445,-0.08830667,1.43405544757843,2.01224827766418,-7.25863838195801,1.003687,0.07436584,0.02562696,1.638547,2.302486,-7.369438,0.9595338
"3.13 sec",-0.02197877,-0.09966241,2.776445,-0.08660936,1.43946206569672,2.02083897590637,-7.26007604598999,1.002838,0.02591684,0.01169396,1.638547,2.302486,-7.369438,0.9595338
"3.14 sec",-0.07803562,-0.01211176,2.770634,-0.08492136,1.44483470916748,2.0294075012207,-7.26191997528076,1.001994,-0.01370506,0.0008000551,1.638547,2.302486,-7.369438,0.9595338
"3.15 sec",-0.1222726,0.02693628,2.26522,-0.08324838,1.45021557807922,2.03799033164978,-7.26416921615601,1.001158,-0.03264462,-0.01355821,1.638547,2.302486,-7.369438,0.9595338
"3.16 sec",-0.2331705,0.0518663,1.195928,-0.08157659,1.45563197135925,2.04659628868103,-7.26670217514038,1.000322,-0.02999337,-0.03577435,1.638547,2.302486,-7.369438,0.9595338
"3.17 sec",-0.1844173,0.08407649,1.186234,-0.07988882,1.46108794212341,2.05520820617676,-7.26913213729858,0.9994782,-0.0151585,-0.07250303,1.638547,2.302486,-7.369438,0.9595338
"3.18 sec",0.05007179,0.2335557,1.195928,-0.07820809,1.46658480167389,2.06380391120911,-7.27117538452148,0.9986379,0.006285476,-0.1096518,1.638547,2.302486,-7.369438,0.9595338
"3.19 sec",0.04989137,0.2335936,1.195928,-0.07664907,1.47213208675385,2.07236170768738,-7.27282953262329,0.9978583,0.04555709,-0.1085313,1.638547,2.302486,-7.369438,0.9595338
"3.2 sec",-0.04973157,-0.2336271,1.195928,-0.1312779,1.47771763801575,2.08086204528809,-7.27409648895264,0.9971681,0.09452326,-0.0772034,1.704592,2.386045,-7.36994,0.9315291
"3.21 sec",-0.0494344,-0.233689,1.195928,-0.128711,1.48331379890442,2.0892927646637,-7.27497577667236,0.9958846,0.08254553,-0.05419328,1.704592,2.386045,-7.36994,0.9315291
"3.22 sec",-0.03810241,-0.1805613,1.541797,-0.1260798,1.48891234397888,2.09766626358032,-7.27546977996826,0.994569,0.017057,-0.04610654,1.704592,2.386045,-7.36994,0.9315291
"3.23 sec",-0.03023572,-0.1438738,1.931112,-0.1235334,1.4945319890976,2.10601425170898,-7.27566146850586,0.9932958,-0.04612654,-0.04287298,1.704592,2.386045,-7.36994,0.9315291
"3.24 sec",-0.02709764,-0.1296479,2.141983,-0.1210471,1.500204205513,2.11437559127808,-7.27573347091675,0.9920527,-0.08778774,-0.0399777,1.704592,2.386045,-7.36994,0.9315291
"3.25 sec",-0.0640702,-0.06810102,2.203361,-0.1186157,1.50595843791962,2.12278819084167,-7.2758355140686,0.990837,-0.1100579,-0.03678227,1.704592,2.386045,-7.36994,0.9315291
"3.26 sec",-0.04057942,0.08272485,2.191066,-0.11624,1.51181077957153,2.13127684593201,-7.27603483200073,0.9896491,-0.1136515,-0.03819115,1.704592,2.386045,-7.36994,0.9315291
"3.27 sec",0.02656678,0.1294043,2.147555,-0.1139069,1.51776516437531,2.13984441757202,-7.27634429931641,0.9884825,-0.08831108,-0.04095579,1.704592,2.386045,-7.36994,0.9315291
"3.28 sec",0.02727295,0.1336307,2.080539,-0.1116582,1.52380740642548,2.14846634864807,-7.27675294876099,0.9873582,-0.04157269,-0.03395414,1.704592,2.386045,-7.36994,0.9315291
"3.29 sec",0.0278793,0.1373833,2.024534,-0.1094923,1.52990341186523,2.1571056842804,-7.2772364616394,0.9862753,0.006879891,-0.01991162,1.704592,2.386045,-7.36994,0.9315291
"3.3 sec",-0.02022129,-0.1000326,2.776445,-0.1095794,1.53601324558258,2.16572833061218,-7.27776575088501,0.985208,0.04717298,-0.006275122,1.759265,2.465342,-7.396865,0.9304183
"3.31 sec",-0.02011232,-0.1000545,2.776445,-0.1073973,1.54209995269775,2.17430233955383,-7.27850341796875,0.984117,0.04970054,-0.000965328,1.759265,2.465342,-7.396865,0.9304183
"3.32 sec",-0.02000521,-0.1000759,2.776444,-0.1052531,1.54815208911896,2.18282032012939,-7.27964687347412,0.9830449,0.02123619,-0.003048201,1.759265,2.465342,-7.396865,0.9304183
"3.33 sec",-0.0199006,-0.1000967,2.776444,-0.1031591,1.55419170856476,2.19131183624268,-7.28119659423828,0.9819978,-0.01132504,-0.006997187,1.759265,2.465342,-7.396865,0.9304183
"3.34 sec",-0.02028744,-0.1026017,2.709461,-0.1011044,1.56024789810181,2.19981026649475,-7.28315401077271,0.9809705,-0.03880581,-0.01073878,1.759265,2.465342,-7.396865,0.9304183
"3.35 sec",0.08175746,0.1763084,1.210647,-0.09908676,1.56634533405304,2.20834422111511,-7.28550100326538,0.9799617,-0.05962938,-0.01372663,1.759265,2.465342,-7.396865,0.9304183
"3.36 sec",0.04551377,0.2344702,1.195928,-0.0971272,1.57248377799988,2.21691679954529,-7.28786420822144,0.9789819,-0.04202724,-0.004057916,1.759265,2.465342,-7.396865,0.9304183
"3.37 sec",0.04529784,0.2345113,1.195928,-0.09526849,1.5786372423172,2.22550749778748,-7.28984832763672,0.9780526,0.01288491,0.01146099,1.759265,2.465342,-7.396865,0.9304183
"3.38 sec",0.04508463,0.2345516,1.195928,-0.09343362,1.58478081226349,2.23409533500671,-7.29144906997681,0.9771351,0.07328054,0.02289588,1.759265,2.465342,-7.396865,0.9304183
"3.39 sec",0.04487216,0.2345916,1.195928,-0.09160531,1.59088897705078,2.24265503883362,-7.29266500473022,0.976221,0.1235918,0.03080037,1.759265,2.465342,-7.396865,0.9304183
"3.4 sec",-0.01923228,-0.1002268,2.776445,-0.09699631,1.59694111347198,2.25116443634033,-7.29349279403687,0.9753144,0.1609413,0.03602393,1.820467,2.548901,-7.416715,0.9268162
"3.41 sec",-0.01913615,-0.1002452,2.776445,-0.09507489,1.60287845134735,2.25956606864929,-7.29430055618286,0.9743537,0.1479693,0.03191806,1.820467,2.548901,-7.416715,0.9268162
"3.42 sec",-0.01904391,-0.1002627,2.776445,-0.09323156,1.60866725444794,2.26782608032227,-7.29549932479858,0.973432,0.09544,0.02071365,1.820467,2.548901,-7.416715,0.9268162
"3.43 sec",-0.01895369,-0.1002797,2.776444,-0.09142911,1.61435794830322,2.27599334716797,-7.29709815979004,0.9725308,0.0408494,0.009513232,1.820467,2.548901,-7.416715,0.9268162
