Time,Roll,Pitch,Data,Yaw,x,y,z,roll,pitch,yaw,desired x,desired y,desired z,desired yaw
"0 sec",0.07209702,-0.07228513,2.776445,0.5,0,0,-7,0,0,0,0.2678547,0.2678547,-7.1015,0.7853982
"0.01 sec",0.0717539,-0.07262573,2.776444,0.5,1.13170335680479e-06,1.13295118353562e-06,-7.000168800354,0.00473965,-0.008428808,0.008384466,0.2678547,0.2678547,-7.1015,0.7853982
"0.02 sec",0.07139104,-0.07298243,2.776445,0.5,1.46039956234745e-05,1.46735746966442e-05,-7.0007438659668,0.009728186,-0.02360488,0.02336394,0.2678547,0.2678547,-7.1015,0.7853982
"0.03 sec",0.07102633,-0.07333738,2.776445,0.5,6.03781081736088e-05,6.08401278441306e-05,-7.00172567367554,0.01471773,-0.03799008,0.03739883,0.2678547,0.2678547,-7.1015,0.7853982
"0.04 sec",0.07065956,-0.07369078,2.776444,0.5,0.000157703558215871,0.000159321512910537,-7.00311231613159,0.01971122,-0.04938135,0.04833391,0.2678547,0.2678547,-7.1015,0.7853982
"0.05 sec",0.07029082,-0.07404253,2.776444,0.5,0.000321772618917748,0.00032584514701739,-7.00490283966064,0.02470787,-0.05767507,0.05610422,0.2678547,0.2678547,-7.1015,0.7853982
"0.06 sec",0.06992018,-0.07439256,2.776445,0.5,0.000563497946131974,0.00057186622871086,-7.00709629058838,0.02970633,-0.06344487,0.06130621,0.2678547,0.2678547,-7.1015,0.7853982
"0.07 sec",0.1273531,-0.137692,1.519102,0.5,0.000890298746526241,0.000905294378753752,-7.00969171524048,0.03470569,-0.06736399,0.0646254,0.2678547,0.2678547,-7.1015,0.7853982
"0.08 sec",0.1611614,-0.1769428,1.195928,0.5,0.00128792144823819,0.00131166668143123,-7.01239061355591,0.03970134,-0.07734482,0.0733643,0.2678547,0.2678547,-7.1015,0.7853982
"0.09 sec",0.1602822,-0.1777381,1.195928,0.5,0.00173630274366587,0.00177029985934496,-7.01478815078735,0.04468497,-0.09685177,0.09053425,0.2678547,0.2678547,-7.1015,0.7853982
"0.1 sec",0.1594,-0.1785281,1.195928,0.5,0.00223987619392574,0.00228560110554099,-7.01679706573486,0.04966396,-0.1187177,0.1095362,0.2907309,0.2649871,-7.056235,0.7386438
"0.11 sec",0.1585128,-0.1793145,1.195928,0.5,0.00281033245846629,0.00286950962617993,-7.0184154510498,0.05464912,-0.1371965,0.1252294,0.2907309,0.2649871,-7.056235,0.7386438
"0.12 sec",0.1576205,-0.1800974,1.195928,0.5,0.00345750735141337,0.00353220547549427,-7.01964092254639,0.059641,-0.1511533,0.1366588,0.2907309,0.2649871,-7.056235,0.7386438
"0.13 sec",0.1567237,-0.1808763,1.195928,0.5,0.00418868009001017,0.00428134482353926,-7.02047061920166,0.06463721,-0.1611174,0.1443589,0.2907309,0.2649871,-7.056235,0.7386438
"0.14 sec",0.1558226,-0.181651,1.195928,0.5,0.00500888656824827,0.00512231234461069,-7.02090358734131,0.06963565,-0.1680353,0.1492239,0.2907309,0.2649871,-7.056235,0.7386438
"0.15 sec",0.1549175,-0.1824211,1.195928,0.5,0.00592146534472704,0.00605874182656407,-7.02093839645386,0.07463511,-0.1727983,0.1520847,0.2907309,0.2649871,-7.056235,0.7386438
"0.16 sec",0.1540086,-0.1831867,1.195928,0.5,0.00692856917157769,0.00709301838651299,-7.02057456970215,0.07963498,-0.1761061,0.1535899,0.2907309,0.2649871,-7.056235,0.7386438
"0.17 sec",0.1530959,-0.1839475,1.195928,0.5,0.00803155358880758,0.00822667498141527,-7.01981163024902,0.084635,-0.1784615,0.1542045,0.2907309,0.2649871,-7.056235,0.7386438
"0.18 sec",0.0825243,-0.09921068,2.199352,0.5,0.00923126190900803,0.0094606839120388,-7.01864910125732,0.08963508,-0.1802073,0.1542456,0.2907309,0.2649871,-7.056235,0.7386438
"0.19 sec",0.06495144,-0.07876612,2.776444,0.5,0.0105660883709788,0.0108350114896894,-7.01731872558594,0.09463052,-0.1716026,0.1458288,0.2907309,0.2649871,-7.056235,0.7386438
"0.2 sec",0.1503396,-0.1861985,1.195928,0.5,0.0120902927592397,0.0124063016846776,-7.01621341705322,0.09961315,-0.1523612,0.1288643,0.314098,0.2613187,-7.041284,0.6893192
"0.21 sec",0.1494133,-0.1869395,1.195928,0.5,0.0137562723830342,0.0141253396868706,-7.01511859893799,0.1046068,-0.1444665,0.1211032,0.314098,0.2613187,-7.041284,0.6893192
"0.22 sec",0.09954119,-0.1248949,1.780318,0.5,0.01550033967942,0.015925794839859,-7.01363086700439,0.109606,-0.1502458,0.1242872,0.314098,0.2613187,-7.041284,0.6893192
"0.23 sec",0.01896313,-0.07493812,2.770272,0.5,0.0173431131988764,0.0178289338946342,-7.01188468933105,0.1146056,-0.151995,0.1243671,0.314098,0.2613187,-7.041284,0.6893192
"0.24 sec",-0.03833034,-0.06820711,2.770472,0.5,0.0193365290760994,0.0198880061507225,-7.01026153564453,0.1195973,-0.1414063,0.1101817,0.314098,0.2613187,-7.041284,0.6893192
"0.25 sec",-0.08051363,-0.06277052,2.776444,0.5,0.0215039309114218,0.0221196003258228,-7.00902032852173,0.1245718,-0.1242752,0.08134743,0.314098,0.2613187,-7.041284,0.6893192
"0.26 sec",-0.0808242,-0.06236975,2.776445,0.5,0.0238274894654751,0.024483285844326,-7.00816917419434,0.1295387,-0.107258,0.04417032,0.314098,0.2613187,-7.041284,0.6893192
"0.27 sec",-0.08113316,-0.06196695,2.776444,0.5,0.0262906849384308,0.0269271787256002,-7.00771617889404,0.1345116,-0.09311634,0.008281305,0.314098,0.2613187,-7.041284,0.6893192
"0.28 sec",-0.08144077,-0.06156173,2.776445,0.5,0.0288805700838566,0.0294006876647472,-7.00766372680664,0.1394952,-0.08256958,-0.02028117,0.314098,0.2613187,-7.041284,0.6893192
"0.29 sec",-0.09162174,-0.05429213,2.416637,0.5,0.0315879881381989,0.0318631790578365,-7.00801372528076,0.1444867,-0.07514561,-0.04106324,0.314098,0.2613187,-7.041284,0.6893192
"0.3 sec",0.08205111,0.06074506,2.776445,0.5,0.0344000086188316,0.0342879183590412,-7.00868034362793,0.1494818,-0.06928416,-0.05658458,0.2980741,0.308885,-7.102845,0.8056881
"0.31 sec",0.08235417,0.06033311,2.776445,0.5,0.0373091623187065,0.0366560593247414,-7.00965547561646,0.1544911,-0.05112398,-0.04800535,0.2980741,0.308885,-7.102845,0.8056881
"0.32 sec",0.08265694,0.0599172,2.776445,0.5,0.0402972809970379,0.0389711856842041,-7.01103401184082,0.1595298,-0.02372956,-0.01983561,0.2980741,0.308885,-7.102845,0.8056881
"0.33 sec",0.08295754,0.05949986,2.776445,0.5,0.0433225855231285,0.0412643924355507,-7.01281881332397,0.164567,0.001088327,0.008999814,0.2980741,0.308885,-7.102845,0.8056881
"0.34 sec",0.08325524,0.05908211,2.776445,0.5,0.0463451035320759,0.0435691140592098,-7.01501083374023,0.1695909,0.02018496,0.03246454,0.2980741,0.308885,-7.102845,0.8056881
"0.35 sec",0.08355018,0.0586638,2.776445,0.5,0.0493331626057625,0.045912891626358,-7.01760864257812,0.1746036,0.0337059,0.04971806,0.2980741,0.308885,-7.102845,0.8056881
"0.36 sec",0.1956657,0.1377229,1.195928,0.5,0.0522638224065304,0.0483159683644772,-7.02061176300049,0.1796096,0.04278427,0.06171013,0.2980741,0.308885,-7.102845,0.8056881
"0.37 sec",0.1963519,0.1367363,1.195928,0.5,0.0551416389644146,0.0507720783352852,-7.02364349365234,0.1846258,0.05787439,0.0828048,0.2980741,0.308885,-7.102845,0.8056881
"0.38 sec",0.1970351,0.1357432,1.195928,0.5,0.0579761862754822,0.0532707870006561,-7.02628993988037,0.1896558,0.07797826,0.1115732,0.2980741,0.308885,-7.102845,0.8056881
"0.39 sec",0.1977125,0.1347477,1.195928,0.5,0.0607528910040855,0.0558259934186935,-7.0285472869873,0.19468,0.09552199,0.1372499,0.2980741,0.308885,-7.102845,0.8056881
"0.4 sec",0.05634337,-0.08513025,2.776445,0.5,0.0634586066007614,0.0584502816200256,-7.03041362762451,0.1996944,0.1086622,0.1570645,0.3222029,0.3349199,-7.132445,0.8185043
"0.41 sec",0.05591694,-0.08541057,2.776444,0.5,0.0660341754555702,0.0612030103802681,-7.03225517272949,0.2047014,0.0922203,0.1547169,0.3222029,0.3349199,-7.132445,0.8185043
"0.42 sec",0.05548634,-0.08569053,2.776445,0.5,0.0684454515576363,0.0641381293535233,-7.03448104858398,0.2097407,0.05246672,0.1346491,0.3222029,0.3349199,-7.132445,0.8185043
"0.43 sec",0.08721689,-0.1366575,1.753914,0.5,0.0707473084330559,0.0672403872013092,-7.03709936141968,0.2147848,0.01318508,0.1128777,0.3222029,0.3349199,-7.132445,0.8185043
"0.44 sec",0.127087,-0.2026834,1.195928,0.5,0.073003388941288,0.0704671815037727,-7.03987455368042,0.2198134,-0.0242444,0.09847838,0.3222029,0.3349199,-7.132445,0.8185043
"0.45 sec",0.1260778,-0.2033074,1.195928,0.5,0.0752593278884888,0.073770210146904,-7.04240942001343,0.2248194,-0.0655264,0.0963214,0.3222029,0.3349199,-7.132445,0.8185043
"0.46 sec",0.1250686,-0.2039244,1.195928,0.5,0.0775402411818504,0.07713832706213,-7.04455709457397,0.2298102,-0.1052547,0.1014291,0.3222029,0.3349199,-7.132445,0.8185043
"0.47 sec",0.1233213,-0.2043604,1.195775,0.5,0.0798677876591682,0.0805796012282372,-7.04631519317627,0.2348009,-0.1368686,0.1076289,0.3222029,0.3349199,-7.132445,0.8185043
"0.48 sec",-0.04199521,-0.1652504,1.179088,0.5,0.0822588577866554,0.0841020569205284,-7.04768180847168,0.2397954,-0.1598784,0.1126982,0.3222029,0.3349199,-7.132445,0.8185043
"0.49 sec",-0.1887811,-0.1285678,1.192863,0.5,0.084725022315979,0.087710440158844,-7.04864978790283,0.2448025,-0.1711643,0.09704979,0.3222029,0.3349199,-7.132445,0.8185043
"0.5 sec",0.1209971,-0.2063442,1.195928,0.5,0.087274581193924,0.0913970470428467,-7.04921865463257,0.2497971,-0.1691507,0.0479093,0.3534937,0.3770085,-7.085934,0.8205256
"0.51 sec",0.119972,-0.2069363,1.195928,0.5,0.0899141877889633,0.0951377376914024,-7.04939413070679,0.2547933,-0.1695344,0.02246825,0.3534937,0.3770085,-7.085934,0.8205256
"0.52 sec",0.1189441,-0.2075231,1.195928,0.5,0.0926478803157806,0.0989186018705368,-7.04917764663696,0.2597895,-0.1769124,0.03366165,0.3534937,0.3770085,-7.085934,0.8205256
"0.53 sec",0.1179142,-0.2081043,1.195928,0.5,0.095477968454361,0.102746345102787,-7.04856824874878,0.2647812,-0.1851935,0.05387887,0.3534937,0.3770085,-7.085934,0.8205256
"0.54 sec",0.1168811,-0.2086805,1.195928,0.5,0.0984056890010834,0.106633841991425,-7.04756498336792,0.2697744,-0.1922576,0.07275846,0.3534937,0.3770085,-7.085934,0.8205256
"0.55 sec",0.1158447,-0.2092517,1.195928,0.5,0.101431630551815,0.110593371093273,-7.04616641998291,0.2747704,-0.1976661,0.0873314,0.3534937,0.3770085,-7.085934,0.8205256
"0.56 sec",0.04936275,-0.0893525,2.776444,0.5,0.104555994272232,0.114634603261948,-7.04437065124512,0.2797684,-0.2016018,0.097514,0.3534937,0.3770085,-7.085934,0.8205256
"0.57 sec",0.03590914,-0.08579346,2.773985,0.5,0.107839144766331,0.118819944560528,-7.04254341125488,0.284766,-0.1903718,0.09653655,0.3534937,0.3770085,-7.085934,0.8205256
"0.58 sec",-0.07428405,-0.05329096,2.773576,0.5,0.111334547400475,0.123205542564392,-7.041090965271,0.2897518,-0.1667055,0.08552782,0.3534937,0.3770085,-7.085934,0.8205256
"0.59 sec",-0.07222307,0.01093909,2.769385,0.5,0.115016028285027,0.127768218517303,-7.04002046585083,0.2947158,-0.1396927,0.05969554,0.3534937,0.3770085,-7.085934,0.8205256
"0.6 sec",0.04757834,-0.09031346,2.776445,0.5,0.118857324123383,0.132464930415154,-7.03933906555176,0.299658,-0.1068331,0.02588192,0.3978548,0.4013477,-7.099813,0.7669387
"0.61 sec",0.04712895,-0.09054831,2.776445,0.5,0.122830040752888,0.137242287397385,-7.03905391693115,0.3046343,-0.085315,0.01027035,0.3978548,0.4013477,-7.099813,0.7669387
"0.62 sec",0.04667625,-0.09078204,2.776445,0.5,0.126912400126457,0.142071127891541,-7.03917074203491,0.3096343,-0.0796087,0.01268033,0.3978548,0.4013477,-7.099813,0.7669387
"0.63 sec",0.04622239,-0.09101349,2.776445,0.5,0.13109502196312,0.146951079368591,-7.0396900177002,0.3146342,-0.0800132,0.02011158,0.3978548,0.4013477,-7.099813,0.7669387
"0.64 sec",-0.0617779,-0.05571156,2.771579,0.5,0.135374665260315,0.151891961693764,-7.040611743927,0.3196334,-0.0822916,0.02755757,0.3978548,0.4013477,-7.099813,0.7669387
"0.65 sec",-0.1010552,-0.05035687,2.511274,0.5,0.139750584959984,0.156902998685837,-7.04193449020386,0.3246322,-0.08059578,0.0209449,0.3978548,0.4013477,-7.099813,0.7669387
"0.66 sec",-0.1625628,-0.08048383,1.569193,0.5,0.144218787550926,0.16197282075882,-7.04359579086304,0.3296252,-0.07453434,-0.001829722,0.3978548,0.4013477,-7.099813,0.7669387
"0.67 sec",-0.1937678,-0.04566489,1.196413,0.5,0.14876064658165,0.167067125439644,-7.0453052520752,0.3346195,-0.07134835,-0.03544655,0.3978548,0.4013477,-7.099813,0.7669387
"0.68 sec",-0.1142247,0.1719272,1.218871,0.5,0.153357207775116,0.172155231237411,-7.04672765731812,0.3396131,-0.0679791,-0.07436857,0.3978548,0.4013477,-7.099813,0.7669387
"0.69 sec",-0.08487033,0.1813173,1.42369,0.5,0.15800553560257,0.177214771509171,-7.04776954650879,0.3445768,-0.03713809,-0.1004847,0.3978548,0.4013477,-7.099813,0.7669387
"0.7 sec",0.0430211,-0.09256638,2.776445,0.5,0.162697121500969,0.182220503687859,-7.04848480224609,0.3495559,0.0144389,-0.1077383,0.4282131,0.458068,-7.133361,0.80448
"0.71 sec",0.04255768,-0.09277987,2.776445,0.5,0.167410865426064,0.187118858098984,-7.04924631118774,0.3545636,0.03118584,-0.09053203,0.4282131,0.458068,-7.133361,0.80448
"0.72 sec",0.04209665,-0.09298947,2.776444,0.5,0.172130852937698,0.191887333989143,-7.05040836334229,0.3595342,0.01212288,-0.05916652,0.4282131,0.458068,-7.133361,0.80448
"0.73 sec",0.04163561,-0.09319635,2.776445,0.5,0.176864787936211,0.196573108434677,-7.05197477340698,0.3644938,-0.01441746,-0.0296568,0.4282131,0.458068,-7.133361,0.80448
"0.74 sec",0.04117248,-0.09340139,2.776445,0.5,0.181631982326508,0.201226726174355,-7.05394792556763,0.369465,-0.03812787,-0.006571334,0.4282131,0.458068,-7.133361,0.80448
"0.75 sec",0.1370727,-0.04257036,1.402569,0.5,0.186451449990273,0.205890014767647,-7.0563268661499,0.3744491,-0.05634663,0.009930164,0.4282131,0.458068,-7.133361,0.80448
"0.76 sec",0.2190299,0.09582779,1.195928,0.5,0.191320732235909,0.210582822561264,-7.05878496170044,0.3794415,-0.0633918,0.03231063,0.4282131,0.458068,-7.133361,0.80448
"0.77 sec",0.2195086,0.09471137,1.195928,0.5,0.196219146251678,0.215310290455818,-7.0609130859375,0.3844739,-0.04549117,0.0692983,0.4282131,0.458068,-7.133361,0.80448
"0.78 sec",0.03208988,0.1709963,1.179805,0.5,0.201126486063004,0.22008615732193,-7.06265640258789,0.3895424,-0.01255977,0.1101778,0.4282131,0.458068,-7.133361,0.80448
"0.79 sec",-0.09021983,0.2213674,1.195928,0.5,0.206016182899475,0.224923610687256,-7.06400918960571,0.3945701,0.02745441,0.1225377,0.4282131,0.458068,-7.133361,0.80448
"0.8 sec",0.03835251,-0.09459142,2.776444,0.5,0.21086348593235,0.229819804430008,-7.06497001647949,0.3995079,0.07385483,0.09458315,0.4734782,0.4978008,-7.17905,0.7955115
"0.81 sec",0.03788188,-0.0947804,2.776445,0.5,0.215610146522522,0.234768316149712,-7.06591653823853,0.4044858,0.08042008,0.06479097,0.4734782,0.4978008,-7.17905,0.7955115
"0.82 sec",0.03740605,-0.09496872,2.776444,0.5,0.220222398638725,0.239758893847466,-7.06726217269897,0.4095085,0.0483124,0.05024865,0.4734782,0.4978008,-7.17905,0.7955115
"0.83 sec",0.03693013,-0.09515432,2.776444,0.5,0.224745646119118,0.244787812232971,-7.06901168823242,0.4145226,0.01036833,0.04315192,0.4734782,0.4978008,-7.17905,0.7955115
"0.84 sec",0.03645403,-0.09533726,2.776444,0.5,0.22923082113266,0.249865904450417,-7.0711669921875,0.4195288,-0.02203182,0.03966462,0.4734782,0.4978008,-7.17905,0.7955115
"0.85 sec",0.06205225,-0.1653878,1.610445,0.5,0.233720526099205,0.255006521940231,-7.07372808456421,0.4245314,-0.04641937,0.03790896,0.4734782,0.4978008,-7.17905,0.7955115
"0.86 sec",-0.1313978,-0.1275854,1.181709,0.5,0.238237842917442,0.260206341743469,-7.07641696929932,0.4295292,-0.07172712,0.03999098,0.4734782,0.4978008,-7.17905,0.7955115
"0.87 sec",-0.1783091,0.02044718,1.180967,0.5,0.242788717150688,0.265451043844223,-7.07882690429688,0.4345462,-0.09348262,0.02234421,0.4734782,0.4978008,-7.17905,0.7955115
"0.88 sec",-0.08533114,0.2149158,1.193705,0.5,0.247383251786232,0.270729333162308,-7.08084392547607,0.4395393,-0.08958505,-0.01867892,0.4734782,0.4978008,-7.17905,0.7955115
"0.89 sec",-0.07916143,0.2254989,1.195928,0.5,0.252028375864029,0.276019692420959,-7.08247089385986,0.4444674,-0.04412126,-0.05168317,0.4734782,0.4978008,-7.17905,0.7955115
"0.9 sec",0.0335937,-0.09637956,2.776445,0.5,0.256709337234497,0.281293839216232,-7.08371257781982,0.4494115,0.02193111,-0.06761195,0.5171181,0.5496557,-7.201881,0.8004378
"0.91 sec",0.03311239,-0.09654552,2.776445,0.5,0.261396646499634,0.286499202251434,-7.08494424819946,0.4544087,0.04479285,-0.06156642,0.5171181,0.5496557,-7.201881,0.8004378
"0.92 sec",0.032632,-0.09670851,2.776445,0.5,0.266069293022156,0.291604042053223,-7.08657884597778,0.459388,0.02426902,-0.04117572,0.5171181,0.5496557,-7.201881,0.8004378
"0.93 sec",0.04130914,-0.1246136,2.161218,0.5,0.270737946033478,0.296643227338791,-7.08861923217773,0.4643559,-0.005801394,-0.02045662,0.5171181,0.5496557,-7.201881,0.8004378
"0.94 sec",0.07358004,-0.2273528,1.195928,0.5,0.275423645973206,0.301661103963852,-7.09091997146606,0.4693281,-0.0362266,-0.002708036,0.5171181,0.5496557,-7.201881,0.8004378
"0.95 sec",0.0724599,-0.2277067,1.195928,0.5,0.28013676404953,0.306688785552979,-7.09309053421021,0.4742938,-0.07497994,0.01509149,0.5171181,0.5496557,-7.201881,0.8004378
"0.96 sec",0.0713384,-0.228055,1.195928,0.5,0.284885704517365,0.311744958162308,-7.09487676620483,0.4792581,-0.1169032,0.03184236,0.5171181,0.5496557,-7.201881,0.8004378
"0.97 sec",-0.0142783,0.06977711,1.164953,0.5,0.28968745470047,0.316849857568741,-7.09627532958984,0.4842352,-0.1516841,0.04479057,0.5171181,0.5496557,-7.201881,0.8004378
"0.98 sec",-0.06908081,0.228738,1.195928,0.5,0.294553965330124,0.322017818689346,-7.09727668762207,0.489229,-0.1427673,0.04401889,0.5171181,0.5496557,-7.201881,0.8004378
"0.99 sec",-0.06054223,0.2036271,1.342233,0.5,0.29948028922081,0.327246010303497,-7.09788036346436,0.4941706,-0.07992899,0.02617582,0.5171181,0.5496557,-7.201881,0.8004378
"1 sec",0.06684428,-0.2293909,1.195928,0.5,0.304442137479782,0.3325115442276,-7.09813356399536,0.4990787,-0.002928281,0.003285009,0.5500762,0.6213971,-7.198151,0.8661386
"1.01 sec",0.05692152,-0.1984709,1.380346,0.5,0.309407919645309,0.337783068418503,-7.09804201126099,0.5040597,0.01101277,-0.00133622,0.5500762,0.6213971,-7.198151,0.8661386
"1.02 sec",0.03536591,-0.1250741,2.182641,0.5,0.31437012553215,0.34305265545845,-7.09761095046997,0.509039,-0.02802415,0.009319922,0.5500762,0.6213971,-7.198151,0.8661386
"1.03 sec",0.02986045,-0.107557,2.539483,0.5,0.319351702928543,0.348343223333359,-7.09707927703857,0.5140193,-0.06495973,0.01931839,0.5500762,0.6213971,-7.198151,0.8661386
"1.04 sec",0.02887458,-0.106046,2.579,0.5,0.32438799738884,0.353690564632416,-7.09673929214478,0.5190129,-0.08618493,0.02485438,0.5500762,0.6213971,-7.198151,0.8661386
"1.05 sec",0.09652461,0.003643555,2.450124,0.5,0.329503327608109,0.359119355678558,-7.09669256210327,0.5240116,-0.09680349,0.02740266,0.5500762,0.6213971,-7.198151,0.8661386
"1.06 sec",0.1199952,0.03161409,2.285552,0.5,0.334704458713531,0.364638447761536,-7.09691715240479,0.5290156,-0.08915732,0.03635734,0.5500762,0.6213971,-7.198151,0.8661386
"1.07 sec",0.1289008,0.03329161,2.131208,0.5,0.339973479509354,0.37024787068367,-7.09734153747559,0.5340357,-0.06543282,0.05367166,0.5500762,0.6213971,-7.198151,0.8661386
"1.08 sec",-0.02156769,0.1285976,2.020994,0.5,0.34527462720871,0.375945121049881,-7.09788703918457,0.5390619,-0.03894739,0.07311401,0.5500762,0.6213971,-7.198151,0.8661386
"1.09 sec",-0.03437409,0.1401697,1.966973,0.5,0.350572139024734,0.381726145744324,-7.09848785400391,0.5440617,-0.005519163,0.07262164,0.5500762,0.6213971,-7.198151,0.8661386
"1.1 sec",0.02385863,-0.09923052,2.776445,0.5,0.355837523937225,0.38757061958313,-7.09910249710083,0.5490239,0.03247569,0.05268243,0.6112489,0.6648608,-7.207129,0.8264467
"1.11 sec",0.02336395,-0.09934779,2.776444,0.5,0.361040145158768,0.393448173999786,-7.09990930557251,0.5540143,0.03752165,0.03630506,0.6112489,0.6648608,-7.207129,0.8264467
"1.12 sec",0.02286682,-0.09946304,2.776444,0.5,0.366174310445786,0.39934378862381,-7.10112142562866,0.5590237,0.01239651,0.02867256,0.6112489,0.6648608,-7.207129,0.8264467
"1.13 sec",0.03461091,-0.1544621,1.79466,0.5,0.371272891759872,0.405264675617218,-7.10274028778076,0.5640293,-0.01725471,0.02511865,0.6112489,0.6648608,-7.207129,0.8264467
"1.14 sec",0.04656371,-0.2136113,1.304528,0.5,0.376370698213577,0.411220014095306,-7.10453224182129,0.5690302,-0.04894643,0.02485207,0.6112489,0.6648608,-7.207129,0.8264467
"1.15 sec",-0.1400866,-0.1051721,1.226168,0.5,0.381489306688309,0.417211890220642,-7.10612297058105,0.5740252,-0.08631957,0.02796926,0.6112489,0.6648608,-7.207129,0.8264467
"1.16 sec",-0.1983845,-0.04209509,1.404677,0.4948105,0.386643916368484,0.423246711492538,-7.10736465454102,0.5790415,-0.1101773,0.01073789,0.6112489,0.6648608,-7.207129,0.8264467
"1.17 sec",-0.1081955,0.06108564,1.618773,0.4849117,0.39185494184494,0.429324686527252,-7.1082763671875,0.5839909,-0.1091888,-0.03091609,0.6112489,0.6648608,-7.207129,0.8264467
"1.18 sec",-0.03004418,0.1514716,1.839181,0.4752901,0.397145837545395,0.435427337884903,-7.10895586013794,0.5888017,-0.08364662,-0.06601986,0.6112489,0.6648608,-7.207129,0.8264467
"1.19 sec",-0.02730133,0.1410473,1.975786,0.4658244,0.402525395154953,0.441522598266602,-7.10951089859009,0.5935345,-0.0368396,-0.07594904,0.6112489,0.6648608,-7.207129,0.8264467
"1.2 sec",0.01895901,-0.1002787,2.776445,0.4880837,0.407973021268845,0.447578102350235,-7.11003351211548,0.5982124,0.01330366,-0.06961527,0.6580104,0.7277963,-7.222966,0.8422543
"1.21 sec",0.01847037,-0.1003696,2.776445,0.4783261,0.413454413414001,0.453559428453445,-7.11075019836426,0.6030912,0.02573625,-0.05390291,0.6580104,0.7277963,-7.222966,0.8422543
"1.22 sec",0.01799233,-0.1004561,2.776445,0.4687886,0.418951600790024,0.459461271762848,-7.11187171936035,0.60786,0.00493007,-0.03486546,0.6580104,0.7277963,-7.222966,0.8422543
"1.23 sec",0.01752379,-0.1005386,2.776445,0.4594486,0.424471527338028,0.465319603681564,-7.11339902877808,0.61253,-0.02217579,-0.0186445,0.6580104,0.7277963,-7.222966,0.8422543
"1.24 sec",0.02666616,-0.15765,1.776753,0.4502802,0.430031388998032,0.471173793077469,-7.11533308029175,0.6171142,-0.04595383,-0.006554369,0.6580104,0.7277963,-7.222966,0.8422543
"1.25 sec",0.07514229,-0.1864206,1.185834,0.4412885,0.435637980699539,0.477050542831421,-7.11743593215942,0.62161,-0.07069827,0.002923794,0.6580104,0.7277963,-7.222966,0.8422543
"1.26 sec",0.1720686,0.0860611,1.183798,0.4324895,0.441285490989685,0.482959002256393,-7.11930370330811,0.6260095,-0.09876708,0.01610232,0.6580104,0.7277963,-7.222966,0.8422543
"1.27 sec",-0.03653156,0.2360085,1.195928,0.4238133,0.446972727775574,0.488908886909485,-7.12078094482422,0.6303476,-0.09295056,0.04300236,0.6580104,0.7277963,-7.222966,0.8422543
"1.28 sec",-0.02986986,0.1979391,1.422626,0.4152845,0.452688097953796,0.49490961432457,-7.12186861038208,0.634612,-0.03876128,0.0523588,0.6580104,0.7277963,-7.222966,0.8422543
"1.29 sec",-0.02406713,0.1636699,1.717728,0.4070581,0.458402931690216,0.500950634479523,-7.12262582778931,0.6387252,0.02736918,0.03884106,0.6580104,0.7277963,-7.222966,0.8422543
"1.3 sec",0.01448254,-0.1010199,2.776444,0.3334723,0.464082628488541,0.507002651691437,-7.12318181991577,0.6427562,0.07732848,0.02200318,0.7196233,0.7751639,-7.251957,0.8094923
"1.31 sec",0.01414293,-0.1010679,2.776444,0.3267388,0.469681143760681,0.513023674488068,-7.123863697052,0.6461229,0.07895673,0.0122891,0.7196233,0.7751639,-7.251957,0.8094923
"1.32 sec",0.0138124,-0.1011134,2.776444,0.3201884,0.475184679031372,0.518995463848114,-7.12494850158691,0.6493981,0.04431085,0.009611452,0.7196233,0.7751639,-7.251957,0.8094923
"1.33 sec",0.01348878,-0.101157,2.776444,0.3137777,0.480631321668625,0.524941146373749,-7.12643909454346,0.6526035,0.005120307,0.009553406,0.7196233,0.7751639,-7.251957,0.8094923
"1.34 sec",0.01317163,-0.1011986,2.776445,0.3074979,0.486063599586487,0.530892729759216,-7.12833642959595,0.6557434,-0.02784111,0.01026443,0.7196233,0.7751639,-7.251957,0.8094923
"1.35 sec",-0.07732221,-0.1024867,1.563201,0.3013431,0.491517007350922,0.536878526210785,-7.13064002990723,0.6588208,-0.05243288,0.01102924,0.7196233,0.7751639,-7.251957,0.8094923
"1.36 sec",-0.2369119,-0.0299886,1.195928,0.2952942,0.497006952762604,0.542906880378723,-7.13306140899658,0.6618453,-0.06975909,0.001110047,0.7196233,0.7751639,-7.251957,0.8094923
"1.37 sec",-0.04028101,0.222535,1.192345,0.2893723,0.50253427028656,0.548964023590088,-7.13519525527954,0.6648062,-0.07306244,-0.03590773,0.7196233,0.7751639,-7.251957,0.8094923
"1.38 sec",-0.02778499,0.2371755,1.195928,0.2836653,0.50810694694519,0.555030345916748,-7.13694286346436,0.6676597,-0.0362094,-0.06375305,0.7196233,0.7751639,-7.251957,0.8094923
"1.39 sec",-0.02712014,0.237251,1.195928,0.2780069,0.513718366622925,0.56108033657074,-7.13830518722534,0.6704889,0.02753275,-0.06627847,0.7196233,0.7751639,-7.251957,0.8094923
"1.4 sec",0.01139673,-0.1014131,2.776445,0.2903349,0.51934140920639,0.56708961725235,-7.13928270339966,0.6732932,0.08833572,-0.05935756,0.7703315,0.8352504,-7.276718,0.8184606
"1.41 sec",0.01110281,-0.1014456,2.776445,0.2845294,0.524931788444519,0.573001146316528,-7.1402473449707,0.6761959,0.0969042,-0.04634956,0.7703315,0.8352504,-7.276718,0.8184606
"1.42 sec",0.01081714,-0.1014764,2.776445,0.2788886,0.530461370944977,0.57878178358078,-7.14161062240601,0.6790164,0.0608047,-0.03110731,0.7703315,0.8352504,-7.276718,0.8184606
"1.43 sec",0.01053723,-0.1015057,2.776444,0.2733632,0.535953223705292,0.584476113319397,-7.14337778091431,0.681779,0.01784351,-0.01823497,0.7703315,0.8352504,-7.276718,0.8184606
"1.44 sec",0.01408071,-0.1395369,2.02346,0.2679276,0.541441380977631,0.590134382247925,-7.14555168151855,0.6844968,-0.01886292,-0.008650974,0.7703315,0.8352504,-7.276718,0.8184606
"1.45 sec",0.02319684,-0.2376589,1.195928,0.262587,0.546952307224274,0.595796823501587,-7.14795351028442,0.6871672,-0.05087764,-0.001554284,0.7703315,0.8352504,-7.276718,0.8184606
"1.46 sec",0.1685926,-0.02069626,1.178964,0.2573538,0.552495121955872,0.601483106613159,-7.15018844604492,0.6897838,-0.08960165,0.004725521,0.7703315,0.8352504,-7.276718,0.8184606
"1.47 sec",-0.02197723,0.2377726,1.195928,0.2522286,0.558075368404388,0.607205152511597,-7.15203475952148,0.6923463,-0.1053369,0.02719226,0.7703315,0.8352504,-7.276718,0.8184606
"1.48 sec",-0.02137834,0.2378262,1.195928,0.247144,0.56369149684906,0.612976968288422,-7.15349006652832,0.6948887,-0.06363518,0.03963272,0.7703315,0.8352504,-7.276718,0.8184606
"1.49 sec",-0.020802,0.2378763,1.195928,0.2422518,0.56932121515274,0.618789732456207,-7.15456056594849,0.6973348,0.008236147,0.03163276,0.7703315,0.8352504,-7.276718,0.8184606
"1.5 sec",0.008718058,-0.1016775,2.776445,0.3316401,0.574935376644135,0.6246138215065,-7.1552472114563,0.6997162,0.07548642,0.01894274,0.8151631,0.9067964,-7.283536,0.8655362
"1.51 sec",0.008387087,-0.1017053,2.776445,0.3251196,0.580481231212616,0.630402982234955,-7.15592336654663,0.7029764,0.08862528,0.01070778,0.8151631,0.9067964,-7.283536,0.8655362
"1.52 sec",0.00932881,-0.1178734,2.397684,0.3186015,0.585927248001099,0.636127769947052,-7.15700101852417,0.7062355,0.05554843,0.007682998,0.8151631,0.9067964,-7.283536,0.8655362
"1.53 sec",0.01224199,-0.1615382,1.753631,0.3122196,0.591311514377594,0.641813516616821,-7.15839385986328,0.7094264,0.01265052,0.006915517,0.8151631,0.9067964,-7.283536,0.8655362
"1.54 sec",0.01372351,-0.1891926,1.500107,0.3059705,0.596679270267487,0.647494733333588,-7.15985107421875,0.7125509,-0.03128904,0.007408496,0.8151631,0.9067964,-7.283536,0.8655362
"1.55 sec",0.07193571,-0.1222444,1.492114,0.2998492,0.602061569690704,0.653196573257446,-7.16114377975464,0.7156116,-0.07363655,0.008602946,0.8151631,0.9067964,-7.283536,0.8655362
"1.56 sec",0.1731288,0.01169869,1.638241,0.2938654,0.607480108737946,0.658939123153687,-7.16220188140869,0.7186035,-0.1016077,0.01669917,0.8151631,0.9067964,-7.283536,0.8655362
"1.57 sec",0.1237588,0.04081493,1.786662,0.2879726,0.612947225570679,0.664743363857269,-7.16305541992188,0.7215499,-0.09878092,0.04178054,0.8151631,0.9067964,-7.283536,0.8655362
"1.58 sec",-0.008942853,0.1471249,1.925916,0.2821362,0.618452310562134,0.670629143714905,-7.16377735137939,0.7244681,-0.07297739,0.06950162,0.8151631,0.9067964,-7.283536,0.8655362
"1.59 sec",-0.008186419,0.1412225,2.006166,0.2764705,0.62396514415741,0.67660516500473,-7.16444063186646,0.7273009,-0.0303595,0.07331735,0.8151631,0.9067964,-7.283536,0.8655362
"1.6 sec",0.01308759,-0.2384148,1.195928,0.3461027,0.62945294380188,0.6826531291008,-7.16510105133057,0.7300339,0.01690843,0.05860304,0.8635558,0.9795363,-7.269268,0.9030853
"1.61 sec",0.01227881,-0.2384571,1.195928,0.3392539,0.634902656078339,0.688732266426086,-7.16558980941772,0.7334583,0.01173083,0.04348492,0.8635558,0.9795363,-7.269268,0.9030853
"1.62 sec",0.01147005,-0.2384966,1.195928,0.3324065,0.640331149101257,0.694827675819397,-7.16569519042969,0.736882,-0.03872541,0.03267193,0.8635558,0.9795363,-7.269268,0.9030853
"1.63 sec",0.008786698,-0.1956606,1.453415,0.3257065,0.645763635635376,0.700953245162964,-7.1654167175293,0.7402321,-0.09344044,0.0251091,0.8635558,0.9795363,-7.269268,0.9030853
"1.64 sec",0.004647481,-0.1111014,2.548841,0.3191601,0.65123051404953,0.707132697105408,-7.16481304168701,0.7435052,-0.1338138,0.01967145,0.8635558,0.9795363,-7.269268,0.9030853
"1.65 sec",0.04235753,-0.06065346,2.769572,0.3127619,0.656781554222107,0.713415503501892,-7.16420555114746,0.7467043,-0.1486114,0.01531232,0.8635558,0.9795363,-7.269268,0.9030853
"1.66 sec",0.1019846,0.003640956,2.776444,0.3064985,0.662460684776306,0.719845354557037,-7.16392993927002,0.749836,-0.1400142,0.01626077,0.8635558,0.9795363,-7.269268,0.9030853
"1.67 sec",-0.003308075,0.1019959,2.776445,0.3003311,0.668263554573059,0.726423144340515,-7.16404581069946,0.7529197,-0.1143606,0.02861849,0.8635558,0.9795363,-7.269268,0.9030853
"1.68 sec",-0.00330768,0.1124845,2.518735,0.2942929,0.674154043197632,0.733136057853699,-7.16455888748169,0.7559388,-0.07188754,0.03457559,0.8635558,0.9795363,-7.269268,0.9030853
"1.69 sec",-0.003409856,0.128872,2.200082,0.2884272,0.680083513259888,0.739947080612183,-7.16541433334351,0.7588717,-0.02347058,0.02911324,0.8635558,0.9795363,-7.269268,0.9030853
"1.7 sec",0.002409779,-0.1020209,2.776445,0.3270662,0.686010718345642,0.746803402900696,-7.16647100448608,0.761741,0.02008426,0.02114699,0.9128696,1.048012,-7.274189,0.9252741
"1.71 sec",0.002079115,-0.1020282,2.776445,0.3205729,0.691903948783875,0.753663182258606,-7.16778326034546,0.7649877,0.02802314,0.01458976,0.9128696,1.048012,-7.274189,0.9252741
"1.72 sec",0.002548681,-0.1487435,1.908301,0.3141447,0.697757422924042,0.760513126850128,-7.16950178146362,0.7682018,0.005101246,0.01010581,0.9128696,1.048012,-7.274189,0.9252741
"1.73 sec",0.002730629,-0.195632,1.454915,0.307845,0.703597187995911,0.767367124557495,-7.17142105102539,0.7713516,-0.02839676,0.007142239,0.9128696,1.048012,-7.274189,0.9252741
"1.74 sec",0.002272099,-0.2088007,1.364421,0.3016734,0.709449172019958,0.774241626262665,-7.17320585250854,0.7744374,-0.06779254,0.00527519,0.9128696,1.048012,-7.274189,0.9252741
"1.75 sec",0.1787336,-0.01368637,1.468933,0.2956276,0.715332448482513,0.781152069568634,-7.17471408843994,0.7774603,-0.1065634,0.004071502,0.9128696,1.048012,-7.274189,0.9252741
"1.76 sec",-0.0008518125,0.1718256,1.654211,0.2897156,0.721265017986298,0.788117170333862,-7.17594480514526,0.7804163,-0.1159012,0.02385597,0.9128696,1.048012,-7.274189,0.9252741
"1.77 sec",-0.0003194243,0.1558995,1.821629,0.2838664,0.727246105670929,0.795156121253967,-7.17696714401245,0.7833409,-0.07727655,0.03936989,0.9128696,1.048012,-7.274189,0.9252741
"1.78 sec",0.0001134242,0.146529,1.93721,0.2781982,0.733249962329865,0.802264213562012,-7.17787265777588,0.786175,-0.01844881,0.03648739,0.9128696,1.048012,-7.274189,0.9252741
"1.79 sec",0.000501038,0.1419748,1.9989,0.27267,0.739242196083069,0.80940842628479,-7.17873382568359,0.7889391,0.03284634,0.02854086,0.9128696,1.048012,-7.274189,0.9252741
"1.8 sec",-0.0006372039,-0.1020473,2.776444,0.118242,0.745192468166351,0.816550135612488,-7.17959642410278,0.7916532,0.07050861,0.02061958,0.9897461,1.095369,-7.307065,0.8507742
"1.81 sec",-0.0007656855,-0.1020464,2.776445,0.1157197,0.751069128513336,0.823651552200317,-7.18065929412842,0.7929143,0.06778818,0.01411081,0.9897461,1.095369,-7.307065,0.8507742
"1.82 sec",-0.0008845494,-0.1020455,2.776445,0.1133859,0.756868124008179,0.830702364444733,-7.18212556838989,0.7940812,0.03376907,0.009175992,0.9897461,1.095369,-7.307065,0.8507742
"1.83 sec",-0.001000867,-0.1020444,2.776444,0.1111022,0.762625157833099,0.837728917598724,-7.18399858474731,0.7952231,-0.003351771,0.005661645,0.9897461,1.095369,-7.307065,0.8507742
"1.84 sec",-0.1020432,0.001120403,2.776445,0.1088698,0.768379271030426,0.844763875007629,-7.18627786636353,0.7963393,-0.03418791,0.003253046,0.9897461,1.095369,-7.307065,0.8507742
"1.85 sec",-0.1717224,0.002087585,1.655096,0.1066792,0.774162590503693,0.851832985877991,-7.18896436691284,0.7974346,-0.045027,-0.0101093,0.9897461,1.095369,-7.307065,0.8507742
"1.86 sec",-0.2387461,0.003187514,1.195928,0.1045607,0.779987990856171,0.858929634094238,-7.19179010391235,0.7984938,-0.03926055,-0.04034122,0.9897461,1.095369,-7.307065,0.8507742
"1.87 sec",-0.06942881,0.1698033,1.181803,0.1025107,0.785853385925293,0.866026699542999,-7.19435262680054,0.7995188,-0.02923717,-0.08321157,0.9897461,1.095369,-7.307065,0.8507742
"1.88 sec",0.003574827,0.2387407,1.195928,0.1005205,0.791764736175537,0.873101830482483,-7.19652652740479,0.8005139,-0.0003592985,-0.1072073,0.9897461,1.095369,-7.307065,0.8507742
"1.89 sec",0.003817457,0.238737,1.195928,0.0984683,0.797719955444336,0.880133152008057,-7.19831085205078,0.80154,0.04990263,-0.09876882,0.9897461,1.095369,-7.307065,0.8507742
"1.9 sec",-0.001750959,-0.1020343,2.776445,0.06589019,0.80369633436203,0.887102603912354,-7.19970798492432,0.8025868,0.10243,-0.0760541,1.049202,1.158546,-7.340563,0.8355319
"1.91 sec",-0.001820752,-0.1020331,2.776445,0.06451976,0.809654772281647,0.893951177597046,-7.20108938217163,0.803272,0.1057191,-0.05397508,1.049202,1.158546,-7.340563,0.8355319
"1.92 sec",-0.001883086,-0.102032,2.776445,0.06329584,0.81556910276413,0.90064549446106,-7.20286846160889,0.803884,0.06615381,-0.03694231,1.049202,1.158546,-7.340563,0.8355319
"1.93 sec",-0.001944682,-0.1020308,2.776445,0.06208634,0.82145756483078,0.907238185405731,-7.20505046844482,0.8044887,0.0209749,-0.02482318,1.049202,1.158546,-7.340563,0.8355319
"1.94 sec",-0.002286251,-0.1163286,2.436439,0.06087697,0.827350378036499,0.913785099983215,-7.20763874053955,0.8050934,-0.01712502,-0.0165948,1.049202,1.158546,-7.340563,0.8355319
"1.95 sec",-0.03458305,-0.2085968,1.188458,0.05967546,0.833273410797119,0.920331418514252,-7.21055269241333,0.8056942,-0.04724184,-0.01122001,1.049202,1.158546,-7.340563,0.8355319
"1.96 sec",-0.04028454,0.1964965,1.185762,0.05847991,0.839232802391052,0.926899552345276,-7.21340703964233,0.8062919,-0.08086089,-0.01157145,1.049202,1.158546,-7.340563,0.8355319
"1.97 sec",0.005078812,0.238714,1.195928,0.05731547,0.845228672027588,0.933495402336121,-7.21587228775024,0.8068742,-0.06910746,-0.0168452,1.049202,1.158546,-7.340563,0.8355319
"1.98 sec",0.00521374,0.2387111,1.195928,0.05617416,0.851258456707001,0.940112471580505,-7.21795034408569,0.8074448,-0.008646786,-0.01776348,1.049202,1.158546,-7.340563,0.8355319
"1.99 sec",0.005350043,0.2387082,1.195928,0.05502129,0.857299089431763,0.946725904941559,-7.21964502334595,0.8080212,0.05849873,-0.01354792,1.049202,1.158546,-7.340563,0.8355319
"2 sec",-0.002362081,-0.1020221,2.776445,0.1040269,0.863321781158447,0.953308999538422,-7.22095537185669,0.8085869,0.1146083,-0.008523507,1.10108,1.229814,-7.365213,0.8606004
"2.01 sec",-0.002465677,-0.1020196,2.776445,0.1019925,0.869273483753204,0.959806203842163,-7.22225189208984,0.8096041,0.1166424,-0.005127741,1.10108,1.229814,-7.365213,0.8606004
"2.02 sec",-0.00256929,-0.1020171,2.776445,0.0999577,0.875122308731079,0.966184854507446,-7.22394609451294,0.8106215,0.07456062,-0.003562434,1.10108,1.229814,-7.365213,0.8606004
"2.03 sec",-0.002671006,-0.1020145,2.776445,0.09796011,0.880903959274292,0.972485482692719,-7.22604322433472,0.8116203,0.02696304,-0.002902063,1.10108,1.229814,-7.365213,0.8606004
"2.04 sec",-0.004754493,-0.1756431,1.618056,0.09599996,0.886662125587463,0.978755533695221,-7.22854661941528,0.8126004,-0.01305353,-0.0026683,1.10108,1.229814,-7.365213,0.8606004
"2.05 sec",0.09203757,-0.1475556,1.179759,0.09407711,0.892429947853088,0.985031425952911,-7.23118209838867,0.8135618,-0.05146616,-0.002859858,1.10108,1.229814,-7.365213,0.8606004
"2.06 sec",0.238664,-0.007079528,1.195928,0.09222567,0.898222506046295,0.991331398487091,-7.23354148864746,0.8144875,-0.08441627,0.007968553,1.10108,1.229814,-7.365213,0.8606004
"2.07 sec",0.007094873,0.2386636,1.195928,0.09039819,0.904043972492218,0.997671008110046,-7.23551082611084,0.8154013,-0.09066531,0.04484342,1.10108,1.229814,-7.365213,0.8606004
"2.08 sec",0.007317982,0.238657,1.195928,0.08851063,0.909881889820099,1.00406575202942,-7.23709487915039,0.816345,-0.04768488,0.06720851,1.10108,1.229814,-7.365213,0.8606004
"2.09 sec",0.007524014,0.2386507,1.195928,0.08676744,0.915710210800171,1.01050698757172,-7.23829364776611,0.8172166,0.02163156,0.06247815,1.10108,1.229814,-7.365213,0.8606004
"2.1 sec",-0.003325275,-0.1019953,2.776445,0.135008,0.921502947807312,1.0169643163681,-7.23910760879517,0.8180455,0.08561429,0.05027358,1.155129,1.302789,-7.371463,0.8855495
"2.11 sec",-0.003459249,-0.1019909,2.776444,0.1323763,0.927203834056854,1.02339255809784,-7.23990917205811,0.8193613,0.09577255,0.03685878,1.155129,1.302789,-7.371463,0.8855495
"2.12 sec",-0.004341468,-0.1232165,2.2999,0.129684,0.932780027389526,1.02976250648499,-7.24111080169678,0.8207075,0.06031396,0.02481258,1.155129,1.302789,-7.371463,0.8855495
"2.13 sec",-0.005952411,-0.1631555,1.740155,0.1270437,0.938279747962952,1.03609776496887,-7.24260282516479,0.8220276,0.01510391,0.01541767,1.155129,1.302789,-7.371463,0.8855495
"2.14 sec",-0.007008924,-0.1858264,1.529813,0.1244667,0.943755626678467,1.04243123531342,-7.24413108825684,0.8233162,-0.03063879,0.008413288,1.155129,1.302789,-7.371463,0.8855495
"2.15 sec",-0.007169017,-0.1839418,1.545234,0.1219513,0.9492427110672,1.04878735542297,-7.2454981803894,0.8245738,-0.07340444,0.003265852,1.155129,1.302789,-7.371463,0.8855495
"2.16 sec",0.1521424,-0.02411879,1.662881,0.1194955,0.954765856266022,1.05518639087677,-7.24665069580078,0.8258017,-0.1084595,-0.0003972269,1.155129,1.302789,-7.371463,0.8855495
"2.17 sec",0.006484685,0.1564356,1.813909,0.1171049,0.960345566272736,1.06164848804474,-7.24761772155762,0.826997,-0.1155128,0.0156764,1.155129,1.302789,-7.371463,0.8855495
"2.18 sec",0.00627125,0.1469861,1.929499,0.1147145,0.965980648994446,1.06819069385529,-7.24846601486206,0.8281922,-0.07884391,0.03037132,1.155129,1.302789,-7.371463,0.8855495
"2.19 sec",0.006216663,0.1418564,1.998676,0.1124163,0.971644103527069,1.07480418682098,-7.24926424026489,0.8293414,-0.02256933,0.03028012,1.155129,1.302789,-7.371463,0.8855495
"2.2 sec",-0.01065272,-0.2385338,1.195928,0.1192919,0.977301061153412,1.08145403862,-7.25006151199341,0.8304549,0.02748008,0.02559088,1.213953,1.373685,-7.361377,0.8901008
"2.21 sec",-0.0109342,-0.2385212,1.195928,0.1169093,0.982931911945343,1.0881062746048,-7.25068616867065,0.8316462,0.02111527,0.01839475,1.213953,1.373685,-7.361377,0.8901008
"2.22 sec",-0.0112157,-0.2385084,1.195928,0.1145263,0.988547563552856,1.09475815296173,-7.25092744827271,0.8328377,-0.03157991,0.01042159,1.213953,1.373685,-7.361377,0.8901008
"2.23 sec",-0.006771609,-0.1396616,2.029446,0.1121929,0.994171321392059,1.10142827033997,-7.25078535079956,0.8340044,-0.08840651,0.003687154,1.213953,1.373685,-7.361377,0.8901008
"2.24 sec",-0.005300691,-0.1066859,2.652961,0.1099277,0.999841511249542,1.10815370082855,-7.25045490264893,0.835137,-0.1239087,-0.0008467245,1.213953,1.373685,-7.361377,0.8901008
"2.25 sec",-0.005177082,-0.1019184,2.776445,0.1077234,1.00560796260834,1.11498391628265,-7.25029706954956,0.8362392,-0.1341989,-0.003262151,1.213953,1.373685,-7.361377,0.8901008
"2.26 sec",0.02176369,0.08817604,2.662917,0.1055669,1.01149821281433,1.12194490432739,-7.25050163269043,0.8373174,-0.1314727,-0.004399481,1.213953,1.373685,-7.361377,0.8901008
"2.27 sec",0.006163528,0.1164925,2.430122,0.1034452,1.01750993728638,1.12903237342834,-7.25107526779175,0.8383783,-0.1027146,-0.001760837,1.213953,1.373685,-7.361377,0.8901008
"2.28 sec",0.006953365,0.1289409,2.196518,0.1013559,1.02360999584198,1.13621473312378,-7.25193738937378,0.8394229,-0.05317559,0.001856616,1.213953,1.373685,-7.361377,0.8901008
"2.29 sec",0.007687022,0.1399685,2.024362,0.09931576,1.02975034713745,1.14344489574432,-7.25297594070435,0.840443,-0.003158294,0.003942438,1.213953,1.373685,-7.361377,0.8901008
"2.3 sec",-0.00570618,-0.1018902,2.776445,0.1087844,1.0358909368515,1.15068125724792,-7.25409126281738,0.8414403,0.03950436,0.005291908,1.269929,1.443095,-7.370346,0.8958325
"2.31 sec",-0.005816395,-0.101884,2.776445,0.1066172,1.04199707508087,1.15788853168488,-7.25541496276855,0.8425239,0.04424942,0.004634583,1.269929,1.443095,-7.370346,0.8958325
"2.32 sec",-0.006002386,-0.1032089,2.740762,0.1044767,1.04806005954742,1.16505670547485,-7.25714445114136,0.8435941,0.01718176,0.002387089,1.269929,1.443095,-7.370346,0.8958325
"2.33 sec",-0.0100534,-0.1703194,1.665874,0.1023773,1.05410516262054,1.17220962047577,-7.25927257537842,0.8446438,-0.01465818,4.476292e-05,1.269929,1.443095,-7.370346,0.8958325
"2.34 sec",-0.01404343,-0.2348766,1.213275,0.1003189,1.06015908718109,1.17937302589417,-7.26153469085693,0.845673,-0.0496841,-0.002358199,1.269929,1.443095,-7.370346,0.8958325
"2.35 sec",0.08931124,-0.07225627,1.169702,0.09829843,1.06623756885529,1.18656158447266,-7.26354026794434,0.8466833,-0.0916721,-0.005100477,1.269929,1.443095,-7.370346,0.8958325
"2.36 sec",0.01281033,0.2069675,1.373856,0.09634399,1.07235312461853,1.19378852844238,-7.26515913009644,0.8476605,-0.1137851,0.004317694,1.269929,1.443095,-7.370346,0.8958325
"2.37 sec",0.01107715,0.1758371,1.613736,0.09438741,1.07851195335388,1.20106887817383,-7.26642656326294,0.8486388,-0.08005013,0.01494505,1.269929,1.443095,-7.370346,0.8958325
"2.38 sec",0.009981425,0.155909,1.817862,0.09247911,1.08470010757446,1.20839893817902,-7.26745462417603,0.8495929,-0.0171071,0.01765425,1.269929,1.443095,-7.370346,0.8958325
"2.39 sec",0.009422644,0.1450052,1.95336,0.0906297,1.09088659286499,1.21574950218201,-7.26835584640503,0.8505176,0.03786192,0.01711624,1.269929,1.443095,-7.370346,0.8958325
"2.4 sec",-0.006721141,-0.1018285,2.776445,0.1157153,1.09703803062439,1.22308444976807,-7.26921653747559,0.8514218,0.07676924,0.01551233,1.324353,1.515061,-7.399111,0.9092794
"2.41 sec",-0.006837547,-0.1018208,2.776445,0.1134249,1.10311889648438,1.23036587238312,-7.27026510238647,0.852567,0.07347187,0.01195135,1.324353,1.515061,-7.399111,0.9092794
"2.42 sec",-0.006953799,-0.1018129,2.776445,0.1111374,1.10912263393402,1.23758387565613,-7.27171659469604,0.8537107,0.03820561,0.00716886,1.324353,1.515061,-7.399111,0.9092794
"2.43 sec",-0.007067737,-0.1018051,2.776445,0.1088953,1.11508405208588,1.24476885795593,-7.2735743522644,0.8548318,-0.0001250923,0.002908629,1.324353,1.515061,-7.399111,0.9092794
"2.44 sec",-0.007179081,-0.1017973,2.776445,0.106704,1.12104189395905,1.25195598602295,-7.27583885192871,0.8559274,-0.03192155,-0.0003798945,1.324353,1.515061,-7.399111,0.9092794
"2.45 sec",0.1295302,-0.07271039,1.438645,0.1045616,1.12702858448029,1.25917553901672,-7.27851009368896,0.8569986,-0.05547127,-0.002741307,1.324353,1.515061,-7.399111,0.9092794
"2.46 sec",0.01716535,0.2381609,1.195928,0.1024833,1.1330531835556,1.26643669605255,-7.28126955032349,0.8580378,-0.06847003,0.01156801,1.324353,1.515061,-7.399111,0.9092794
"2.47 sec",0.01741132,0.2381434,1.195928,0.1003981,1.13910031318665,1.27373468875885,-7.28370809555054,0.8590804,-0.03715576,0.02598426,1.324353,1.515061,-7.399111,0.9092794
"2.48 sec",0.01765073,0.2381261,1.195928,0.09836817,1.1451495885849,1.28105819225311,-7.28576326370239,0.8600953,0.02636993,0.02880486,1.324353,1.515061,-7.399111,0.9092794
"2.49 sec",0.01788218,0.2381092,1.195928,0.09640563,1.15117585659027,1.28838098049164,-7.28743457794189,0.8610766,0.08751739,0.02752036,1.324353,1.515061,-7.399111,0.9092794
"2.5 sec",-0.01147851,-0.1500513,1.886637,0.1162113,1.15715610980988,1.29567527770996,-7.28872060775757,0.8620362,0.1359775,0.02524368,1.384676,1.594557,-7.401412,0.9201419
"2.51 sec",-0.0120701,-0.1554752,1.821172,0.1139001,1.16305649280548,1.30290544033051,-7.28978061676025,0.8631918,0.1258194,0.01968633,1.384676,1.594557,-7.401412,0.9201419
"2.52 sec",-0.01224304,-0.1553702,1.822231,0.1115743,1.16886961460114,1.31006145477295,-7.29077959060669,0.8643547,0.06814061,0.01179129,1.384676,1.594557,-7.401412,0.9201419
"2.53 sec",-0.01216151,-0.1521043,1.860873,0.1092947,1.17463433742523,1.3171774148941,-7.29170608520508,0.8654945,0.006515744,0.004627532,1.384676,1.594557,-7.401412,0.9201419
"2.54 sec",-0.01201706,-0.1482072,1.909259,0.1070765,1.1803914308548,1.32429111003876,-7.29257202148438,0.8666036,-0.04391245,-0.0009237283,1.384676,1.594557,-7.401412,0.9201419
"2.55 sec",-0.01190853,-0.1449093,1.95222,0.104917,1.18617522716522,1.33143508434296,-7.29339742660522,0.8676834,-0.08029305,-0.004861847,1.384676,1.594557,-7.401412,0.9201419
"2.56 sec",0.06821172,0.06865142,1.971622,0.1028093,1.19201195240021,1.3386344909668,-7.29420375823975,0.8687372,-0.1045022,-0.007495128,1.384676,1.594557,-7.401412,0.9201419
"2.57 sec",0.01189025,0.141062,2.004745,0.1007388,1.19791769981384,1.34590542316437,-7.29500436782837,0.8697725,-0.0950662,0.0001447346,1.384676,1.594557,-7.401412,0.9201419
"2.58 sec",0.01203066,0.1410013,2.00543,0.09868276,1.20388221740723,1.35324645042419,-7.29581356048584,0.8708005,-0.0517211,0.009263752,1.384676,1.594557,-7.401412,0.9201419
"2.59 sec",0.0122246,0.1416168,1.996605,0.09668827,1.20987319946289,1.36063241958618,-7.29664278030396,0.8717977,-0.0005754575,0.01265381,1.384676,1.594557,-7.401412,0.9201419
"2.6 sec",-0.00888938,-0.1016627,2.776445,0.1134152,1.21585536003113,1.36802732944489,-7.2974910736084,0.8727682,0.04307735,0.01363655,1.439708,1.667857,-7.414908,0.9294758
"2.61 sec",-0.009003649,-0.1016527,2.776444,0.1111633,1.22179424762726,1.37539517879486,-7.29854106903076,0.8738942,0.04759004,0.01122192,1.439708,1.667857,-7.414908,0.9294758
"2.62 sec",-0.00911722,-0.1016426,2.776444,0.1089247,1.22768127918243,1.38272500038147,-7.2999963760376,0.8750134,0.01984387,0.006518411,1.439708,1.667857,-7.414908,0.9294758
"2.63 sec",-0.0102072,-0.1124535,2.510273,0.1067288,1.23354399204254,1.3900398015976,-7.30185842514038,0.8761114,-0.01252519,0.001989675,1.439708,1.667857,-7.414908,0.9294758
"2.64 sec",-0.01779039,-0.1945221,1.45732,0.1045806,1.23941445350647,1.39736819267273,-7.30406427383423,0.8771855,-0.04126938,-0.001736989,1.439708,1.667857,-7.414908,0.9294758
"2.65 sec",0.08644317,-0.149799,1.179565,0.1024745,1.24531126022339,1.40472614765167,-7.30629348754883,0.8782386,-0.07367996,-0.005456152,1.439708,1.667857,-7.414908,0.9294758
"2.66 sec",0.02216667,0.2377553,1.195928,0.1004429,1.25124061107635,1.41211891174316,-7.30820274353027,0.8792543,-0.102171,0.003098606,1.439708,1.667857,-7.414908,0.9294758
"2.67 sec",0.02154155,0.2283926,1.243909,0.09841096,1.25720512866974,1.41955709457397,-7.30972194671631,0.8802703,-0.07522321,0.01455978,1.439708,1.667857,-7.414908,0.9294758
"2.68 sec",0.01746882,0.1826783,1.550042,0.09640515,1.26319086551666,1.42703449726105,-7.31086826324463,0.8812732,-0.00678881,0.01956048,1.439708,1.667857,-7.414908,0.9294758
"2.69 sec",0.01511939,0.1562771,1.808959,0.09446371,1.2691684961319,1.43452310562134,-7.31172704696655,0.8822439,0.05513675,0.02106655,1.439708,1.667857,-7.414908,0.9294758
"2.7 sec",-0.009946466,-0.1015651,2.776445,-0.09662187,1.27510356903076,1.44198751449585,-7.31244039535522,0.883189,0.09625949,0.02058654,1.521573,1.714139,-7.450212,0.834878
"2.71 sec",-0.009858632,-0.1015736,2.776445,-0.0948894,1.28095364570618,1.44938457012177,-7.31330108642578,0.8823227,0.09076216,0.01645888,1.521573,1.714139,-7.450212,0.834878
"2.72 sec",-0.009763619,-0.1015828,2.776445,-0.09301543,1.28670871257782,1.45670163631439,-7.31456327438354,0.8813857,0.05147677,0.01005023,1.521573,1.714139,-7.450212,0.834878
"2.73 sec",-0.01144705,-0.09945394,2.775898,-0.09117901,1.29240775108337,1.46397268772125,-7.31623077392578,0.8804675,0.009342209,0.004206371,1.521573,1.714139,-7.450212,0.834878
"2.74 sec",-0.1015956,0.00962846,2.776445,-0.08937085,1.29809331893921,1.47123682498932,-7.31830453872681,0.8795635,-0.02520119,-0.0005174446,1.521573,1.714139,-7.450212,0.834878
"2.75 sec",-0.1411902,0.01329712,2.001208,-0.08759618,1.30380094051361,1.47852444648743,-7.32078552246094,0.8786761,-0.03776436,-0.01461167,1.521573,1.714139,-7.450212,0.834878
"2.76 sec",-0.2377289,0.02245384,1.195928,-0.08582795,1.3095498085022,1.48583459854126,-7.32348823547363,0.877792,-0.03200252,-0.04060213,1.521573,1.714139,-7.450212,0.834878
"2.77 sec",-0.1587458,0.08992404,1.181571,-0.08406389,1.31533980369568,1.4931446313858,-7.32601833343506,0.87691,-0.02030998,-0.07958557,1.521573,1.714139,-7.450212,0.834878
"2.78 sec",0.02140836,0.2378235,1.195928,-0.08231413,1.32117319107056,1.5004335641861,-7.32816076278687,0.8760351,-0.0004780383,-0.1134211,1.521573,1.714139,-7.450212,0.834878
"2.79 sec",0.02121525,0.2378405,1.195928,-0.08067477,1.32705616950989,1.50767993927002,-7.32991218566895,0.8752154,0.04057219,-0.111845,1.521573,1.714139,-7.450212,0.834878
"2.8 sec",-0.009062706,-0.1016475,2.776444,-0.1542474,1.33297383785248,1.51486551761627,-7.33127641677856,0.8744761,0.09189643,-0.08533735,1.59052,1.778644,-7.465012,0.7973524
"2.81 sec",-0.008911466,-0.1016608,2.776445,-0.1512668,1.33889508247375,1.52193140983582,-7.33262586593628,0.8729858,0.09687197,-0.05976988,1.59052,1.778644,-7.465012,0.7973524
"2.82 sec",-0.008754427,-0.1016744,2.776445,-0.1481721,1.3447972536087,1.52884435653687,-7.33437299728394,0.8714385,0.05965919,-0.0418868,1.59052,1.778644,-7.465012,0.7973524
"2.83 sec",-0.01464702,-0.1737486,1.630437,-0.1451511,1.35069167613983,1.53565669059753,-7.33652353286743,0.869928,0.01656988,-0.02984093,1.59052,1.778644,-7.465012,0.7973524
"2.84 sec",-0.01962272,-0.2379746,1.195928,-0.1422111,1.3565981388092,1.54242944717407,-7.33880805969238,0.868458,-0.02833099,-0.02262343,1.59052,1.778644,-7.465012,0.7973524
"2.85 sec",-0.09750941,-0.1483545,1.180513,-0.1393461,1.3625293970108,1.54920601844788,-7.34082317352295,0.8670255,-0.07819396,-0.01935386,1.59052,1.778644,-7.465012,0.7973524
"2.86 sec",-0.225737,0.03045551,1.192801,-0.13658,1.36849939823151,1.55600929260254,-7.34245014190674,0.8656424,-0.1144984,-0.02742775,1.59052,1.778644,-7.465012,0.7973524
"2.87 sec",0.01712212,0.2183951,1.301582,-0.133832,1.37452530860901,1.5628514289856,-7.34368515014648,0.8642684,-0.1116109,-0.05856043,1.59052,1.778644,-7.465012,0.7973524
"2.88 sec",0.01315777,0.170268,1.664349,-0.1310923,1.38062131404877,1.56972086429596,-7.34455680847168,0.8628986,-0.06109582,-0.07261699,1.59052,1.778644,-7.465012,0.7973524
"2.89 sec",0.01117721,0.1468788,1.927137,-0.1285468,1.38678419589996,1.57658874988556,-7.34518098831177,0.8616259,0.003629005,-0.05997587,1.59052,1.778644,-7.465012,0.7973524
"2.9 sec",-0.008201066,-0.109381,2.583818,-0.1291146,1.39298498630524,1.5834196805954,-7.34571695327759,0.8603858,0.05362363,-0.04202052,1.65406,1.849998,-7.466425,0.7958285
"2.91 sec",-0.009242843,-0.1255108,2.253422,-0.1265472,1.39918386936188,1.59017705917358,-7.3463888168335,0.8591021,0.05757832,-0.02830119,1.65406,1.849998,-7.466425,0.7958285
"2.92 sec",-0.01014257,-0.1402639,2.017931,-0.1239871,1.40536594390869,1.59686088562012,-7.34729051589966,0.857822,0.02432496,-0.02021335,1.65406,1.849998,-7.466425,0.7958285
"2.93 sec",-0.01060754,-0.1493479,1.896204,-0.1214848,1.41154754161835,1.60351049900055,-7.3482813835144,0.8565708,-0.01701271,-0.01563096,1.65406,1.849998,-7.466425,0.7958285
"2.94 sec",-0.01062364,-0.1522168,1.860895,-0.1190422,1.41775131225586,1.61016201972961,-7.34927082061768,0.8553495,-0.05501651,-0.01315665,1.65406,1.849998,-7.466425,0.7958285
"2.95 sec",-0.01035285,-0.1509109,1.877025,-0.1166543,1.42399787902832,1.61684381961823,-7.35021781921387,0.8541556,-0.08561032,-0.01186491,1.65406,1.849998,-7.466425,0.7958285
"2.96 sec",0.0608024,0.0902926,1.905315,-0.1143167,1.43030500411987,1.62357807159424,-7.35111427307129,0.8529868,-0.1079953,-0.01117007,1.65406,1.849998,-7.466425,0.7958285
"2.97 sec",0.00959095,0.144625,1.95829,-0.112043,1.43668448925018,1.6303802728653,-7.35196971893311,0.85185,-0.09525806,-0.002507768,1.65406,1.849998,-7.466425,0.7958285
"2.98 sec",0.009318595,0.142878,1.982208,-0.1098429,1.4431244134903,1.63724780082703,-7.35280561447144,0.8507499,-0.04871242,0.006551976,1.65406,1.849998,-7.466425,0.7958285
"2.99 sec",0.009119011,0.1421912,1.991853,-0.107663,1.44959115982056,1.64415514469147,-7.3536434173584,0.84966,0.003348169,0.009894631,1.65406,1.849998,-7.466425,0.7958285
"3 sec",-0.006432687,-0.1018471,2.776444,-0.1003165,1.45604884624481,1.65106678009033,-7.35449361801147,0.8485844,0.04673645,0.01077008,1.716753,1.918654,-7.473763,0.7984262
"3.01 sec",-0.006330338,-0.1018535,2.776444,-0.09830332,1.46246254444122,1.65794706344604,-7.35554361343384,0.8475778,0.05047495,0.008895174,1.716753,1.918654,-7.473763,0.7984262
"3.02 sec",-0.006662069,-0.1089371,2.596715,-0.09634542,1.46882295608521,1.66478550434113,-7.35699892044067,0.8465989,0.02188185,0.005341383,1.716753,1.918654,-7.473763,0.7984262
"3.03 sec",-0.009872871,-0.1644333,1.724831,-0.09442842,1.47515845298767,1.67160677909851,-7.35881853103638,0.8456404,-0.01201927,0.001935617,1.716753,1.918654,-7.473763,0.7984262
"3.04 sec",-0.01232632,-0.2091428,1.360008,-0.0925492,1.48149943351746,1.67843782901764,-7.36074781417847,0.8447008,-0.04797212,-0.001160375,1.716753,1.918654,-7.473763,0.7984262
"3.05 sec",0.02814138,-0.1771761,1.330345,-0.0907079,1.48786509037018,1.68529534339905,-7.36247158050537,0.8437801,-0.08712524,-0.004095208,1.716753,1.918654,-7.473763,0.7984262
"3.06 sec",0.01086456,0.1899837,1.495383,-0.08888638,1.49427115917206,1.69219470024109,-7.36388492584229,0.8428693,-0.11943,-0.001886114,1.716753,1.918654,-7.473763,0.7984262
"3.07 sec",0.009449558,0.1676081,1.692813,-0.08711398,1.50073170661926,1.69915342330933,-7.36501693725586,0.8419831,-0.09801179,0.002659522,1.716753,1.918654,-7.473763,0.7984262
"3.08 sec",0.008474988,0.1525311,1.858715,-0.08538795,1.50724029541016,1.70616912841797,-7.36595869064331,0.8411201,-0.03768887,0.005479575,1.716753,1.918654,-7.473763,0.7984262
"3.09 sec",0.00788824,0.1441142,1.966536,-0.0836879,1.51376724243164,1.71321249008179,-7.3668041229248,0.8402701,0.01944346,0.006987471,1.716753,1.918654,-7.473763,0.7984262
"3.1 sec",-0.005502094,-0.1019014,2.776445,-0.1025282,1.5202773809433,1.72024691104889,-7.3676233291626,0.8394339,0.06225186,0.007656037,1.782391,1.983818,-7.492609,0.7881698
"3.11 sec",-0.005398827,-0.1019069,2.776445,-0.100498,1.52673411369324,1.72723495960236,-7.3686351776123,0.8384188,0.0629245,0.0063402,1.782391,1.983818,-7.492609,0.7881698
"3.12 sec",-0.00529693,-0.1019122,2.776445,-0.09849477,1.53312826156616,1.73416650295258,-7.37005090713501,0.8374172,0.0309347,0.003643897,1.782391,1.983818,-7.492609,0.7881698
"3.13 sec",-0.005197107,-0.1019173,2.776445,-0.09653246,1.53949022293091,1.74106991291046,-7.37187337875366,0.836436,-0.004978247,0.001071458,1.782391,1.983818,-7.492609,0.7881698
"3.14 sec",-0.007053737,-0.1412177,2.007088,-0.09460616,1.54585516452789,1.74797880649567,-7.37410259246826,0.8354729,-0.03509832,-0.0009439057,1.782391,1.983818,-7.492609,0.7881698
"3.15 sec",-0.1054992,-0.1374769,1.179627,-0.09271657,1.55224788188934,1.7549170255661,-7.37655591964722,0.8345281,-0.06210747,-0.002604379,1.782391,1.983818,-7.492609,0.7881698
"3.16 sec",0.01139909,0.2384999,1.195928,-0.09088826,1.55867481231689,1.76188898086548,-7.37883377075195,0.8336139,-0.08553942,-0.01544781,1.782391,1.983818,-7.492609,0.7881698
"3.17 sec",0.01118343,0.2385099,1.195928,-0.08906269,1.56514048576355,1.76889050006866,-7.3807225227356,0.8327011,-0.0592058,-0.02343054,1.782391,1.983818,-7.492609,0.7881698
"3.18 sec",0.01097605,0.2385194,1.195928,-0.08730698,1.57163858413696,1.77590787410736,-7.38222694396973,0.8318233,0.007149783,-0.0191663,1.782391,1.983818,-7.492609,0.7881698
"3.19 sec",0.008538575,0.1883368,1.509193,-0.08560753,1.57814228534698,1.78291451931,-7.38334798812866,0.8309736,0.07301084,-0.01196313,1.782391,1.983818,-7.492609,0.7881698
"3.2 sec",-0.004555718,-0.1019479,2.776444,0.1059172,1.58461856842041,1.789879322052,-7.38415861129761,0.8301328,0.1200097,-0.005533864,1.815616,2.071074,-7.530325,0.8830914
"3.21 sec",-0.004653596,-0.1019435,2.776445,0.1039935,1.59101533889771,1.79674875736237,-7.38503646850586,0.8310946,0.1141884,-0.002308822,1.815616,2.071074,-7.530325,0.8830914
"3.22 sec",-0.004759378,-0.1019387,2.776445,0.1019146,1.59731078147888,1.803502202034,-7.38631200790405,0.8321341,0.07015511,-0.001776741,1.815616,2.071074,-7.530325,0.8830914
"3.23 sec",0.0906154,-0.01525977,2.773701,0.09987247,1.60354292392731,1.81018209457397,-7.38799142837524,0.8331552,0.02282617,-0.002213401,1.815616,2.071074,-7.530325,0.8830914
"3.24 sec",0.1019277,-0.004989627,2.776445,0.09789813,1.60975325107574,1.81683576107025,-7.39007663726807,0.8341423,-0.006192312,0.008237361,1.815616,2.071074,-7.530325,0.8830914
"3.25 sec",0.13333,-0.00667343,2.125043,0.09595919,1.61595857143402,1.82350265979767,-7.39256811141968,0.8351118,-0.01581358,0.02889234,1.815616,2.071074,-7.530325,0.8830914
"3.26 sec",0.2384546,-0.01232833,1.195928,0.09404123,1.62215054035187,1.83020639419556,-7.39531135559082,0.8360708,-0.016904,0.0532463,1.815616,2.071074,-7.530325,0.8830914
"3.27 sec",0.04667789,0.201376,1.187259,0.09215498,1.62831962108612,1.83694994449615,-7.39791440963745,0.8370139,-0.01591995,0.0887154,1.815616,2.071074,-7.530325,0.8830914
"3.28 sec",0.01242414,0.2384497,1.195928,0.09027612,1.63445568084717,1.8437340259552,-7.40013074874878,0.8379533,0.009958076,0.1066836,1.815616,2.071074,-7.530325,0.8830914
"3.29 sec",0.01263194,0.2384389,1.195928,0.08851659,1.64054095745087,1.85055434703827,-7.40195798873901,0.8388331,0.05972533,0.09658532,1.815616,2.071074,-7.530325,0.8830914
"3.3 sec",-0.005525979,-0.1019001,2.776445,-0.06554782,1.64655995368958,1.85738658905029,-7.40339851379395,0.8396688,0.1101417,0.07701541,1.898975,2.120894,-7.547081,0.8068948
"3.31 sec",-0.005466822,-0.1019033,2.776445,-0.0643847,1.65245401859283,1.86418759822845,-7.40482234954834,0.8390872,0.1112703,0.05620855,1.898975,2.120894,-7.547081,0.8068948
"3.32 sec",-0.005405186,-0.1019065,2.776445,-0.06317294,1.65819013118744,1.87092983722687,-7.40664291381836,0.8384813,0.06997345,0.03771917,1.898975,2.120894,-7.547081,0.8068948
"3.33 sec",-0.008296045,-0.1585865,1.788616,-0.06197727,1.66382253170013,1.87763571739197,-7.40886545181274,0.8378835,0.02353348,0.02357676,1.898975,2.120894,-7.547081,0.8068948
"3.34 sec",-0.02068011,-0.2294128,1.193519,-0.06078565,1.66941297054291,1.88433766365051,-7.41126012802124,0.8372877,-0.02203559,0.01319719,1.898975,2.120894,-7.547081,0.8068948
"3.35 sec",-0.2384467,0.01248162,1.195928,-0.05961323,1.67500531673431,1.89105749130249,-7.41342687606812,0.8367015,-0.07115031,0.004333815,1.898975,2.120894,-7.547081,0.8068948
"3.36 sec",-0.2384539,0.01234216,1.195928,-0.05846572,1.680624127388,1.89780831336975,-7.41520833969116,0.8361277,-0.08919753,-0.02868062,1.898975,2.120894,-7.547081,0.8068948
"3.37 sec",-0.2384614,0.01219133,1.195928,-0.05722463,1.68629086017609,1.90458536148071,-7.41660404205322,0.8355072,-0.07498758,-0.07992592,1.898975,2.120894,-7.547081,0.8068948
"3.38 sec",0.004511689,0.1854307,1.49669,-0.05597508,1.69202268123627,1.91136348247528,-7.41761302947998,0.8348824,-0.05353899,-0.1268181,1.898975,2.120894,-7.547081,0.8068948
"3.39 sec",0.007500702,0.1538434,1.843628,-0.05482697,1.69783854484558,1.91811084747314,-7.41830444335938,0.8343083,-0.01385624,-0.1349235,1.898975,2.120894,-7.547081,0.8068948
"3.4 sec",-0.01144742,-0.2384976,1.195928,0.04577935,1.70374178886414,1.92479205131531,-7.41883850097656,0.8338185,0.03375546,-0.1098739,1.949136,2.207941,-7.534608,0.8567082
"3.41 sec",-0.01154269,-0.2384931,1.195928,0.04497278,1.70969486236572,1.93140065670013,-7.41915369033813,0.8342218,0.02635077,-0.08134963,1.949136,2.207941,-7.534608,0.8567082
