Time,Roll,Pitch,Data,Yaw,x,y,z,roll,pitch,yaw,desired x,desired y,desired z,desired yaw
"0 sec",0.1680236,-0.170447,1.195928,0.5,0,0,-7,0,0,0,0.2132964,0.3284477,-6.979475,0.9948376
"0.01 sec",0.1672208,-0.1712344,1.195928,0.5,1.14941929041379e-06,1.13733074158517e-06,-6.9997935295105,0.004721938,-0.01987457,0.0195407,0.2132964,0.3284477,-6.979475,0.9948376
"0.02 sec",0.1663776,-0.1720534,1.195928,0.5,1.4827342965873e-05,1.4729917893419e-05,-6.99920320510864,0.009658886,-0.05565576,0.05446329,0.2132964,0.3284477,-6.979475,0.9948376
"0.03 sec",0.1655294,-0.1728689,1.195928,0.5,6.12525618635118e-05,6.10682545811869e-05,-6.99822807312012,0.01460128,-0.08956756,0.08720598,0.2132964,0.3284477,-6.979475,0.9948376
"0.04 sec",0.1047867,-0.1095893,1.874361,0.5,0.000159813062055036,0.000159894916578196,-6.99686527252197,0.01956533,-0.1164162,0.1127276,0.2132964,0.3284477,-6.979475,0.9948376
"0.05 sec",0.07030205,-0.07403187,2.776445,0.5,0.00034438690636307,0.000345963751897216,-6.99527025222778,0.024556,-0.1284856,0.123886,0.2132964,0.3284477,-6.979475,0.9948376
"0.06 sec",0.06993146,-0.07438195,2.776445,0.5,0.000670502311550081,0.000676573195960373,-6.99382781982422,0.02955442,-0.1244164,0.1196113,0.2132964,0.3284477,-6.979475,0.9948376
"0.07 sec",0.06955951,-0.07472983,2.776445,0.5,0.00116194877773523,0.00117703340947628,-6.9927716255188,0.03454791,-0.113322,0.1086376,0.2132964,0.3284477,-6.979475,0.9948376
"0.08 sec",0.06918585,-0.07507581,2.776445,0.5,0.00180419348180294,0.00183332047890872,-6.99210596084595,0.03954125,-0.1022691,0.09765737,0.2132964,0.3284477,-6.979475,0.9948376
"0.09 sec",0.07348003,-0.08056702,2.600287,0.5,0.00258228881284595,0.00263067684136331,-6.99183320999146,0.04453683,-0.09346006,0.08873992,0.2132964,0.3284477,-6.979475,0.9948376
"0.1 sec",0.1594229,-0.1785077,1.195928,0.5,0.00348055711947381,0.00355325383134186,-6.99191474914551,0.04953476,-0.08774448,0.08266649,0.1988211,0.3426622,-6.966582,1.04818
"0.11 sec",0.1585338,-0.1792959,1.195928,0.5,0.00446051545441151,0.00456106243655086,-6.99197483062744,0.05453116,-0.09596832,0.08898717,0.1988211,0.3426622,-6.966582,1.04818
"0.12 sec",0.1576428,-0.180078,1.195928,0.5,0.00549504812806845,0.00562553899362683,-6.99164724349976,0.0595168,-0.1147814,0.104578,0.1988211,0.3426622,-6.966582,1.04818
"0.13 sec",0.1314577,-0.1510542,1.424271,0.5,0.00659381737932563,0.00675634993240237,-6.9909291267395,0.06450249,-0.133378,0.119834,0.1988211,0.3426622,-6.966582,1.04818
"0.14 sec",0.07769822,-0.08962457,2.391509,0.5,0.00777335837483406,0.00797040201723576,-6.98987197875977,0.06949662,-0.1449455,0.1288922,0.1988211,0.3426622,-6.966582,1.04818
"0.15 sec",0.06654219,-0.07746754,2.775627,0.5,0.00907834619283676,0.00931388139724731,-6.9887580871582,0.07449532,-0.1425939,0.1259462,0.1988211,0.3426622,-6.966582,1.04818
"0.16 sec",0.06653896,-0.07825202,2.759634,0.5,0.010550987906754,0.0108307981863618,-6.98792695999146,0.07948757,-0.1300738,0.1143392,0.1988211,0.3426622,-6.966582,1.04818
"0.17 sec",0.07239925,-0.07629435,2.548015,0.5,0.0121887512505054,0.012519140727818,-6.98747825622559,0.08447763,-0.1159539,0.1014416,0.1988211,0.3426622,-6.966582,1.04818
"0.18 sec",0.08825217,0.005090053,2.290109,0.5,0.0139680719003081,0.0143551100045443,-6.98736190795898,0.08947078,-0.1039318,0.09133728,0.1988211,0.3426622,-6.966582,1.04818
"0.19 sec",0.1042975,0.08650031,2.093372,0.5,0.0158617272973061,0.0163130927830935,-6.98746585845947,0.09446581,-0.08529183,0.08638611,0.1988211,0.3426622,-6.966582,1.04818
"0.2 sec",0.06544276,-0.08015272,2.739477,0.5,0.0178382378071547,0.0183746628463268,-6.98767948150635,0.09946644,-0.05234772,0.08715671,0.2321438,0.3462606,-6.968746,0.9918961
"0.21 sec",0.08541564,-0.1058798,2.0871,0.5,0.0198668520897627,0.0205462276935577,-6.98810577392578,0.1044667,-0.03437513,0.086299,0.2321438,0.3462606,-6.968746,0.9918961
"0.22 sec",0.1028238,-0.1290281,1.723973,0.5,0.0219285003840923,0.0228265803307295,-6.98876047134399,0.1094671,-0.04071039,0.08428957,0.2321438,0.3462606,-6.968746,0.9918961
"0.23 sec",0.1097216,-0.1392349,1.605893,0.5,0.0240203868597746,0.0251916814595461,-6.98938703536987,0.114466,-0.05810902,0.08587195,0.2321438,0.3462606,-6.968746,0.9918961
"0.24 sec",0.106992,-0.1371323,1.636317,0.5,0.0261520259082317,0.0276335384696722,-6.9898624420166,0.1194617,-0.07857892,0.09042514,0.2321438,0.3462606,-6.968746,0.9918961
"0.25 sec",0.1003889,-0.1298992,1.732439,0.5,0.0283376853913069,0.0301556028425694,-6.99016141891479,0.1244575,-0.09657095,0.09524328,0.2321438,0.3462606,-6.968746,0.9918961
"0.26 sec",0.09401141,-0.1228221,1.83767,0.5,0.0305932573974133,0.0327669195830822,-6.99031257629395,0.1294557,-0.1092655,0.09822987,0.2321438,0.3462606,-6.968746,0.9918961
"0.27 sec",0.09087034,-0.1070588,1.919549,0.5,0.0329331383109093,0.0354771949350834,-6.99036407470703,0.1344556,-0.1164294,0.09881303,0.2321438,0.3462606,-6.968746,0.9918961
"0.28 sec",0.1025095,-0.003193646,1.965057,0.5,0.035367701202631,0.0382935479283333,-6.9903621673584,0.1394557,-0.1180718,0.09767961,0.2321438,0.3462606,-6.968746,0.9918961
"0.29 sec",0.06061137,0.09171696,1.995041,0.5,0.0379003919661045,0.0412193424999714,-6.99033880233765,0.1444553,-0.1043343,0.09737037,0.2321438,0.3462606,-6.968746,0.9918961
"0.3 sec",0.1486111,-0.1493531,1.188178,0.5,0.0405189394950867,0.0442544519901276,-6.99031400680542,0.1494476,-0.0692424,0.09347866,0.2376992,0.3823212,-6.965307,1.042778
"0.31 sec",0.1398783,-0.001820013,1.448852,0.5,0.0431849956512451,0.0473735518753529,-6.99010848999023,0.1544455,-0.05494074,0.09617884,0.2376992,0.3823212,-6.965307,1.042778
"0.32 sec",0.1100843,0.07000177,2.052745,0.5,0.0458770431578159,0.0505610182881355,-6.98957347869873,0.1594469,-0.05177323,0.1062529,0.2376992,0.3823212,-6.965307,1.042778
"0.33 sec",0.09913358,0.07120737,2.324352,0.5,0.0485967919230461,0.0538462921977043,-6.98891973495483,0.1644524,-0.03268962,0.1125223,0.2376992,0.3823212,-6.965307,1.042778
"0.34 sec",0.09787755,0.06955642,2.362473,0.5,0.0513303950428963,0.0572574995458126,-6.98836851119995,0.1694529,-0.00655409,0.1127924,0.2376992,0.3823212,-6.965307,1.042778
"0.35 sec",0.1018049,0.07160569,2.279638,0.5,0.0540495812892914,0.0607996694743633,-6.9879994392395,0.1744499,0.0165871,0.1101331,0.2376992,0.3823212,-6.965307,1.042778
"0.36 sec",0.1078691,0.07510523,2.159444,0.5,0.0567284002900124,0.0644643753767014,-6.98780393600464,0.1794474,0.03438704,0.107425,0.2376992,0.3823212,-6.965307,1.042778
"0.37 sec",0.1139295,0.07852294,2.05209,0.5,0.0593491196632385,0.0682397931814194,-6.98773145675659,0.1844466,0.04761304,0.1062325,0.2376992,0.3823212,-6.965307,1.042778
"0.38 sec",0.09234402,0.08597217,1.973635,0.5,0.0619006492197514,0.0721161812543869,-6.98772525787354,0.189447,0.05750005,0.1069186,0.2376992,0.3823212,-6.965307,1.042778
"0.39 sec",-0.005732742,0.1068255,1.932298,0.5,0.0643756240606308,0.0760871767997742,-6.98773813247681,0.1944469,0.06555242,0.1060131,0.2376992,0.3823212,-6.965307,1.042778
"0.4 sec",0.1311623,-0.2000915,1.195928,0.5,0.0667683556675911,0.0801461040973663,-6.98773956298828,0.1994408,0.07449925,0.09166119,0.2865281,0.4039868,-6.962692,0.9745747
"0.41 sec",0.09791984,-0.1501895,1.587814,0.5,0.0690915435552597,0.0842665806412697,-6.98754549026489,0.2044443,0.04789845,0.08408616,0.2865281,0.4039868,-6.962692,0.9745747
"0.42 sec",0.07572101,-0.1170902,2.036359,0.5,0.0713731572031975,0.0884383022785187,-6.98705863952637,0.2094368,-0.003017655,0.08692047,0.2865281,0.4039868,-6.962692,0.9745747
"0.43 sec",0.06833877,-0.106761,2.238542,0.5,0.0736420750617981,0.0926871076226234,-6.98648738861084,0.2144355,-0.04377181,0.08723432,0.2865281,0.4039868,-6.962692,0.9745747
"0.44 sec",0.06693101,-0.1057109,2.267718,0.5,0.075935922563076,0.097036100924015,-6.98599624633789,0.2194398,-0.0695762,0.08413088,0.2865281,0.4039868,-6.962692,0.9745747
"0.45 sec",-0.0005840812,-0.09334607,2.197738,0.5,0.078284427523613,0.101494148373604,-6.98564386367798,0.2244435,-0.08474155,0.07985791,0.2865281,0.4039868,-6.962692,0.9745747
"0.46 sec",-0.1071551,-0.07237773,2.119988,0.5,0.080704391002655,0.106059141457081,-6.98541975021362,0.2294477,-0.09209777,0.06810658,0.2865281,0.4039868,-6.962692,0.9745747
"0.47 sec",-0.1184775,-0.07320211,2.038821,0.5,0.0832038819789886,0.110716566443443,-6.98528861999512,0.2344476,-0.09212849,0.03860831,0.2865281,0.4039868,-6.962692,0.9745747
"0.48 sec",-0.122461,-0.07484617,1.978843,0.5,0.085786946117878,0.115434736013412,-6.98521137237549,0.2394399,-0.08827128,-0.0003559592,0.2865281,0.4039868,-6.962692,0.9745747
"0.49 sec",-0.124955,-0.07553083,1.945405,0.5,0.0884560942649841,0.120174065232277,-6.98515462875366,0.2444323,-0.08421074,-0.03600718,0.2865281,0.4039868,-6.962692,0.9745747
"0.5 sec",0.1210729,-0.2063002,1.195928,0.5,0.0912137851119041,0.124899797141552,-6.98509454727173,0.2494275,-0.08110721,-0.0642716,0.2899311,0.4620567,-6.959971,1.038214
"0.51 sec",0.09177238,-0.1573679,1.562854,0.5,0.0940465182065964,0.129595741629601,-6.98484325408936,0.254418,-0.09425063,-0.05628578,0.2899311,0.4620567,-6.959971,1.038214
"0.52 sec",0.08121896,-0.07877904,2.029757,0.5,0.0969516187906265,0.134272903203964,-6.98429298400879,0.2593832,-0.11461,-0.02259024,0.2899311,0.4620567,-6.959971,1.038214
"0.53 sec",0.09546666,0.01210002,2.250664,0.5,0.0999595522880554,0.138957679271698,-6.98364734649658,0.2643718,-0.1202452,0.00900471,0.2899311,0.4620567,-6.959971,1.038214
"0.54 sec",0.1074191,0.06120943,2.294651,0.5,0.103086389601231,0.143684595823288,-6.98308038711548,0.2693918,-0.1033966,0.03461824,0.2899311,0.4620567,-6.959971,1.038214
"0.55 sec",0.1110257,0.06254259,2.226717,0.5,0.106314159929752,0.148479819297791,-6.98266124725342,0.2744272,-0.06993599,0.0559174,0.2899311,0.4620567,-6.959971,1.038214
"0.56 sec",0.1166091,0.06494611,2.126503,0.5,0.109600923955441,0.15335676074028,-6.98238801956177,0.2794592,-0.03379771,0.07310865,0.2899311,0.4620567,-6.959971,1.038214
"0.57 sec",0.1220879,0.06722716,2.037145,0.5,0.112901955842972,0.158320099115372,-6.98221969604492,0.2844806,-0.003488378,0.08660445,0.2899311,0.4620567,-6.959971,1.038214
"0.58 sec",0.1019645,0.07595382,1.972334,0.5,0.116182059049606,0.163370847702026,-6.9821081161499,0.2894938,0.01954944,0.09738015,0.2899311,0.4620567,-6.959971,1.038214
"0.59 sec",-0.03809303,0.1194906,1.942931,0.5,0.119416296482086,0.16850920021534,-6.98201417922974,0.2944997,0.03702938,0.1032765,0.2899311,0.4620567,-6.959971,1.038214
"0.6 sec",0.1106769,-0.2120012,1.195928,0.5,0.122587196528912,0.173731848597527,-6.98191261291504,0.2994872,0.05515921,0.08859345,0.3432838,0.4969068,-6.956506,0.9716384
"0.61 sec",0.09558854,-0.1848129,1.370853,0.5,0.125698521733284,0.17901137471199,-6.9816198348999,0.3044912,0.03481822,0.07659613,0.3432838,0.4969068,-6.956506,0.9716384
"0.62 sec",0.06514008,-0.1269013,1.990713,0.5,0.128775805234909,0.184332177042961,-6.9809832572937,0.3094889,-0.01655587,0.0776379,0.3432838,0.4969068,-6.956506,0.9716384
"0.63 sec",0.05595838,-0.1102519,2.29442,0.5,0.13184817135334,0.189719215035439,-6.98019552230835,0.314488,-0.0586807,0.07778632,0.3432838,0.4969068,-6.956506,0.9716384
"0.64 sec",0.05385378,-0.1074124,2.360529,0.5,0.134953618049622,0.195203855633736,-6.97948932647705,0.3194928,-0.08317914,0.07420062,0.3432838,0.4969068,-6.956506,0.9716384
"0.65 sec",0.0253037,-0.1008479,2.29028,0.5,0.138122513890266,0.200800150632858,-6.97895765304565,0.3244964,-0.09575235,0.06922337,0.3432838,0.4969068,-6.956506,0.9716384
"0.66 sec",-0.116445,-0.05739002,2.185835,0.5,0.141370341181755,0.206507608294487,-6.978600025177,0.3294986,-0.1011625,0.06132068,0.3432838,0.4969068,-6.956506,0.9716384
"0.67 sec",-0.1228577,-0.05982096,2.077323,0.5,0.144702553749084,0.212314590811729,-6.97837448120117,0.3344935,-0.09767639,0.0353178,0.3432838,0.4969068,-6.956506,0.9716384
"0.68 sec",-0.1281743,-0.06164863,1.99638,0.5,0.148120552301407,0.218190535902977,-6.97822952270508,0.3394761,-0.0889038,-0.003135557,0.3432838,0.4969068,-6.956506,0.9716384
"0.69 sec",-0.109707,1.137114e-05,1.940629,0.5,0.15162493288517,0.224094107747078,-6.97811889648438,0.3444602,-0.08059677,-0.03907363,0.3432838,0.4969068,-6.956506,0.9716384
"0.7 sec",0.1000373,-0.2171638,1.195928,0.5,0.155216127634048,0.229989007115364,-6.97800779342651,0.3494424,-0.06704085,-0.06547449,0.3555981,0.5661881,-6.953274,1.033307
"0.71 sec",0.08305026,-0.1820462,1.424357,0.5,0.158875927329063,0.235857173800468,-6.97770595550537,0.3544316,-0.07498646,-0.05788856,0.3555981,0.5661881,-6.953274,1.033307
"0.72 sec",0.05846085,-0.1293331,2.000451,0.5,0.162595227360725,0.241708859801292,-6.97707271575928,0.3593907,-0.1012149,-0.02668912,0.3555981,0.5661881,-6.953274,1.033307
"0.73 sec",0.08513465,-0.02409615,2.272613,0.5,0.166402727365494,0.24757082760334,-6.97630262374878,0.364363,-0.1191203,0.001575461,0.3555981,0.5661881,-6.953274,1.033307
"0.74 sec",0.1105402,0.04905856,2.345245,0.5,0.170325949788094,0.253478914499283,-6.97560882568359,0.3693665,-0.1145061,0.0245894,0.3555981,0.5661881,-6.953274,1.033307
"0.75 sec",0.1139972,0.04991969,2.279445,0.5,0.174359560012817,0.259460180997849,-6.97507953643799,0.3743959,-0.0869533,0.04657026,0.3555981,0.5661881,-6.953274,1.033307
"0.76 sec",0.1201426,0.05191585,2.168088,0.5,0.178466573357582,0.265527784824371,-6.97472047805786,0.3794315,-0.0517649,0.06637755,0.3555981,0.5661881,-6.953274,1.033307
"0.77 sec",0.08351335,0.07147522,2.056421,0.5,0.182600513100624,0.271685004234314,-6.97448968887329,0.3844577,-0.02076286,0.08264174,0.3555981,0.5661881,-6.953274,1.033307
"0.78 sec",-0.05476338,0.1315222,1.992885,0.5,0.186722949147224,0.277930796146393,-6.97433185577393,0.3894696,0.005331174,0.09084215,0.3555981,0.5661881,-6.953274,1.033307
"0.79 sec",-0.05526773,0.1346347,1.951165,0.5,0.190806239843369,0.284257501363754,-6.97420215606689,0.3944498,0.03338152,0.07593558,0.3555981,0.5661881,-6.953274,1.033307
"0.8 sec",0.03836208,-0.09458753,2.776445,0.5,0.194830998778343,0.290639728307724,-6.9740743637085,0.3994065,0.06172359,0.04577,0.4160779,0.6142837,-6.96413,0.971154
"0.81 sec",0.03788977,-0.09477726,2.776445,0.5,0.198770761489868,0.297043710947037,-6.97413396835327,0.4044023,0.05817016,0.02756593,0.4160779,0.6142837,-6.96413,0.971154
"0.82 sec",0.03741559,-0.09496497,2.776445,0.5,0.202623412013054,0.303453832864761,-6.97459745407104,0.4094079,0.02722595,0.0238896,0.4160779,0.6142837,-6.96413,0.971154
"0.83 sec",0.05068013,-0.1307653,2.024184,0.5,0.206428170204163,0.309879928827286,-6.97546720504761,0.4144056,-0.006263486,0.02532855,0.4160779,0.6142837,-6.96413,0.971154
"0.84 sec",0.07672604,-0.201953,1.320592,0.5,0.210225507616997,0.316336423158646,-6.97656488418579,0.4193991,-0.03819674,0.02959045,0.4160779,0.6142837,-6.96413,0.971154
"0.85 sec",0.01565301,-0.1936228,1.184272,0.5,0.214040711522102,0.322828233242035,-6.97752618789673,0.4243843,-0.07453158,0.03797898,0.4160779,0.6142837,-6.96413,0.971154
"0.86 sec",-0.2154124,-0.081457,1.24026,0.5,0.217888385057449,0.329360395669937,-6.9781322479248,0.4293782,-0.109785,0.04095237,0.4160779,0.6142837,-6.96413,0.971154
"0.87 sec",-0.1797856,-0.06659906,1.485289,0.5,0.221785858273506,0.335940480232239,-6.97835826873779,0.4343954,-0.1240359,0.009944198,0.4160779,0.6142837,-6.96413,0.971154
"0.88 sec",-0.1424002,-0.02976028,1.725481,0.5,0.225756451487541,0.342559933662415,-6.9782772064209,0.4393823,-0.1182954,-0.03958654,0.4160779,0.6142837,-6.96413,0.971154
"0.89 sec",-0.06097461,0.1157947,1.912181,0.5,0.229825049638748,0.349190384149551,-6.97800779342651,0.4443505,-0.1019947,-0.07797303,0.4160779,0.6142837,-6.96413,0.971154
"0.9 sec",0.0780747,-0.2258718,1.195928,0.5,0.234004706144333,0.355797052383423,-6.97765779495239,0.4493238,-0.06578733,-0.0929194,0.4360986,0.6911448,-6.955422,1.028438
"0.91 sec",0.0769546,-0.2262501,1.195928,0.5,0.238265320658684,0.362364262342453,-6.97710704803467,0.4543211,-0.05884077,-0.07506084,0.4360986,0.6911448,-6.955422,1.028438
"0.92 sec",0.07287835,-0.2175794,1.244503,0.5,0.242578357458115,0.368908017873764,-6.97617053985596,0.4592677,-0.08943689,-0.03974455,0.4360986,0.6911448,-6.955422,1.028438
"0.93 sec",0.056858,-0.08378145,2.267075,0.5,0.246951147913933,0.375454366207123,-6.97485971450806,0.4642071,-0.1247785,-0.006459895,0.4360986,0.6911448,-6.955422,1.028438
"0.94 sec",0.0988757,0.0324627,2.723197,0.5,0.251422375440598,0.382045775651932,-6.9734263420105,0.4691866,-0.1384099,0.01751744,0.4360986,0.6911448,-6.955422,1.028438
"0.95 sec",0.09793886,0.03160777,2.753641,0.5,0.256033003330231,0.38873279094696,-6.97224140167236,0.474205,-0.1185059,0.0375715,0.4360986,0.6911448,-6.955422,1.028438
"0.96 sec",0.1051274,0.03335987,2.570094,0.5,0.260762602090836,0.39553838968277,-6.97143363952637,0.4792374,-0.0829724,0.05573452,0.4360986,0.6911448,-6.955422,1.028438
"0.97 sec",-0.01626563,0.1059626,2.325071,0.5,0.265556812286377,0.402460515499115,-6.97097158432007,0.4842629,-0.04936761,0.07054681,0.4360986,0.6911448,-6.955422,1.028438
"0.98 sec",-0.03888052,0.1278432,2.123494,0.5,0.270365655422211,0.409485518932343,-6.97075080871582,0.4892595,-0.01430642,0.06786753,0.4360986,0.6911448,-6.955422,1.028438
"0.99 sec",-0.04094875,0.1371415,1.983471,0.5,0.275154054164886,0.416583746671677,-6.97066116333008,0.4942229,0.02269331,0.04807127,0.4360986,0.6911448,-6.955422,1.028438
"1 sec",0.02876488,-0.09792492,2.776445,0.5,0.279899179935455,0.42371478676796,-6.97061729431152,0.4991831,0.05590233,0.02476886,0.4672507,0.768155,-6.963208,1.072625
"1.01 sec",0.0282762,-0.09806672,2.776445,0.5,0.284574598073959,0.430841058492661,-6.97077035903931,0.5041778,0.05479003,0.01282906,0.4672507,0.768155,-6.963208,1.072625
"1.02 sec",0.03083369,-0.1090243,2.502108,0.5,0.289177030324936,0.437948822975159,-6.9713282585144,0.5091787,0.02460811,0.01210652,0.4672507,0.768155,-6.963208,1.072625
"1.03 sec",0.05713652,-0.1515549,1.614824,0.5,0.293742716312408,0.445054888725281,-6.97222757339478,0.5141733,-0.01003522,0.01524043,0.4672507,0.768155,-6.963208,1.072625
"1.04 sec",0.1937805,0.01920972,1.267073,0.5,0.298307538032532,0.452178746461868,-6.97318601608276,0.5191613,-0.04512717,0.02222758,0.4672507,0.768155,-6.963208,1.072625
"1.05 sec",0.2141622,0.05818277,1.285686,0.5,0.302890211343765,0.459332317113876,-6.97388792037964,0.5241495,-0.05700469,0.04707257,0.4672507,0.768155,-6.963208,1.072625
"1.06 sec",0.1883483,0.04995567,1.461302,0.5,0.307487666606903,0.466529935598373,-6.97424507141113,0.5291788,-0.04137697,0.08585048,0.4672507,0.768155,-6.963208,1.072625
"1.07 sec",-0.04191939,0.1641991,1.677501,0.5,0.312079071998596,0.473792314529419,-6.97430229187012,0.53422,-0.01812832,0.1200291,0.4672507,0.768155,-6.963208,1.072625
"1.08 sec",-0.03706855,0.1481277,1.859948,0.5,0.31663504242897,0.481139808893204,-6.97415542602539,0.5392154,0.0156701,0.1172786,0.4672507,0.768155,-6.963208,1.072625
"1.09 sec",-0.03416906,0.1393847,1.978011,0.5,0.321126729249954,0.488566398620605,-6.9739031791687,0.5441562,0.05340238,0.08598364,0.4672507,0.768155,-6.963208,1.072625
"1.1 sec",0.02385059,-0.09923244,2.776445,0.5,0.325532823801041,0.496036797761917,-6.97362279891968,0.549105,0.08273297,0.0525981,0.5321605,0.8293516,-6.972718,1.01586
"1.11 sec",0.02335488,-0.09934992,2.776444,0.5,0.329826474189758,0.503510415554047,-6.97353458404541,0.5541058,0.07522211,0.03202258,0.5321605,0.8293516,-6.972718,1.01586
"1.12 sec",0.02285719,-0.09946524,2.776444,0.5,0.334010004997253,0.510969817638397,-6.97384881973267,0.5591205,0.03882691,0.02389237,0.5321605,0.8293516,-6.972718,1.01586
"1.13 sec",0.02998979,-0.1337529,2.070204,0.5,0.338130056858063,0.518429338932037,-6.97456836700439,0.5641263,0.000501844,0.02109049,0.5321605,0.8293516,-6.972718,1.01586
"1.14 sec",0.04259837,-0.1952416,1.425255,0.5,0.342233568429947,0.525909423828125,-6.97552728652954,0.5691263,-0.03495001,0.02128946,0.5321605,0.8293516,-6.972718,1.01586
"1.15 sec",-0.0933686,-0.1338235,1.233205,0.5,0.3463514149189,0.533421099185944,-6.97638654708862,0.5741211,-0.07245559,0.02441726,0.5321605,0.8293516,-6.972718,1.01586
"1.16 sec",-0.2058449,-0.04370352,1.354477,0.5,0.350500494241714,0.540971279144287,-6.97693014144897,0.5791349,-0.1009579,0.01300726,0.5321605,0.8293516,-6.972718,1.01586
"1.17 sec",-0.178641,-0.03684684,1.559628,0.5,0.354699343442917,0.548561990261078,-6.977135181427,0.5841432,-0.1056814,-0.0244833,0.5321605,0.8293516,-6.972718,1.01586
"1.18 sec",-0.115749,0.03233062,1.756496,0.5,0.35897159576416,0.556178689002991,-6.97708034515381,0.5891179,-0.09412244,-0.06838132,0.5321605,0.8293516,-6.972718,1.01586
"1.19 sec",-0.0279005,0.1445943,1.927883,0.5,0.36333841085434,0.563791453838348,-6.97686576843262,0.5940856,-0.07117843,-0.09618209,0.5321605,0.8293516,-6.972718,1.01586
"1.2 sec",0.04382454,-0.2347861,1.195928,0.5,0.367805987596512,0.571367919445038,-6.9765830039978,0.5990804,-0.03070463,-0.09832195,0.5548638,0.9157757,-6.9629,1.073244
"1.21 sec",0.042661,-0.2349965,1.195928,0.5,0.372340798377991,0.578897476196289,-6.97610425949097,0.6040798,-0.02807307,-0.07680958,0.5548638,0.9157757,-6.9629,1.073244
"1.22 sec",0.0415101,-0.2351988,1.195928,0.5,0.376916885375977,0.586400270462036,-6.97524118423462,0.6090207,-0.06773774,-0.04673997,0.5548638,0.9157757,-6.9629,1.073244
"1.23 sec",0.05247651,-0.09110671,2.100492,0.5,0.381542354822159,0.593903183937073,-6.97399234771729,0.6139589,-0.1128656,-0.02012097,0.5548638,0.9157757,-6.9629,1.073244
"1.24 sec",0.1038122,0.01750636,2.691731,0.5,0.386251956224442,0.601447284221649,-6.97257041931152,0.6189329,-0.1341016,0.001438988,0.5548638,0.9157757,-6.9629,1.073244
"1.25 sec",0.1007176,0.01646009,2.776444,0.5,0.391086578369141,0.609084069728851,-6.97134733200073,0.623948,-0.119729,0.02409992,0.5548638,0.9157757,-6.9629,1.073244
"1.26 sec",0.08195069,0.03404566,2.645782,0.5,0.396032750606537,0.616841793060303,-6.97049856185913,0.6289827,-0.08863387,0.04640399,0.5548638,0.9157757,-6.9629,1.073244
"1.27 sec",-0.01774487,0.1165926,2.40398,0.5,0.401039719581604,0.624720215797424,-6.97001934051514,0.6340085,-0.05642749,0.06183695,0.5548638,0.9157757,-6.9629,1.073244
"1.28 sec",-0.01898686,0.1291432,2.173147,0.5,0.406059116125107,0.632701992988586,-6.96982049942017,0.6390041,-0.01912938,0.05905393,0.5548638,0.9157757,-6.9629,1.073244
"1.29 sec",-0.0198428,0.1398423,2.009328,0.5,0.411056816577911,0.640750825405121,-6.96978521347046,0.6439723,0.02049296,0.04315635,0.5548638,0.9157757,-6.9629,1.073244
"1.3 sec",0.01385848,-0.1011072,2.776445,0.5,0.41601088643074,0.64882355928421,-6.96981525421143,0.6489416,0.05534969,0.02606442,0.6234603,0.9816056,-6.965904,1.013363
"1.31 sec",0.01623981,-0.1231435,2.283103,0.5,0.420896172523499,0.656882584095001,-6.9700493812561,0.6539381,0.05468926,0.01574037,0.6234603,0.9816056,-6.965904,1.013363
"1.32 sec",0.02007336,-0.1585773,1.77718,0.5,0.425715446472168,0.664917588233948,-6.97057104110718,0.6589434,0.02150057,0.01237193,0.6234603,0.9816056,-6.965904,1.013363
"1.33 sec",0.02172692,-0.1789909,1.577346,0.5,0.430508702993393,0.672948896884918,-6.9711332321167,0.6639435,-0.021212,0.01241141,0.6234603,0.9816056,-6.965904,1.013363
"1.34 sec",0.02081233,-0.1788811,1.579216,0.5,0.435308933258057,0.680998980998993,-6.97155475616455,0.6689405,-0.06372571,0.01398994,0.6234603,0.9816056,-6.965904,1.013363
"1.35 sec",-0.1516693,-0.03247841,1.675444,0.5,0.440141320228577,0.689088702201843,-6.97178316116333,0.6739379,-0.09947254,0.01577714,0.6234603,0.9816056,-6.965904,1.013363
"1.36 sec",-0.1564102,-0.01685238,1.805455,0.5,0.445028394460678,0.697236359119415,-6.97183847427368,0.6789425,-0.1090445,-0.002835451,0.6234603,0.9816056,-6.965904,1.013363
"1.37 sec",-0.06101178,0.09222325,1.898612,0.5,0.449990183115005,0.705439329147339,-6.97177696228027,0.6839179,-0.09516129,-0.03822383,0.6234603,0.9816056,-6.965904,1.013363
"1.38 sec",-0.0137756,0.1427769,1.978695,0.5,0.455040484666824,0.713669955730438,-6.97165393829346,0.6888809,-0.06275394,-0.06111585,0.6234603,0.9816056,-6.965904,1.013363
"1.39 sec",-0.01287883,0.1407966,2.007257,0.5,0.460173070430756,0.721893906593323,-6.97151517868042,0.6938754,-0.01647457,-0.06258915,0.6234603,0.9816056,-6.965904,1.013363
"1.4 sec",0.008801254,-0.1016704,2.776445,0.5,0.465357631444931,0.730081081390381,-6.9713888168335,0.6988965,0.0287968,-0.05327335,0.654557,1.073581,-6.968899,1.067339
"1.41 sec",0.00944295,-0.1158769,2.438349,0.5,0.470557600259781,0.738200187683105,-6.97146558761597,0.7039028,0.03650277,-0.0398768,0.654557,1.073581,-6.968899,1.067339
"1.42 sec",0.0113591,-0.1487234,1.903371,0.5,0.475757598876953,0.746250450611115,-6.97186756134033,0.7088848,0.01021712,-0.02616993,0.654557,1.073581,-6.968899,1.067339
"1.43 sec",0.05119615,-0.1267657,1.648132,0.5,0.480967819690704,0.754270792007446,-6.97237968444824,0.7138635,-0.0264597,-0.0148188,0.654557,1.073581,-6.968899,1.067339
"1.44 sec",0.1750172,0.01178658,1.620769,0.5,0.486203610897064,0.762295782566071,-6.97280168533325,0.718842,-0.05924068,-0.001625882,0.654557,1.073581,-6.968899,1.067339
"1.45 sec",0.1679441,0.01045125,1.688885,0.5,0.491474479436874,0.77035129070282,-6.97305917739868,0.7238328,-0.06656504,0.02717431,0.654557,1.073581,-6.968899,1.067339
"1.46 sec",0.1061765,0.05609198,1.783069,0.5,0.496770143508911,0.77845960855484,-6.97316026687622,0.728856,-0.0537981,0.06420852,0.654557,1.073581,-6.968899,1.067339
"1.47 sec",-0.007691512,0.1497355,1.893567,0.5,0.502063393592834,0.786639213562012,-6.97314357757568,0.733883,-0.03204641,0.08884833,0.654557,1.073581,-6.968899,1.067339
"1.48 sec",-0.006710823,0.1446629,1.959943,0.5,0.50732421875,0.794896483421326,-6.973060131073,0.7388795,0.00282125,0.08672419,0.654557,1.073581,-6.968899,1.067339
"1.49 sec",-0.005892111,0.1421874,1.994255,0.5,0.512527465820312,0.803212285041809,-6.97295427322388,0.7438426,0.04182637,0.06784035,0.654557,1.073581,-6.968899,1.067339
"1.5 sec",0.003726596,-0.1019815,2.776444,0.5,0.517655551433563,0.811549663543701,-6.97285223007202,0.748809,0.07383022,0.04757487,0.6914377,1.163109,-6.97272,1.111705
"1.51 sec",0.003355188,-0.1063802,2.662498,0.5,0.522684097290039,0.819870293140411,-6.97294759750366,0.7538094,0.06876627,0.03196787,0.6914377,1.163109,-6.97272,1.111705
"1.52 sec",0.003835102,-0.1448095,1.959371,0.5,0.527616441249847,0.828161358833313,-6.97341966629028,0.7588277,0.03335874,0.02148251,0.6914377,1.163109,-6.97272,1.111705
"1.53 sec",0.003777432,-0.1761269,1.613873,0.5,0.532501578330994,0.836443305015564,-6.97407341003418,0.7638429,-0.009415068,0.01462137,0.6914377,1.163109,-6.97272,1.111705
"1.54 sec",0.1492434,-0.03500677,1.527535,0.5,0.537382662296295,0.844740033149719,-6.97464370727539,0.7688532,-0.05281428,0.01024449,0.6914377,1.163109,-6.97272,1.111705
"1.55 sec",0.1764158,0.002059967,1.611512,0.5,0.542285561561584,0.85307115316391,-6.97501850128174,0.7738433,-0.07399644,0.02446672,0.6914377,1.163109,-6.97272,1.111705
"1.56 sec",0.06370111,0.1003521,1.725989,0.5,0.547214388847351,0.861456155776978,-6.9751935005188,0.778851,-0.06873512,0.05642332,0.6914377,1.163109,-6.97272,1.111705
"1.57 sec",-0.0002310914,0.1524482,1.86254,0.5,0.552150130271912,0.869912981987,-6.97521734237671,0.7838764,-0.04190096,0.07672401,0.6914377,1.163109,-6.97272,1.111705
"1.58 sec",0.0005042229,0.1457518,1.947454,0.5,0.557064116001129,0.878442466259003,-6.97515249252319,0.7888699,0.0002928218,0.07315704,0.6914377,1.163109,-6.97272,1.111705
"1.59 sec",0.001197414,0.1423613,1.993452,0.5,0.561929047107697,0.88701993227005,-6.97505521774292,0.7938375,0.042408,0.05791732,0.6914377,1.163109,-6.97272,1.111705
"1.6 sec",-0.00317203,-0.2387463,1.195928,0.5,0.56672465801239,0.895608007907867,-6.97495889663696,0.7988107,0.07536057,0.04212782,0.7604924,1.234529,-6.937798,1.051431
"1.61 sec",-0.004356907,-0.238728,1.195928,0.4952199,0.571456253528595,0.904180705547333,-6.97468614578247,0.8038212,0.05437104,0.02872,0.7604924,1.234529,-6.937798,1.051431
"1.62 sec",-0.005536576,-0.238704,1.195928,0.485242,0.576154172420502,0.912743508815765,-6.97402954101562,0.8088102,-0.009386805,0.01804309,0.7604924,1.234529,-6.937798,1.051431
"1.63 sec",-0.006691652,-0.238675,1.195928,0.475471,0.580848038196564,0.921317875385284,-6.97298955917358,0.8136957,-0.07401182,0.01001395,0.7604924,1.234529,-6.937798,1.051431
"1.64 sec",-0.007821018,-0.2386413,1.195928,0.4659163,0.58556741476059,0.929928123950958,-6.97156429290771,0.818473,-0.1262849,0.00416484,0.7604924,1.234529,-6.937798,1.051431
"1.65 sec",-0.1279679,0.004859523,2.214728,0.4565681,0.590335845947266,0.9385946393013,-6.96975183486938,0.8231471,-0.1644998,-4.389472e-05,0.7604924,1.234529,-6.937798,1.051431
"1.66 sec",-0.1019576,0.004331888,2.776444,0.4474373,0.595198214054108,0.947359979152679,-6.96778678894043,0.8277125,-0.1625009,-0.01691632,0.7604924,1.234529,-6.937798,1.051431
"1.67 sec",-0.02919973,0.07115015,2.770187,0.438562,0.600210309028625,0.956254839897156,-6.96606540679932,0.8321502,-0.1291894,-0.04071984,0.7604924,1.234529,-6.937798,1.051431
"1.68 sec",0.005205011,0.1019169,2.776445,0.429835,0.605382204055786,0.965243756771088,-6.9647364616394,0.8365137,-0.08491013,-0.05147057,0.7604924,1.234529,-6.937798,1.051431
"1.69 sec",0.00564378,0.1018937,2.776445,0.4212087,0.610684096813202,0.974273025989532,-6.96380662918091,0.8408268,-0.03705214,-0.04633918,0.7604924,1.234529,-6.937798,1.051431
"1.7 sec",-0.006075187,-0.1018689,2.776445,0.3174771,0.616068184375763,0.983298599720001,-6.96328115463257,0.8450685,0.004969752,-0.03451847,0.8265128,1.313807,-6.946806,1.003807
"1.71 sec",-0.006404092,-0.1018489,2.776444,0.3110079,0.62148654460907,0.992290377616882,-6.96316194534302,0.8483031,0.01323614,-0.02430092,0.8265128,1.313807,-6.946806,1.003807
"1.72 sec",-0.006719939,-0.1018286,2.776445,0.3047942,0.626920461654663,1.0012481212616,-6.96344947814941,0.85141,-0.006686653,-0.01761784,0.8265128,1.313807,-6.946806,1.003807
"1.73 sec",-0.007029519,-0.1018077,2.776445,0.2987027,0.632379412651062,1.01019680500031,-6.96414375305176,0.8544557,-0.03148622,-0.01342457,0.8265128,1.313807,-6.946806,1.003807
"1.74 sec",-0.01126689,-0.1567644,1.80708,0.2927281,0.637880980968475,1.01916587352753,-6.96524429321289,0.857443,-0.05295241,-0.01088388,0.8265128,1.313807,-6.946806,1.003807
"1.75 sec",-0.2205283,0.01683963,1.289392,0.2868694,0.64343136548996,1.02817165851593,-6.96652030944824,0.8603724,-0.07558276,-0.009868512,0.8265128,1.313807,-6.946806,1.003807
"1.76 sec",-0.1117841,0.1274355,1.18704,0.2811292,0.649025857448578,1.03721439838409,-6.96759414672852,0.8632424,-0.07825327,-0.0342179,0.8265128,1.313807,-6.946806,1.003807
"1.77 sec",0.01679692,0.2094626,1.356025,0.2755928,0.654666781425476,1.04627895355225,-6.96830558776855,0.8660107,-0.04757772,-0.06547882,0.8265128,1.313807,-6.946806,1.003807
"1.78 sec",0.01494795,0.179886,1.575543,0.2700993,0.660356640815735,1.05533909797668,-6.96866703033447,0.8687574,0.005739184,-0.06919474,0.8265128,1.313807,-6.946806,1.003807
"1.79 sec",0.01369143,0.1592998,1.77663,0.2646095,0.66608077287674,1.06436347961426,-6.9687762260437,0.8715023,0.05867762,-0.05367415,0.8265128,1.313807,-6.946806,1.003807
"1.8 sec",-0.01338034,-0.1508814,1.87449,0.3218172,0.671807646751404,1.07332217693329,-6.96873712539673,0.8741879,0.09641425,-0.03548655,0.8716694,1.410017,-6.94668,1.035097
"1.81 sec",-0.01306887,-0.1421759,1.987836,0.3154451,0.677505970001221,1.08219575881958,-6.96862363815308,0.877374,0.08430335,-0.02333911,0.8716694,1.410017,-6.94668,1.035097
"1.82 sec",-0.01321307,-0.1389469,2.033128,0.3091593,0.683171987533569,1.09099459648132,-6.96849012374878,0.8805169,0.03559021,-0.01765669,0.8716694,1.410017,-6.94668,1.035097
"1.83 sec",-0.01364212,-0.1389207,2.032912,0.3029836,0.688829183578491,1.09975457191467,-6.96837902069092,0.8836047,-0.01393421,-0.01510233,0.8716694,1.410017,-6.94668,1.035097
"1.84 sec",0.06482692,-0.07628689,2.002393,0.2969218,0.694506764411926,1.10851502418518,-6.96830320358276,0.8866356,-0.05377557,-0.01406475,0.8716694,1.410017,-6.94668,1.035097
"1.85 sec",0.1415636,-0.01490496,1.993805,0.2909944,0.700227916240692,1.11730766296387,-6.96825361251831,0.8895993,-0.07552887,-0.004568873,0.8716694,1.410017,-6.94668,1.035097
"1.86 sec",0.01532406,0.1430128,1.97336,0.2851673,0.705997824668884,1.12615549564362,-6.96821975708008,0.8925129,-0.0753345,0.02086957,0.8716694,1.410017,-6.94668,1.035097
"1.87 sec",0.01585116,0.1440407,1.958776,0.2794139,0.711797535419464,1.13507175445557,-6.96819400787354,0.8953896,-0.04511901,0.03768235,0.8716694,1.410017,-6.94668,1.035097
"1.88 sec",0.01632893,0.1446733,1.949675,0.2738135,0.717596352100372,1.14404404163361,-6.96816873550415,0.8981898,0.001149401,0.03867348,0.8716694,1.410017,-6.94668,1.035097
"1.89 sec",0.01675322,0.1448932,1.94614,0.2683481,0.723365485668182,1.15303897857666,-6.96813917160034,0.9009225,0.04354722,0.03464942,0.8716694,1.410017,-6.94668,1.035097
"1.9 sec",-0.02789406,-0.2371629,1.195928,0.3017747,0.729082405567169,1.16202235221863,-6.96810054779053,0.9036008,0.07653645,0.02991988,0.9219684,1.501808,-6.934404,1.054488
"1.91 sec",-0.02860137,-0.2370802,1.195928,0.2957526,0.734746098518372,1.17097651958466,-6.96787357330322,0.9066119,0.05568301,0.02068497,0.9219684,1.501808,-6.934404,1.054488
"1.92 sec",-0.02930598,-0.2369957,1.195928,0.2897514,0.740380883216858,1.17991364002228,-6.96726274490356,0.9096125,-0.007985457,0.00816299,0.9219684,1.501808,-6.934404,1.054488
"1.93 sec",-0.02359537,-0.1856642,1.520252,0.2838733,0.746014595031738,1.1888575553894,-6.96626901626587,0.9125515,-0.07253276,-0.003118198,0.9219684,1.501808,-6.934404,1.054488
"1.94 sec",0.02485808,-0.08388338,2.452362,0.2781473,0.751680254936218,1.19783914089203,-6.96496677398682,0.9154145,-0.1187654,-0.01119444,0.9219684,1.501808,-6.934404,1.054488
"1.95 sec",0.1011476,-0.01355891,2.776444,0.2725743,0.75742495059967,1.20690643787384,-6.96365785598755,0.918201,-0.134372,-0.01054555,0.9219684,1.501808,-6.934404,1.054488
"1.96 sec",0.01376622,0.1011197,2.776445,0.2670949,0.76328307390213,1.21610271930695,-6.96265983581543,0.9209408,-0.1211947,0.005452582,0.9219684,1.501808,-6.934404,1.054488
"1.97 sec",0.01530183,0.1102148,2.547256,0.2616973,0.76923531293869,1.22543442249298,-6.96205854415894,0.9236395,-0.08273785,0.01896604,0.9219684,1.501808,-6.934404,1.054488
"1.98 sec",0.01741245,0.1231109,2.280806,0.2564399,0.775234758853912,1.23486840724945,-6.96180534362793,0.9262682,-0.0337989,0.02239357,0.9219684,1.501808,-6.934404,1.054488
"1.99 sec",0.01956179,0.135877,2.06698,0.2513053,0.781238257884979,1.24435222148895,-6.96178007125854,0.9288355,0.0110723,0.02238986,0.9219684,1.501808,-6.934404,1.054488
"2 sec",-0.03440268,-0.2363223,1.195928,0.3052562,0.787215888500214,1.25384223461151,-6.96186304092407,0.9313501,0.04841797,0.02172537,0.969516,1.598255,-6.917802,1.083978
"2.01 sec",-0.03511244,-0.2362198,1.195928,0.299192,0.793158829212189,1.26331508159637,-6.96179103851318,0.9343822,0.03379521,0.01482843,0.969516,1.598255,-6.917802,1.083978
"2.02 sec",-0.03582124,-0.2361153,1.195928,0.2931333,0.799083948135376,1.27277839183807,-6.9613356590271,0.9374115,-0.02349284,0.002908251,0.969516,1.598255,-6.917802,1.083978
"2.03 sec",-0.03651586,-0.2360108,1.195928,0.2871933,0.805015981197357,1.28225409984589,-6.96049690246582,0.9403815,-0.08285376,-0.008428678,0.969516,1.598255,-6.917802,1.083978
"2.04 sec",0.1421642,-0.02278931,1.971438,0.2813951,0.810980796813965,1.29176640510559,-6.95927286148071,0.9432806,-0.1312476,-0.01750643,0.969516,1.598255,-6.917802,1.083978
"2.05 sec",0.06884634,0.03049495,2.717763,0.2757597,0.817015111446381,1.30135416984558,-6.95784330368042,0.9460983,-0.1419555,-0.003296268,0.969516,1.598255,-6.917802,1.083978
"2.06 sec",0.01658186,0.1006977,2.776444,0.2701781,0.823144435882568,1.31107091903687,-6.95658397674561,0.9488891,-0.1158445,0.02099884,0.969516,1.598255,-6.917802,1.083978
"2.07 sec",0.01685619,0.1006523,2.776444,0.2647191,0.829342722892761,1.32093060016632,-6.95570707321167,0.9516186,-0.07097919,0.03184588,0.969516,1.598255,-6.917802,1.083978
"2.08 sec",0.01884575,0.1107744,2.522605,0.2594156,0.835562884807587,1.33089530467987,-6.95523262023926,0.9542704,-0.02348416,0.03233894,0.969516,1.598255,-6.917802,1.083978
"2.09 sec",0.02167947,0.1255452,2.226243,0.2542323,0.841767370700836,1.34091138839722,-6.9551043510437,0.956862,0.01673565,0.02976528,0.969516,1.598255,-6.917802,1.083978
"2.1 sec",-0.04095701,-0.235294,1.195928,0.3034636,0.847932279109955,1.35093307495117,-6.95518493652344,0.9594027,0.04935347,0.02721214,1.020815,1.700172,-6.911161,1.111135
"2.11 sec",-0.04166067,-0.2351727,1.195928,0.2974253,0.854056477546692,1.36093759536743,-6.95515203475952,0.9624219,0.03238359,0.01805392,1.020815,1.700172,-6.911161,1.111135
"2.12 sec",-0.0374911,-0.2075627,1.351284,0.2913862,0.860162079334259,1.37093377113342,-6.95473575592041,0.9654414,-0.02515211,0.00351963,1.020815,1.700172,-6.911161,1.111135
"2.13 sec",-0.02440583,-0.1322857,2.109192,0.2854751,0.866275310516357,1.38094484806061,-6.95397329330444,0.968397,-0.0808549,-0.009460096,1.020815,1.700172,-6.911161,1.111135
"2.14 sec",0.1137243,-0.02147943,2.449529,0.2797271,0.872435212135315,1.39100897312164,-6.95308208465576,0.971271,-0.1141685,-0.01754709,1.020815,1.700172,-6.911161,1.111135
"2.15 sec",0.04112876,0.08288813,2.484584,0.2741202,0.878681302070618,1.40116775035858,-6.95233774185181,0.9740744,-0.1151813,-0.005349573,1.020815,1.700172,-6.911161,1.111135
"2.16 sec",0.02266547,0.1172288,2.374704,0.268579,0.885010182857513,1.41143751144409,-6.95183753967285,0.976845,-0.0850694,0.01326177,1.020815,1.700172,-6.911161,1.111135
"2.17 sec",0.0247332,0.1261426,2.206636,0.2631581,0.891383767127991,1.42180025577545,-6.95156812667847,0.9795555,-0.03890512,0.02239149,1.020815,1.700172,-6.911161,1.111135
"2.18 sec",0.02688214,0.1352731,2.057552,0.2578734,0.897761881351471,1.43221461772919,-6.95146322250366,0.9821978,0.006999561,0.02559484,1.020815,1.700172,-6.911161,1.111135
"2.19 sec",0.02863685,0.1422364,1.956535,0.2527053,0.904113948345184,1.44263875484467,-6.95144557952881,0.9847819,0.04562804,0.02673693,1.020815,1.700172,-6.911161,1.111135
"2.2 sec",-0.02043144,-0.09999005,2.776445,0.09514046,0.91041886806488,1.45304048061371,-6.95144987106323,0.9873128,0.07597777,0.02737534,1.109987,1.789078,-6.919109,1.034883
"2.21 sec",-0.02053478,-0.09996894,2.776444,0.09306967,0.916650176048279,1.46338748931885,-6.95164251327515,0.9883482,0.07016526,0.02212588,1.109987,1.789078,-6.919109,1.034883
"2.22 sec",-0.02261415,-0.1096051,2.532817,0.09117115,0.922804415225983,1.47367250919342,-6.9522385597229,0.9892974,0.03512418,0.01216029,1.109987,1.789078,-6.919109,1.034883
"2.23 sec",-0.03555962,-0.1720901,1.618209,0.08930719,0.928919076919556,1.48392713069916,-6.95318269729614,0.9902294,-0.003293321,0.002414504,1.109987,1.789078,-6.919109,1.034883
"2.24 sec",-0.0874339,-0.1622414,1.240722,0.08748043,0.935031354427338,1.49418425559998,-6.95419549942017,0.9911428,-0.04329467,-0.007039021,1.109987,1.789078,-6.919109,1.034883
"2.25 sec",-0.2222337,0.04738918,1.255961,0.0856756,0.941164135932922,1.50446331501007,-6.95494604110718,0.9920452,-0.07975677,-0.02162792,1.109987,1.789078,-6.919109,1.034883
"2.26 sec",-0.1946929,0.04152821,1.430618,0.08395374,0.947335302829742,1.51477432250977,-6.95533752441406,0.9929062,-0.08279977,-0.05474739,1.109987,1.789078,-6.919109,1.034883
"2.27 sec",0.03548093,0.1687343,1.648872,0.08236802,0.953567147254944,1.5251100063324,-6.95541429519653,0.993699,-0.05898022,-0.09453437,1.109987,1.789078,-6.919109,1.034883
"2.28 sec",0.03201418,0.1514861,1.834389,0.08074045,0.959881544113159,1.53544330596924,-6.95527219772339,0.9945128,-0.01710628,-0.09964673,1.109987,1.789078,-6.919109,1.034883
"2.29 sec",0.03016277,0.1420483,1.95489,0.07900882,0.966274082660675,1.54574239253998,-6.95501375198364,0.9953786,0.03021894,-0.07522336,1.109987,1.789078,-6.919109,1.034883
"2.3 sec",-0.02309685,-0.1081555,2.56292,0.1184376,0.972710490226746,1.55597937107086,-6.95471620559692,0.9962252,0.06753137,-0.04684344,1.165255,1.895919,-6.920624,1.055444
"2.31 sec",-0.02743943,-0.1278694,2.169167,0.1161009,0.979151427745819,1.56612706184387,-6.95455598831177,0.9973935,0.06455699,-0.02914098,1.165255,1.895919,-6.920624,1.055444
"2.32 sec",-0.0312556,-0.1449663,1.914571,0.1137998,0.98558247089386,1.57619285583496,-6.95459985733032,0.9985441,0.02759048,-0.02297824,1.165255,1.895919,-6.920624,1.055444
"2.33 sec",-0.03339646,-0.1541256,1.801296,0.1115249,0.992018222808838,1.586221575737,-6.9546856880188,0.9996815,-0.01628089,-0.02240495,1.165255,1.895919,-6.920624,1.055444
"2.34 sec",0.02961689,-0.1151034,1.775733,0.1092846,0.99847936630249,1.59625101089478,-6.95472097396851,1.000802,-0.05614559,-0.02423267,1.165255,1.895919,-6.920624,1.055444
"2.35 sec",0.1169981,0.0217183,1.818776,0.1071072,1.00498485565186,1.60631048679352,-6.95466804504395,1.00189,-0.0831553,-0.01927356,1.165255,1.895919,-6.920624,1.055444
"2.36 sec",0.03239793,0.1471347,1.884799,0.1049576,1.01154267787933,1.61642217636108,-6.95452880859375,1.002965,-0.0818826,0.001992692,1.165255,1.895919,-6.920624,1.055444
"2.37 sec",0.03182315,0.1437602,1.928227,0.1027923,1.0181382894516,1.62659621238708,-6.9543309211731,1.004048,-0.04665812,0.02122244,1.165255,1.895919,-6.920624,1.055444
"2.38 sec",0.03152905,0.1417139,1.955403,0.100692,1.02474081516266,1.63681733608246,-6.95410346984863,1.005098,0.001765929,0.02934067,1.165255,1.895919,-6.920624,1.055444
"2.39 sec",0.03144847,0.140673,1.969323,0.09866166,1.03131902217865,1.64705228805542,-6.95386457443237,1.006113,0.04434103,0.03234594,1.165255,1.895919,-6.920624,1.055444
"2.4 sec",-0.02766361,-0.1230677,2.248547,0.09331131,1.03784763813019,1.65726816654205,-6.9536247253418,1.007102,0.07649743,0.03313501,1.231042,1.997019,-6.921381,1.053758
"2.41 sec",-0.03053683,-0.1353356,2.045539,0.09142971,1.04430663585663,1.66743731498718,-6.95345115661621,1.008043,0.06833594,0.02617599,1.231042,1.997019,-6.921381,1.053758
"2.42 sec",-0.0326704,-0.1442269,1.919951,0.08954549,1.05070412158966,1.67756116390228,-6.95336961746216,1.008985,0.02698305,0.01315299,1.231042,1.997019,-6.921381,1.053758
"2.43 sec",-0.0337159,-0.1482393,1.86802,0.08769178,1.05707597732544,1.68766915798187,-6.9532995223999,1.009912,-0.01862975,0.0002981807,1.231042,1.997019,-6.921381,1.053758
"2.44 sec",-0.03388102,-0.1483516,1.866243,0.0858922,1.06345641613007,1.69779193401337,-6.95319604873657,1.010812,-0.0578287,-0.01029424,1.231042,1.997019,-6.921381,1.053758
"2.45 sec",0.06558745,0.09590159,1.882483,0.08414698,1.06987297534943,1.70795464515686,-6.95304298400879,1.011685,-0.08770439,-0.01821432,1.231042,1.997019,-6.921381,1.053758
"2.46 sec",0.03306148,0.1435918,1.926841,0.0824492,1.07634496688843,1.71817588806152,-6.95284271240234,1.012534,-0.08041062,-0.01216968,1.231042,1.997019,-6.921381,1.053758
"2.47 sec",0.03279089,0.141852,1.949908,0.08074236,1.0828652381897,1.72845363616943,-6.9526104927063,1.013387,-0.03815082,0.001112792,1.231042,1.997019,-6.921381,1.053758
"2.48 sec",0.03269751,0.1409073,1.962507,0.07907343,1.08940410614014,1.73876285552979,-6.95236492156982,1.014221,0.01030215,0.0114705,1.231042,1.997019,-6.921381,1.053758
"2.49 sec",0.03271455,0.1404642,1.968287,0.0774579,1.09592854976654,1.74906980991364,-6.95211601257324,1.015029,0.05097311,0.01887276,1.231042,1.997019,-6.921381,1.053758
"2.5 sec",-0.03144849,-0.1345119,2.054364,0.09619999,1.10241162776947,1.7593446969986,-6.95186758041382,1.015813,0.08115129,0.02390192,1.292223,2.101179,-6.921611,1.063913
"2.51 sec",-0.03254395,-0.1386297,1.993338,0.09428477,1.10883402824402,1.76956582069397,-6.95163917541504,1.01677,0.0701139,0.01972555,1.292223,2.101179,-6.921611,1.063913
"2.52 sec",-0.03334503,-0.1414491,1.953468,0.09234691,1.11520385742188,1.77973878383636,-6.95143985748291,1.017739,0.02623081,0.008293859,1.292223,2.101179,-6.921611,1.063913
"2.53 sec",-0.03379544,-0.1427632,1.9352,0.09044218,1.12155306339264,1.78989410400391,-6.95124626159668,1.018692,-0.01995987,-0.003355335,1.292223,2.101179,-6.921611,1.063913
"2.54 sec",-0.03395504,-0.142851,1.933603,0.08859253,1.12791466712952,1.80006372928619,-6.95104360580444,1.019617,-0.05822254,-0.01292121,1.292223,2.101179,-6.921611,1.063913
"2.55 sec",0.0787435,0.07000054,1.932147,0.08679676,1.13431572914124,1.81027412414551,-6.95082521438599,1.020514,-0.08665753,-0.02002182,1.292223,2.101179,-6.921611,1.063913
"2.56 sec",0.03377284,0.1409637,1.958472,0.08504677,1.14077436923981,1.82054388523102,-6.95058917999268,1.021389,-0.08170256,-0.01184221,1.292223,2.101179,-6.921611,1.063913
"2.57 sec",0.03378553,0.1404692,1.964905,0.08328557,1.14728236198425,1.83087313175201,-6.95034074783325,1.02227,-0.04226939,0.003159532,1.292223,2.101179,-6.921611,1.063913
"2.58 sec",0.03388741,0.1403628,1.965983,0.08156443,1.15380930900574,1.84123861789703,-6.95009136199951,1.023131,0.005738996,0.01382309,1.292223,2.101179,-6.921611,1.063913
"2.59 sec",0.0340068,0.1403469,1.965814,0.07989931,1.16032218933105,1.85160672664642,-6.94984340667725,1.023963,0.04699026,0.02107779,1.292223,2.101179,-6.921611,1.063913
"2.6 sec",-0.05610319,-0.2322044,1.195928,0.09559917,1.16679406166077,1.86194670200348,-6.94959592819214,1.024771,0.07807055,0.02587493,1.353592,2.205325,-6.918099,1.072571
"2.61 sec",-0.04825862,-0.1983688,1.395611,0.093678,1.17321920394897,1.87224781513214,-6.94916534423828,1.025732,0.05653124,0.01847148,1.353592,2.205325,-6.918099,1.072571
"2.62 sec",-0.03353936,-0.1367519,2.015765,0.09170699,1.17961704730988,1.88252592086792,-6.94839811325073,1.026717,-0.002629931,0.002501868,1.353592,2.205325,-6.918099,1.072571
"2.63 sec",-0.02936407,-0.1191376,2.311208,0.08979964,1.18601584434509,1.89280843734741,-6.9474949836731,1.027671,-0.05210459,-0.01070507,1.353592,2.205325,-6.918099,1.072571
"2.64 sec",-0.008036771,-0.1037964,2.36409,0.08797431,1.19245302677155,1.90313255786896,-6.94668674468994,1.028584,-0.08198917,-0.01882281,1.353592,2.205325,-6.918099,1.072571
"2.65 sec",0.04305458,0.09784272,2.2942,0.08620811,1.19895708560944,1.9135262966156,-6.94606161117554,1.029467,-0.09676273,-0.02094167,1.353592,2.205325,-6.918099,1.072571
"2.66 sec",0.03141647,0.1260617,2.183568,0.08446598,1.20553731918335,1.92400145530701,-6.94561576843262,1.030338,-0.07925797,-0.01313376,1.353592,2.205325,-6.918099,1.072571
"2.67 sec",0.03324528,0.1329521,2.070689,0.08272219,1.21217477321625,1.93454360961914,-6.94530582427979,1.03121,-0.03593164,-0.001080679,1.353592,2.205325,-6.918099,1.072571
"2.68 sec",0.03474465,0.1384874,1.988098,0.08101678,1.21883308887482,1.94511806964874,-6.94507884979248,1.032062,0.01000071,0.009246876,1.353592,2.205325,-6.918099,1.072571
"2.69 sec",0.03568054,0.1417469,1.942336,0.0793612,1.22547900676727,1.95568931102753,-6.94488668441772,1.03289,0.04896143,0.01734788,1.353592,2.205325,-6.918099,1.072571
"2.7 sec",-0.0581545,-0.2317077,1.195928,0.09637523,1.23208606243134,1.96622860431671,-6.94469547271729,1.033695,0.07895798,0.02339998,1.415694,2.311359,-6.913592,1.081882
"2.71 sec",-0.05837663,-0.2316528,1.195928,0.09444046,1.23864853382111,1.97672700881958,-6.94431495666504,1.034662,0.05707563,0.01676411,1.415694,2.311359,-6.913592,1.081882
"2.72 sec",-0.03795878,-0.1491196,1.84582,0.09244347,1.24518632888794,1.98720276355743,-6.94355010986328,1.03566,-0.006135299,2.590086e-05,1.415694,2.311359,-6.913592,1.081882
"2.73 sec",-0.03061191,-0.119596,2.297288,0.09050822,1.2517284154892,1.99768424034119,-6.94255638122559,1.036628,-0.06025152,-0.01425554,1.415694,2.311359,-6.913592,1.081882
"2.74 sec",0.01905797,-0.08449841,2.428536,0.08866668,1.25831437110901,2.00821137428284,-6.94160985946655,1.037549,-0.09101875,-0.02251307,1.415694,2.311359,-6.913592,1.081882
"2.75 sec",0.02961958,0.1148322,2.390959,0.08689046,1.2649759054184,2.01881623268127,-6.94085645675659,1.038437,-0.1020931,-0.02089628,1.415694,2.311359,-6.913592,1.081882
"2.76 sec",0.03142361,0.121421,2.261411,0.08512902,1.27171885967255,2.02951145172119,-6.94032144546509,1.039318,-0.07889616,-0.01135952,1.415694,2.311359,-6.913592,1.081882
"2.77 sec",0.03359411,0.1293899,2.122509,0.08337259,1.27851903438568,2.04027771949768,-6.93996620178223,1.040196,-0.03306792,-0.0001723927,1.415694,2.311359,-6.913592,1.081882
"2.78 sec",0.03551757,0.1363667,2.014222,0.08165646,1.28533816337585,2.05107545852661,-6.93972730636597,1.041054,0.01230342,0.009750707,1.415694,2.311359,-6.913592,1.081882
"2.79 sec",0.03680674,0.1408702,1.949901,0.07998943,1.29214298725128,2.06186819076538,-6.93954229354858,1.041887,0.05011172,0.01774487,1.415694,2.311359,-6.913592,1.081882
"2.8 sec",-0.06021973,-0.2311885,1.195928,0.09622169,1.29890811443329,2.07262754440308,-6.93936729431152,1.042698,0.07925529,0.02387791,1.479432,2.419391,-6.908371,1.090809
"2.81 sec",-0.06044123,-0.2311316,1.195928,0.09428811,1.30562841892242,2.08334541320801,-6.93900442123413,1.043664,0.05704056,0.01702216,1.479432,2.419391,-6.908371,1.090809
"2.82 sec",-0.0429597,-0.1627864,1.688437,0.09229088,1.31232404708862,2.09404039382935,-6.93825769424438,1.044663,-0.006165109,-0.00023774,1.479432,2.419391,-6.908371,1.090809
"2.83 sec",0.1536341,-0.04124516,1.786046,0.2977815,1.31902348995209,2.10474061965942,-6.9372444152832,1.045633,-0.06182385,-0.01537645,1.442523,2.43612,-6.907076,1.194523
"2.84 sec",-0.02649764,-0.0985607,2.776445,0.08461881,1.32575833797455,2.1154797077179,-6.93611574172974,1.048499,-0.0847292,-0.002627481,1.479432,2.419391,-6.908371,1.090809
"2.85 sec",0.01104098,0.09318293,2.66018,0.0827167,1.33254194259644,2.12630009651184,-6.93513059616089,1.04945,-0.09006254,0.01088569,1.479432,2.419391,-6.908371,1.090809
"2.86 sec",0.03084302,0.1139878,2.401139,0.08105874,1.33937311172485,2.13723063468933,-6.93451929092407,1.050279,-0.07105695,0.01216593,1.479432,2.419391,-6.908371,1.090809
"2.87 sec",0.03436312,0.1266622,2.161737,0.07942629,1.3462347984314,2.1482458114624,-6.93419218063354,1.051095,-0.03063401,0.01466487,1.479432,2.419391,-6.908371,1.090809
"2.88 sec",0.03733615,0.1372589,1.995553,0.0778172,1.35309958457947,2.1593005657196,-6.93402671813965,1.0519,0.01167815,0.01903081,1.479432,2.419391,-6.908371,1.090809
"2.89 sec",0.03916919,0.1436017,1.9077,0.07624125,1.35994172096252,2.17035531997681,-6.93392181396484,1.052688,0.04854681,0.02375105,1.479432,2.419391,-6.908371,1.090809
"2.9 sec",-0.06268193,-0.230544,1.195928,0.0948925,1.36674082279205,2.18138098716736,-6.93381118774414,1.053458,0.07809315,0.02810685,1.543735,2.529912,-6.902282,1.100904
"2.91 sec",-0.06289978,-0.2304856,1.195928,0.09298563,1.37349343299866,2.1923680305481,-6.93350219726562,1.054411,0.05652218,0.019771,1.543735,2.529912,-6.902282,1.100904
"2.92 sec",0.2299576,-0.06483493,1.195928,0.2984326,1.3802205324173,2.20333290100098,-6.9328088760376,1.055401,-0.006254913,0.001034843,1.506658,2.54625,-6.900822,1.204618
"2.93 sec",-0.03131242,-0.1121645,2.434676,0.08528638,1.38694655895233,2.21430134773254,-6.93173265457153,1.058261,-0.0503194,0.01676149,1.543735,2.529912,-6.902282,1.100904
"2.94 sec",-0.0292121,-0.104229,2.618435,0.08340669,1.3936802148819,2.22531843185425,-6.93056631088257,1.059201,-0.07241403,0.03286562,1.543735,2.529912,-6.902282,1.100904
"2.95 sec",-0.00913002,0.08557046,2.531056,0.08172774,1.40042412281036,2.23643398284912,-6.92967557907104,1.06004,-0.08613501,0.02558061,1.543735,2.529912,-6.902282,1.100904
"2.96 sec",0.108217,0.03235829,1.818771,0.2875314,1.40719187259674,2.2476589679718,-6.92908716201782,1.060852,-0.07183515,0.01494801,1.506658,2.54625,-6.900822,1.204618
"2.97 sec",0.03026153,0.1061751,2.567475,0.07455254,1.41398227214813,2.25896215438843,-6.92861080169678,1.063628,-0.04283207,0.02063311,1.543735,2.529912,-6.902282,1.100904
"2.98 sec",0.03446017,0.1205854,2.261631,0.07281017,1.42077386379242,2.27031540870667,-6.92824029922485,1.064499,-0.01052779,0.03045587,1.543735,2.529912,-6.902282,1.100904
"2.99 sec",0.03851024,0.134477,2.029073,0.07133889,1.42754030227661,2.28169775009155,-6.92809820175171,1.065235,0.02400405,0.03397898,1.543735,2.529912,-6.902282,1.100904
"3 sec",-0.06553213,-0.2297631,1.195928,0.09269476,1.43426299095154,2.2930760383606,-6.92805004119873,1.065952,0.05524007,0.03565625,1.606905,2.642851,-6.887469,1.112299
"3.01 sec",-0.06574392,-0.2297035,1.195928,0.09083462,1.44094145298004,2.30443286895752,-6.92783641815186,1.066882,0.03803178,0.02462629,1.606905,2.642851,-6.887469,1.112299
"3.02 sec",0.2291328,-0.06773788,1.195928,0.2967386,1.44759726524353,2.31577849388123,-6.92723894119263,1.067852,-0.01962098,0.00354197,1.569627,2.658707,-6.8858,1.216222
"3.03 sec",-0.06661298,-0.2294571,1.195928,0.08319688,1.45425462722778,2.32713508605957,-6.92625856399536,1.070701,-0.05975317,0.01772782,1.606905,2.642851,-6.887469,1.112299
"3.04 sec",-0.03551718,-0.1210272,2.248841,0.08135247,1.46092021465302,2.33852791786194,-6.92489385604858,1.071623,-0.09266587,0.02898955,1.606905,2.642851,-6.887469,1.112299
"3.05 sec",-0.04393207,0.05840916,2.76939,0.07969546,1.46760427951813,2.35000228881836,-6.92339181900024,1.072451,-0.1170065,0.01741851,1.606905,2.642851,-6.887469,1.112299
"3.06 sec",0.03589266,0.1215838,2.237558,0.2859612,1.47433805465698,2.36161112785339,-6.92214822769165,1.073241,-0.1044696,0.002490713,1.569627,2.658707,-6.8858,1.216222
"3.07 sec",0.03259918,0.1092644,2.486346,0.2804737,1.48112905025482,2.37333607673645,-6.92117500305176,1.075985,-0.06138377,-0.001872518,1.569627,2.658707,-6.8858,1.216222
"3.08 sec",0.0294673,0.09771644,2.776444,0.06698751,1.4879549741745,2.38512301445007,-6.92039632797241,1.078805,-0.01366506,0.003837709,1.606905,2.642851,-6.887469,1.112299
"3.09 sec",0.0309611,0.1023957,2.649465,0.06540108,1.49478471279144,2.39692831039429,-6.91994857788086,1.079599,0.02385624,0.01090975,1.606905,2.642851,-6.887469,1.112299
"3.1 sec",-0.06878476,-0.2288257,1.195928,0.09868264,1.50158703327179,2.4087131023407,-6.91987705230713,1.080262,0.05051042,0.0169256,1.668083,2.76128,-6.877802,1.129603
"3.11 sec",-0.06900738,-0.2287598,1.195928,0.0967195,1.50835537910461,2.42046666145325,-6.91980314254761,1.081244,0.03037569,0.009928737,1.668083,2.76128,-6.877802,1.129603
"3.12 sec",0.2281334,-0.07108306,1.195928,0.3027177,1.51511108875275,2.43220806121826,-6.91934633255005,1.082262,-0.0265106,-0.00767245,1.630544,2.77657,-6.876907,1.233621
"3.13 sec",-0.04627682,-0.1503976,1.805492,0.08887744,1.52187597751617,2.44396114349365,-6.91850566864014,1.085165,-0.06537694,0.009415083,1.668083,2.76128,-6.877802,1.129603
"3.14 sec",-0.03935713,-0.1045349,2.3983,0.08692288,1.52865672111511,2.45576143264771,-6.91742563247681,1.086142,-0.08785844,0.02549865,1.668083,2.76128,-6.877802,1.129603
"3.15 sec",-0.04426873,0.06460231,2.574768,0.08517241,1.53545832633972,2.46765422821045,-6.91640329360962,1.087017,-0.1017344,0.01728294,1.668083,2.76128,-6.877802,1.129603
"3.16 sec",0.03350206,0.1076139,2.51526,0.0834868,1.54229879379272,2.47966527938843,-6.9156346321106,1.08786,-0.08690028,0.003091435,1.668083,2.76128,-6.877802,1.129603
"3.17 sec",0.04199145,0.1346683,2.012279,0.2898698,1.54918479919434,2.491774559021,-6.91515302658081,1.088686,-0.04767297,-0.001494473,1.630544,2.77657,-6.876907,1.233621
"3.18 sec",0.0356413,0.1130678,2.391863,0.07622051,1.55609726905823,2.50393271446228,-6.91482782363892,1.091493,-0.00197868,0.004951891,1.668083,2.76128,-6.877802,1.129603
"3.19 sec",0.03971364,0.1256741,2.152743,0.07444263,1.56300532817841,2.51609492301941,-6.91461706161499,1.092382,0.03641956,0.01349962,1.668083,2.76128,-6.877802,1.129603
"3.2 sec",-0.04185105,-0.1321353,2.047733,0.09725904,1.56988155841827,2.52822852134705,-6.91456413269043,1.093139,0.06481355,0.02098027,1.732307,2.883298,-6.877986,1.141768
"3.21 sec",-0.04502939,-0.1417712,1.909069,0.09532642,1.57670974731445,2.54031491279602,-6.91457891464233,1.094105,0.05552117,0.01747887,1.732307,2.883298,-6.877986,1.141768
"3.22 sec",-0.04659698,-0.1462496,1.850562,0.09336495,1.58349883556366,2.55236172676086,-6.91460227966309,1.095086,0.01485423,0.004420388,1.732307,2.883298,-6.877986,1.141768
"3.23 sec",0.1875351,-0.06096148,1.444472,0.2991462,1.59027767181396,2.56439828872681,-6.91458511352539,1.096052,-0.02891824,-0.009509045,1.694587,2.898123,-6.876868,1.245625
"3.24 sec",-0.0401751,-0.1242996,2.171903,0.08568716,1.59707117080688,2.57645130157471,-6.91441535949707,1.098925,-0.05554375,0.006136794,1.732307,2.883298,-6.877986,1.141768
"3.25 sec",-0.05598059,0.07990159,2.074631,0.08378077,1.60388171672821,2.58855175971985,-6.9141583442688,1.099878,-0.07229279,0.01991779,1.732307,2.883298,-6.877986,1.141768
"3.26 sec",0.04371334,0.1345002,2.007199,0.08211422,1.61070883274078,2.60072708129883,-6.91398000717163,1.100711,-0.0638875,0.01063075,1.732307,2.883298,-6.877986,1.141768
"3.27 sec",0.04503151,0.1382031,1.953344,0.0804863,1.61755406856537,2.61296367645264,-6.91384029388428,1.101525,-0.02682018,0.006356425,1.732307,2.883298,-6.877986,1.141768
"3.28 sec",0.04577348,0.1401075,1.926512,0.07884884,1.62440502643585,2.62522721290588,-6.91370964050293,1.102344,0.01666465,0.01249606,1.732307,2.883298,-6.877986,1.141768
"3.29 sec",0.04601556,0.1404697,1.92109,0.07723761,1.63123786449432,2.63748216629028,-6.91356754302979,1.103149,0.05416507,0.0208724,1.732307,2.883298,-6.877986,1.141768
"3.3 sec",-0.0319094,-0.09694867,2.776445,0.09476686,1.63802981376648,2.6497004032135,-6.913405418396,1.103934,0.08266906,0.02839591,1.797293,3.006835,-6.883658,1.151317
"3.31 sec",-0.0320007,-0.09691864,2.776445,0.09288001,1.64475107192993,2.66184973716736,-6.91342163085938,1.104877,0.07518764,0.02511579,1.797293,3.006835,-6.883658,1.151317
"3.32 sec",-0.04124839,-0.1246851,2.160419,0.09097672,1.65139663219452,2.6739239692688,-6.91384029388428,1.105829,0.03924144,0.01294055,1.797293,3.006835,-6.883658,1.151317
"3.33 sec",0.2263237,-0.07673427,1.195928,0.2964444,1.65800476074219,2.68596076965332,-6.9145188331604,1.106768,-0.001775783,-0.0007178017,1.759443,3.021288,-6.882167,1.254991
"3.34 sec",-0.05245786,-0.1568806,1.718386,0.08342505,1.66460978984833,2.69799661636353,-6.91506719589233,1.109605,-0.03298337,0.01823431,1.797293,3.006835,-6.883658,1.151317
"3.35 sec",-0.05732616,0.1101256,1.616112,0.08158135,1.67121362686157,2.71006059646606,-6.91535663604736,1.110527,-0.06060779,0.03230407,1.797293,3.006835,-6.883658,1.151317
"3.36 sec",0.05433856,0.1616281,1.667526,0.07995629,1.67781615257263,2.72217869758606,-6.91549777984619,1.111339,-0.05692114,0.01955632,1.797293,3.006835,-6.883658,1.151317
"3.37 sec",0.05171816,0.1533538,1.756021,0.07837892,1.68442320823669,2.73434376716614,-6.91547727584839,1.112128,-0.01713946,0.01359261,1.797293,3.006835,-6.883658,1.151317
"3.38 sec",0.04921898,0.1454919,1.84945,0.07678366,1.69102549552917,2.74652695655823,-6.9153299331665,1.112926,0.02920434,0.01941177,1.797293,3.006835,-6.883658,1.151317
"3.39 sec",0.04743426,0.1398102,1.92341,0.0752151,1.69760036468506,2.75869464874268,-6.91510105133057,1.11371,0.06696805,0.02726836,1.797293,3.006835,-6.883658,1.151317
"3.4 sec",-0.03292769,-0.0966085,2.776445,0.09297824,1.70412468910217,2.77081751823425,-6.91483068466187,1.114472,0.09340151,0.03381722,1.860052,3.129737,-6.889178,1.160961
"3.41 sec",-0.03301702,-0.09657809,2.776444,0.09112573,1.71056830883026,2.78286266326904,-6.91473865509033,1.115398,0.08316706,0.02916666,1.860052,3.129737,-6.889178,1.160961
"3.42 sec",-0.04125147,-0.1204248,2.228536,0.08924913,1.7169269323349,2.79482460021973,-6.91504764556885,1.116337,0.04487206,0.01557771,1.860052,3.129737,-6.889178,1.160961
"3.43 sec",0.2255068,-0.07913882,1.195928,0.2945383,1.72324204444885,2.80674314498901,-6.91563272476196,1.117262,0.002547066,0.0008862859,1.822074,3.143821,-6.887425,1.264531
"3.44 sec",-0.05123109,-0.1479842,1.814241,0.08176327,1.72955083847046,2.81865787506104,-6.9161057472229,1.12008,-0.02985515,0.01910745,1.860052,3.129737,-6.889178,1.160961
"3.45 sec",-0.09372374,0.08814765,1.671963,0.07995319,1.73585641384125,2.83060002326965,-6.91634178161621,1.120985,-0.05761549,0.03285567,1.860052,3.129737,-6.889178,1.160961
"3.46 sec",0.1075762,0.1676123,1.185368,0.2854998,1.74215888977051,2.84259653091431,-6.91646862030029,1.121781,-0.0564122,0.0157575,1.822074,3.143821,-6.887425,1.264531
