Time,Roll,Pitch,Data,Yaw,x,y,z,roll,pitch,yaw,desired x,desired y,desired z,desired yaw
"0 sec",0.07209702,-0.07228513,2.776445,0.5,0,0,-7,0,0,0,0.3782845,0.101361,-7.020525,0.2617994
"0.01 sec",0.0717539,-0.07262573,2.776444,0.5,1.13170335680479e-06,1.13295118353562e-06,-7.000168800354,0.00473965,-0.008428808,0.008384466,0.3782845,0.101361,-7.020525,0.2617994
"0.02 sec",0.07139104,-0.07298243,2.776445,0.5,1.46039956234745e-05,1.46735746966442e-05,-7.0007438659668,0.009728186,-0.02360488,0.02336394,0.3782845,0.101361,-7.020525,0.2617994
"0.03 sec",0.07102633,-0.07333738,2.776445,0.4941633,6.03781081736088e-05,6.08401278441306e-05,-7.00172567367554,0.01471773,-0.03799008,0.03739883,0.3782845,0.101361,-7.020525,0.2617994
"0.04 sec",0.09523834,-0.09952268,2.06143,0.4842871,0.000157704052980989,0.000159321032697335,-7.00311231613159,0.01965585,-0.04938114,0.04833413,0.3782845,0.101361,-7.020525,0.2617994
"0.05 sec",0.1638192,-0.1744888,1.195928,0.4746031,0.000313354568788782,0.000317234545946121,-7.00473356246948,0.02449785,-0.06068616,0.05896413,0.3782845,0.101361,-7.020525,0.2617994
"0.06 sec",0.1629958,-0.1752572,1.195928,0.465137,0.000517433567438275,0.000524624425452203,-7.00619602203369,0.02923088,-0.08056222,0.07731269,0.3782845,0.101361,-7.020525,0.2617994
"0.07 sec",0.1621871,-0.1760048,1.195928,0.4558808,0.000768317608162761,0.000779785157646984,-7.00727224349976,0.03385901,-0.1052468,0.09979003,0.3782845,0.101361,-7.020525,0.2617994
"0.08 sec",0.1613901,-0.1767346,1.195928,0.4467964,0.00107947259675711,0.00109642604365945,-7.00795936584473,0.03840122,-0.1267507,0.1190103,0.3782845,0.101361,-7.020525,0.2617994
"0.09 sec",0.1439378,-0.1585936,1.333275,0.4378754,0.00146264699287713,0.0014866393757984,-7.0082540512085,0.04286167,-0.143195,0.1333109,0.3782845,0.101361,-7.020525,0.2617994
"0.1 sec",0.06860632,-0.07560562,2.776444,0.3756694,0.00193111167754978,0.00196418887935579,-7.00818634033203,0.0472408,-0.1527815,0.1411961,0.381864,0.09295945,-7.042324,0.2350755
"0.11 sec",0.06831987,-0.07586446,2.776444,0.368098,0.0025438186712563,0.00258983811363578,-7.00812578201294,0.05102649,-0.1472401,0.1354141,0.381864,0.09295945,-7.042324,0.2350755
"0.12 sec",0.06804106,-0.07611452,2.776445,0.3607528,0.00334743899293244,0.00341184833087027,-7.00844478607178,0.05469909,-0.1315257,0.1205717,0.381864,0.09295945,-7.042324,0.2350755
"0.13 sec",0.01162793,-0.07308461,2.76958,0.3535554,0.00432242779061198,0.00441048527136445,-7.00914907455444,0.05829777,-0.1157571,0.105763,0.381864,0.09295945,-7.042324,0.2350755
"0.14 sec",-0.06526639,-0.07964782,2.401763,0.3465019,0.00544824032112956,0.0055640060454607,-7.01024150848389,0.06182451,-0.1027172,0.08725806,0.381864,0.09295945,-7.042324,0.2350755
"0.15 sec",-0.1642434,-0.1459141,1.300385,0.3395923,0.00670017627999187,0.00683801528066397,-7.01163864135742,0.06527936,-0.09358358,0.05780469,0.381864,0.09295945,-7.042324,0.2350755
"0.16 sec",-0.1792757,-0.1585568,1.195928,0.332785,0.00803730729967356,0.00817401986569166,-7.01298856735229,0.06868301,-0.095659,0.013078,0.381864,0.09295945,-7.042324,0.2350755
"0.17 sec",-0.1798055,-0.1579543,1.195928,0.326062,0.00943390838801861,0.0095225116237998,-7.01397943496704,0.07204451,-0.1074988,-0.03727986,0.381864,0.09295945,-7.042324,0.2350755
"0.18 sec",-0.1803228,-0.1573619,1.195928,0.3194716,0.0108961015939713,0.0108537692576647,-7.01458406448364,0.07533967,-0.1210002,-0.08082501,0.381864,0.09295945,-7.042324,0.2350755
"0.19 sec",-0.155035,-0.1338782,1.392864,0.313035,0.0124335121363401,0.012142832390964,-7.01479864120483,0.07855797,-0.132285,-0.1138354,0.381864,0.09295945,-7.042324,0.2350755
"0.2 sec",-0.1689628,-0.1572417,1.193511,0.2653699,0.0140607077628374,0.0133657827973366,-7.01466751098633,0.08169875,-0.1379164,-0.1341897,0.3969442,0.09673086,-7.030321,0.2143837
"0.21 sec",-0.1817322,-0.1557276,1.195928,0.260009,0.0157829392701387,0.0145100513473153,-7.01419258117676,0.0843792,-0.1415775,-0.1462326,0.3969442,0.09673086,-7.030321,0.2143837
"0.22 sec",-0.1821356,-0.1552542,1.195928,0.2547991,0.0175956096500158,0.0155747160315514,-7.01332187652588,0.08698416,-0.1455856,-0.1559194,0.3969442,0.09673086,-7.030321,0.2143837
"0.23 sec",-0.1248967,-0.1050576,1.742621,0.2496949,0.0195016730576754,0.0165543984621763,-7.01205444335938,0.08953626,-0.1487468,-0.164033,0.3969442,0.09673086,-7.030321,0.2143837
"0.24 sec",-0.06912031,-0.06937498,2.659267,0.2446946,0.0215239245444536,0.0174255650490522,-7.01051616668701,0.0920364,-0.1451516,-0.1634312,0.3969442,0.09673086,-7.030321,0.2143837
"0.25 sec",-0.03705736,-0.06910338,2.77051,0.2397772,0.0237155891954899,0.0181363169103861,-7.00906085968018,0.09449511,-0.132057,-0.1492162,0.3969442,0.09673086,-7.030321,0.2143837
"0.26 sec",-0.005606295,-0.07208113,2.769234,0.2349375,0.0261014439165592,0.0186642780900002,-7.00795316696167,0.09691495,-0.1157318,-0.1254122,0.3969442,0.09673086,-7.030321,0.2143837
"0.27 sec",0.02381201,-0.07518695,2.763772,0.2301936,0.0286622121930122,0.0190357267856598,-7.00722980499268,0.09928691,-0.1019231,-0.09708364,0.3969442,0.09673086,-7.030321,0.2143837
"0.28 sec",0.05581955,-0.08877229,2.42712,0.2255543,0.0313760936260223,0.0192878823727369,-7.00689458847046,0.1016065,-0.09219497,-0.06697156,0.3969442,0.09673086,-7.030321,0.2143837
"0.29 sec",0.08293784,-0.1026577,2.15088,0.2210227,0.0342185907065868,0.0194648187607527,-7.00687170028687,0.1038723,-0.08746533,-0.03613593,0.3969442,0.09673086,-7.030321,0.2143837
"0.3 sec",0.06404596,-0.07950361,2.776444,0.3093284,0.0371656715869904,0.0196102373301983,-7.00701093673706,0.1060846,-0.08790422,-0.005413772,0.4151191,0.1204571,-7.034862,0.2607488
"0.31 sec",0.06484843,-0.08100957,2.731774,0.303234,0.0402202047407627,0.0197612531483173,-7.0073881149292,0.1091318,-0.08826871,0.01921166,0.4151191,0.1204571,-7.034862,0.2607488
"0.32 sec",0.09391967,-0.1183878,1.880501,0.2971608,0.0433924496173859,0.0199507810175419,-7.00815582275391,0.1121684,-0.08687966,0.03573206,0.4151191,0.1204571,-7.034862,0.2607488
"0.33 sec",0.118451,-0.1507052,1.486773,0.2912149,0.0466609410941601,0.0201917719095945,-7.00910139083862,0.1151413,-0.08967812,0.04994886,0.4151191,0.1204571,-7.034862,0.2607488
"0.34 sec",0.1234036,-0.158071,1.422148,0.2854005,0.0500002093613148,0.0204831585288048,-7.00990867614746,0.1180485,-0.09994639,0.06581557,0.4151191,0.1204571,-7.034862,0.2607488
"0.35 sec",0.1139811,-0.1466639,1.533574,0.2797089,0.0534059777855873,0.0208305511623621,-7.01045751571655,0.1208943,-0.1139433,0.08160575,0.4151191,0.1204571,-7.034862,0.2607488
"0.36 sec",0.1021536,-0.1320006,1.7043,0.2741237,0.0568874217569828,0.021247586235404,-7.01075601577759,0.1236869,-0.1256156,0.09358102,0.4151191,0.1204571,-7.034862,0.2607488
"0.37 sec",0.09312081,-0.1208834,1.862482,0.2686399,0.0604592524468899,0.0217516180127859,-7.01087045669556,0.1264288,-0.1316679,0.09990982,0.4151191,0.1204571,-7.034862,0.2607488
"0.38 sec",0.08752453,-0.1141834,1.974348,0.2632618,0.0641348734498024,0.0223579742014408,-7.01088237762451,0.1291179,-0.132328,0.1012637,0.4151191,0.1204571,-7.034862,0.2607488
"0.39 sec",0.09063206,-0.06776969,2.028741,0.2579917,0.0679224506020546,0.0230762455612421,-7.01085710525513,0.1317529,-0.1295167,0.09944558,0.4151191,0.1204571,-7.034862,0.2607488
"0.4 sec",-0.1892529,-0.1464584,1.195928,0.1333388,0.0718237906694412,0.0239096879959106,-7.0108380317688,0.1343343,-0.1202376,0.09692306,0.4559063,0.1021685,-7.023113,0.2010037
"0.41 sec",-0.1894561,-0.1461943,1.195928,0.1305526,0.0758125483989716,0.0248329378664494,-7.01064491271973,0.1357274,-0.116248,0.06233101,0.4559063,0.1021685,-7.023113,0.2010037
"0.42 sec",-0.1896483,-0.1459436,1.195928,0.1279115,0.0798654332756996,0.0258013978600502,-7.01006364822388,0.1370479,-0.1208359,0.002380287,0.4559063,0.1021685,-7.023113,0.2010037
"0.43 sec",-0.124675,-0.09483287,1.814767,0.1253135,0.0839895531535149,0.0267813559621572,-7.00909471511841,0.1383469,-0.127145,-0.05381279,0.4559063,0.1021685,-7.023113,0.2010037
"0.44 sec",-0.08644155,-0.06535079,2.616402,0.1228013,0.0882125124335289,0.0277334861457348,-7.00788259506226,0.139603,-0.1267967,-0.090294,0.4559063,0.1021685,-7.023113,0.2010037
"0.45 sec",-0.08152257,-0.06145326,2.776445,0.1203555,0.0925848484039307,0.0286071822047234,-7.00677394866943,0.1408259,-0.1169954,-0.1039058,0.4559063,0.1021685,-7.023113,0.2010037
"0.46 sec",-0.08159647,-0.061355,2.776444,0.1179469,0.0971307754516602,0.029365872964263,-7.00601387023926,0.1420302,-0.1033979,-0.1041476,0.4559063,0.1021685,-7.023113,0.2010037
"0.47 sec",-0.08897844,-0.06677678,2.548893,0.1155802,0.101838283240795,0.0300023835152388,-7.00564622879028,0.1432136,-0.09096081,-0.0998051,0.4559063,0.1021685,-7.023113,0.2010037
"0.48 sec",-0.09602472,-0.0486994,2.275097,0.1132623,0.106684722006321,0.0305244624614716,-7.00561952590942,0.1443725,-0.0819391,-0.09575099,0.4559063,0.1021685,-7.023113,0.2010037
"0.49 sec",-0.03438824,0.0526375,2.059461,0.1109932,0.111645601689816,0.0309460125863552,-7.00581121444702,0.1455071,-0.07406468,-0.09398194,0.4559063,0.1021685,-7.023113,0.2010037
"0.5 sec",0.1414782,-0.1929845,1.195928,0.09511426,0.116699412465096,0.0312787033617496,-7.00610113143921,0.1466254,-0.05485972,-0.08664673,0.5014947,0.1069528,-7.006845,0.1941825
"0.51 sec",0.1412954,-0.1931176,1.195928,0.09320867,0.121811047196388,0.0315485037863255,-7.00623035430908,0.1475782,-0.05649522,-0.05367054,0.5014947,0.1069528,-7.006845,0.1941825
"0.52 sec",0.1411289,-0.1932386,1.195928,0.09147474,0.126961842179298,0.0317923724651337,-7.00597476959229,0.1484452,-0.08370481,-0.005278306,0.5014947,0.1069528,-7.006845,0.1941825
"0.53 sec",0.1409661,-0.1933567,1.195928,0.08977997,0.132162660360336,0.0320402644574642,-7.00533390045166,0.1492925,-0.1135872,0.03845739,0.5014947,0.1069528,-7.006845,0.1941825
"0.54 sec",0.08088729,-0.1101866,2.077167,0.08807218,0.137426823377609,0.0323204174637794,-7.00430583953857,0.1501464,-0.1384837,0.0721681,0.5014947,0.1069528,-7.006845,0.1941825
"0.55 sec",0.06041434,-0.08229468,2.776444,0.08633152,0.142792209982872,0.032675489783287,-7.00309371948242,0.1510168,-0.147282,0.0891356,0.5014947,0.1069528,-7.006845,0.1941825
"0.56 sec",0.06034328,-0.08234674,2.776445,0.08460319,0.148314028978348,0.0331617146730423,-7.00208759307861,0.1518809,-0.139531,0.09042703,0.5014947,0.1069528,-7.006845,0.1941825
"0.57 sec",0.06797657,-0.03341072,2.769939,0.08291695,0.154006436467171,0.0338001064956188,-7.00146961212158,0.1527241,-0.1259412,0.08496779,0.5014947,0.1069528,-7.006845,0.1941825
"0.58 sec",0.06428134,0.06927919,2.561054,0.0812676,0.159851834177971,0.0345811359584332,-7.0012412071228,0.1535487,-0.1074922,0.07936097,0.5014947,0.1069528,-7.006845,0.1941825
"0.59 sec",0.03792004,0.08401882,2.255015,0.07965493,0.165820881724358,0.03548863530159,-7.00135564804077,0.1543551,-0.07531576,0.07498017,0.5014947,0.1069528,-7.006845,0.1941825
"0.6 sec",0.08049902,-0.1108121,2.073002,0.1115136,0.171865850687027,0.0364993698894978,-7.00168991088867,0.1551394,-0.03533209,0.06848157,0.5553091,0.1185867,-7.006937,0.2108962
"0.61 sec",0.08701127,-0.1201394,1.915321,0.1093249,0.177940264344215,0.0375903211534023,-7.00212383270264,0.1562338,-0.02225255,0.06546459,0.5553091,0.1185867,-7.006937,0.2108962
"0.62 sec",0.09007079,-0.1246955,1.84765,0.1071402,0.184028461575508,0.0387500748038292,-7.00257396697998,0.1573261,-0.03656564,0.06821726,0.5553091,0.1185867,-7.006937,0.2108962
"0.63 sec",0.09018674,-0.1251399,1.842568,0.1050056,0.190140873193741,0.0399788022041321,-7.00298118591309,0.1583934,-0.05788118,0.07309189,0.5553091,0.1185867,-7.006937,0.2108962
"0.64 sec",0.08874437,-0.1233905,1.86973,0.1029131,0.196295067667961,0.0412824228405952,-7.00332641601562,0.1594397,-0.07762503,0.07793092,0.5553091,0.1185867,-7.006937,0.2108962
"0.65 sec",0.05687798,-0.1162037,1.901417,0.1008587,0.202508300542831,0.0426686108112335,-7.00361299514771,0.1604669,-0.09285351,0.0816569,0.5553091,0.1185867,-7.006937,0.2108962
"0.66 sec",-0.01496195,-0.1026336,1.932092,0.09883881,0.20879490673542,0.0441441126167774,-7.00385332107544,0.1614768,-0.1027245,0.0804847,0.5553091,0.1185867,-7.006937,0.2108962
"0.67 sec",-0.05318331,0.06799272,1.956077,0.09685501,0.215165495872498,0.0457102470099926,-7.00406312942505,0.1624687,-0.1068466,0.06713658,0.5553091,0.1185867,-7.006937,0.2108962
"0.68 sec",-0.08317593,0.1165524,1.983602,0.09496295,0.221625611186028,0.0473561398684978,-7.00425577163696,0.1634147,-0.08742648,0.04250802,0.5553091,0.1185867,-7.006937,0.2108962
"0.69 sec",-0.08330881,0.1169604,1.977994,0.09318843,0.228161886334419,0.0490564964711666,-7.00444746017456,0.164302,-0.04535008,0.01271634,0.5553091,0.1185867,-7.006937,0.2108962
"0.7 sec",0.05924498,-0.08313955,2.776444,0.1031079,0.234740227460861,0.050776794552803,-7.00464725494385,0.1651695,-0.0005594313,-0.0152538,0.6172032,0.1349881,-7.025263,0.2167234
"0.71 sec",0.05916084,-0.08319937,2.776445,0.1010823,0.241323187947273,0.0524808242917061,-7.00504446029663,0.1661823,0.01305159,-0.0206381,0.6172032,0.1349881,-7.025263,0.2167234
"0.72 sec",0.05907757,-0.08325846,2.776445,0.09907889,0.24789571762085,0.0541561990976334,-7.00584840774536,0.167184,-0.001511735,-0.006723986,0.6172032,0.1349881,-7.025263,0.2167234
"0.73 sec",0.05899656,-0.08331582,2.776445,0.09713134,0.254472404718399,0.0558231435716152,-7.0070595741272,0.1681578,-0.02201984,0.01045919,0.6172032,0.1349881,-7.025263,0.2167234
"0.74 sec",0.0938335,-0.1332591,1.744844,0.09521532,0.26107656955719,0.0575091801583767,-7.00867700576782,0.1691158,-0.04038386,0.02529093,0.6172032,0.1349881,-7.025263,0.2167234
"0.75 sec",0.04487707,-0.1804887,1.182378,0.09333965,0.267720252275467,0.0592301562428474,-7.01045560836792,0.1700536,-0.06031246,0.04054689,0.6172032,0.1349881,-7.025263,0.2167234
"0.76 sec",-0.06961735,-0.161059,1.180094,0.0914965,0.274402260780334,0.0609870031476021,-7.01199054718018,0.1709752,-0.0862743,0.05000355,0.6172032,0.1349881,-7.025263,0.2167234
"0.77 sec",-0.131513,0.09365065,1.177281,0.08964062,0.281129390001297,0.0627804771065712,-7.01313257217407,0.1719031,-0.110499,0.03859702,0.6172032,0.1349881,-7.025263,0.2167234
"0.78 sec",-0.1364155,0.1965734,1.195928,0.08788484,0.28791481256485,0.0646061301231384,-7.01387882232666,0.172781,-0.09824537,0.006694426,0.6172032,0.1349881,-7.025263,0.2167234
"0.79 sec",-0.1115037,0.1602619,1.459989,0.08632472,0.294754862785339,0.0664450451731682,-7.01423454284668,0.1735611,-0.04494219,-0.03071985,0.6172032,0.1349881,-7.025263,0.2167234
"0.8 sec",0.0584816,-0.08367766,2.776445,0.09833959,0.301626145839691,0.0682685747742653,-7.01426887512207,0.1743324,0.01462013,-0.06004249,0.6831015,0.1549778,-7.041701,0.2235022
"0.81 sec",0.05840097,-0.08373388,2.776445,0.09641102,0.30849227309227,0.0700286254286766,-7.01436233520508,0.1752967,0.03321676,-0.05941262,0.6831015,0.1549778,-7.041701,0.2235022
"0.82 sec",0.05832187,-0.08378893,2.776444,0.09452003,0.315330862998962,0.0717026069760323,-7.01485967636108,0.1762422,0.01615771,-0.03620282,0.6831015,0.1549778,-7.041701,0.2235022
"0.83 sec",0.05824541,-0.08384204,2.776445,0.09269321,0.322156965732574,0.0733235478401184,-7.01576328277588,0.1771556,-0.008687249,-0.010521,0.6831015,0.1549778,-7.041701,0.2235022
"0.84 sec",0.09175981,-0.1327966,1.761565,0.09088805,0.328997254371643,0.0749316737055779,-7.01707363128662,0.1780582,-0.03111258,0.01090575,0.6831015,0.1549778,-7.041701,0.2235022
"0.85 sec",0.1352091,-0.1973994,1.195928,0.0891147,0.335869133472443,0.0765563920140266,-7.01854944229126,0.1789449,-0.05410689,0.03072514,0.6831015,0.1549778,-7.041701,0.2235022
"0.86 sec",0.09622239,-0.1904671,1.1889,0.08740065,0.342776030302048,0.0782099962234497,-7.01978969573975,0.1798019,-0.08417218,0.05388551,0.6831015,0.1549778,-7.041701,0.2235022
"0.87 sec",0.02041447,0.06398607,1.164626,0.08571193,0.349726468324661,0.0799038633704185,-7.02064275741577,0.1806462,-0.1148554,0.07246166,0.6831015,0.1549778,-7.041701,0.2235022
"0.88 sec",-0.05933733,0.1577976,1.392895,0.08400598,0.356733590364456,0.0816504806280136,-7.02109813690186,0.1814992,-0.1095535,0.0740689,0.6831015,0.1549778,-7.041701,0.2235022
"0.89 sec",-0.09381305,0.1370468,1.7126,0.08241448,0.363798081874847,0.0834541693329811,-7.02120351791382,0.182295,-0.06307377,0.05484181,0.6831015,0.1549778,-7.041701,0.2235022
"0.9 sec",0.1344069,-0.1979426,1.195928,0.1070193,0.370901077985764,0.0853064358234406,-7.0210976600647,0.1830294,-0.007859492,0.02260635,0.75179,0.1771203,-7.038079,0.2365391
"0.91 sec",0.1125818,-0.1655426,1.424338,0.1049466,0.378011167049408,0.0871799141168594,-7.02074384689331,0.1840658,-0.001359709,0.01642803,0.75179,0.1771203,-7.038079,0.2365391
"0.92 sec",0.07565434,-0.1109484,2.113961,0.1029058,0.385122239589691,0.0890659540891647,-7.02006101608276,0.1850862,-0.03397034,0.03499852,0.75179,0.1771203,-7.038079,0.2365391
"0.93 sec",0.06584225,-0.09667429,2.42487,0.1008993,0.39225822687149,0.0909887552261353,-7.0192723274231,0.1860894,-0.06347983,0.05162979,0.75179,0.1771203,-7.038079,0.2365391
"0.94 sec",0.06466181,-0.09513598,2.465453,0.09889615,0.399453312158585,0.0929816141724586,-7.01862907409668,0.187091,-0.080286,0.06035588,0.75179,0.1771203,-7.038079,0.2365391
"0.95 sec",0.04970196,-0.09592083,2.361844,0.09691969,0.406730085611343,0.0950644686818123,-7.01822090148926,0.1880792,-0.08854458,0.06400392,0.75179,0.1771203,-7.038079,0.2365391
"0.96 sec",-0.04214376,-0.07580541,2.21378,0.09497926,0.414096742868423,0.0972426384687424,-7.01803255081177,0.1890494,-0.09249591,0.06352374,0.75179,0.1771203,-7.038079,0.2365391
"0.97 sec",-0.07562964,0.1120944,2.099448,0.09307882,0.421553283929825,0.0995106920599937,-7.01800203323364,0.1899997,-0.09204899,0.04997807,0.75179,0.1771203,-7.038079,0.2365391
"0.98 sec",-0.07902759,0.1174024,2.006685,0.0912801,0.429094791412354,0.10184907913208,-7.01806449890137,0.190899,-0.06684442,0.02388808,0.75179,0.1771203,-7.038079,0.2365391
"0.99 sec",-0.08112355,0.1207673,1.952485,0.08957684,0.436697840690613,0.104224473237991,-7.01817083358765,0.1917506,-0.02340981,-0.004015638,0.75179,0.1771203,-7.038079,0.2365391
"1 sec",0.05694551,-0.08472919,2.776444,0.1019101,0.444324731826782,0.106600947678089,-7.01828670501709,0.1925961,0.01802605,-0.02756729,0.8239373,0.2009285,-7.046414,0.2435511
"1.01 sec",0.05686054,-0.08478616,2.776445,0.09990284,0.451938331127167,0.10894326120615,-7.0185923576355,0.1935997,0.02707476,-0.02927432,0.8239373,0.2009285,-7.046414,0.2435511
"1.02 sec",0.05865671,-0.08766408,2.687574,0.09793362,0.459525495767593,0.111240990459919,-7.0193042755127,0.1945843,0.008039714,-0.01298166,0.8239373,0.2009285,-7.046414,0.2435511
"1.03 sec",0.09269946,-0.1393405,1.699628,0.09602031,0.467105656862259,0.113519370555878,-7.02040195465088,0.195541,-0.01636577,0.005929981,0.8239373,0.2009285,-7.046414,0.2435511
"1.04 sec",0.1227108,-0.1856922,1.283544,0.09415409,0.474700957536697,0.115806013345718,-7.02162742614746,0.1964741,-0.04392114,0.02607471,0.8239373,0.2009285,-7.046414,0.2435511
"1.05 sec",0.01449428,-0.167886,1.242277,0.09234443,0.482324153184891,0.118117608129978,-7.02262210845947,0.1973789,-0.07655005,0.04885961,0.8239373,0.2009285,-7.046414,0.2435511
"1.06 sec",-0.1064597,-0.03042227,1.413593,0.0905284,0.489988505840302,0.120467983186245,-7.02326583862305,0.1982869,-0.1059654,0.05778554,0.8239373,0.2009285,-7.046414,0.2435511
"1.07 sec",-0.09411468,0.1426269,1.664995,0.0887126,0.497712999582291,0.122867658734322,-7.02358531951904,0.1991948,-0.1112091,0.03801416,0.8239373,0.2009285,-7.046414,0.2435511
"1.08 sec",-0.08446836,0.1280819,1.852277,0.08704615,0.505512475967407,0.125310778617859,-7.02368545532227,0.2000281,-0.07689475,0.005116493,0.8239373,0.2009285,-7.046414,0.2435511
"1.09 sec",-0.07921378,0.1202481,1.972496,0.08545703,0.513375222682953,0.127771198749542,-7.02367877960205,0.2008226,-0.02500747,-0.02330667,0.8239373,0.2009285,-7.046414,0.2435511
"1.1 sec",0.05617874,-0.08523883,2.776445,0.1002042,0.521265804767609,0.130215004086494,-7.02364444732666,0.2016294,0.02015304,-0.04345396,0.9000127,0.2276238,-7.052917,0.2517315
"1.11 sec",0.05609462,-0.08529413,2.776445,0.09822881,0.529144823551178,0.132605984807014,-7.02380561828613,0.202617,0.02984339,-0.04093543,0.9000127,0.2276238,-7.052917,0.2517315
"1.12 sec",0.0615778,-0.09387255,2.525788,0.09630042,0.536997497081757,0.134935468435287,-7.02437162399292,0.2035812,0.01036595,-0.02119951,0.9000127,0.2276238,-7.052917,0.2517315
"1.13 sec",0.0886382,-0.1358026,1.753381,0.09443015,0.544842541217804,0.13723435997963,-7.02528524398804,0.2045164,-0.01539621,0.0006682621,0.9000127,0.2276238,-7.052917,0.2517315
"1.14 sec",0.1086014,-0.1672055,1.430019,0.09260246,0.55270254611969,0.139535710215569,-7.02629709243774,0.2054302,-0.04364225,0.02251903,0.9000127,0.2276238,-7.052917,0.2517315
"1.15 sec",0.09707246,-0.1668279,1.409316,0.09081724,0.560592532157898,0.141861125826836,-7.02712678909302,0.2063228,-0.0741088,0.04456605,0.9000127,0.2276238,-7.052917,0.2517315
"1.16 sec",-0.02430921,-0.008725824,1.522452,0.08905193,0.568527221679688,0.144227921962738,-7.02768325805664,0.2072055,-0.1017477,0.0626082,0.9000127,0.2276238,-7.052917,0.2517315
"1.17 sec",-0.08897078,0.1373931,1.737318,0.08727852,0.576523900032043,0.146653234958649,-7.02798509597778,0.2080922,-0.1046601,0.06082877,0.9000127,0.2276238,-7.052917,0.2517315
"1.18 sec",-0.08191638,0.1266181,1.884146,0.08561853,0.5845907330513,0.1491419672966,-7.02811241149902,0.2089222,-0.06980377,0.03614778,0.9000127,0.2276238,-7.052917,0.2517315
"1.19 sec",-0.07801741,0.1207421,1.975739,0.08406544,0.59271103143692,0.151674598455429,-7.02815961837769,0.2096987,-0.01971681,0.004914637,0.9000127,0.2276238,-7.052917,0.2517315
"1.2 sec",0.05542307,-0.08573141,2.776444,0.1026278,0.600849092006683,0.154216051101685,-7.02818918228149,0.2104799,0.02379363,-0.02128354,0.9785244,0.2554116,-7.058444,0.2617938
"1.21 sec",0.05533687,-0.085787,2.776445,0.1006152,0.608966469764709,0.15672878921032,-7.02841472625732,0.2114862,0.03224377,-0.02497699,0.9785244,0.2554116,-7.058444,0.2617938
"1.22 sec",0.06684309,-0.1039591,2.295522,0.09863043,0.617050111293793,0.159200832247734,-7.02904653549194,0.2124786,0.01181803,-0.01044102,0.9785244,0.2554116,-7.058444,0.2617938
"1.23 sec",0.09089538,-0.1420675,1.686643,0.09670818,0.625121593475342,0.161656379699707,-7.0299711227417,0.2134397,-0.01573459,0.008258344,0.9785244,0.2554116,-7.058444,0.2617938
"1.24 sec",0.104795,-0.1644681,1.461465,0.09483379,0.633205711841583,0.16412228345871,-7.03091764450073,0.2143769,-0.04599646,0.02831664,0.9785244,0.2554116,-7.058444,0.2617938
"1.25 sec",0.07642222,-0.1563649,1.477337,0.09299886,0.641320109367371,0.166617274284363,-7.03167200088501,0.2152944,-0.0768057,0.04840667,0.9785244,0.2554116,-7.058444,0.2617938
"1.26 sec",-0.03741156,0.03819077,1.598288,0.09117633,0.64948171377182,0.169158563017845,-7.03217697143555,0.2162056,-0.1025888,0.06238021,0.9785244,0.2554116,-7.058444,0.2617938
"1.27 sec",-0.08513588,0.1340505,1.790157,0.08936283,0.657707989215851,0.171761646866798,-7.03246307373047,0.2171124,-0.09846796,0.05622222,0.9785244,0.2554116,-7.058444,0.2617938
"1.28 sec",-0.07954437,0.1253941,1.913168,0.0876748,0.666002571582794,0.174426719546318,-7.0326075553894,0.2179564,-0.05931758,0.03049928,0.9785244,0.2554116,-7.058444,0.2617938
"1.29 sec",-0.07654625,0.1208401,1.985445,0.08607084,0.674343585968018,0.177130356431007,-7.03269290924072,0.2187584,-0.01034802,0.00061654,0.9785244,0.2554116,-7.058444,0.2617938
"1.3 sec",0.05464278,-0.08623011,2.776445,0.1023993,0.682694613933563,0.179837137460709,-7.03277111053467,0.2195662,0.03089892,-0.02397087,1.059226,0.2843558,-7.065853,0.2707658
"1.31 sec",0.05455607,-0.08628492,2.776444,0.1003863,0.691017866134644,0.1825100928545,-7.03304767608643,0.2205726,0.0372054,-0.02661497,1.059226,0.2843558,-7.065853,0.2707658
"1.32 sec",0.05679708,-0.09004337,2.662846,0.09840971,0.699301421642303,0.185138255357742,-7.03373003005981,0.2215609,0.01504524,-0.0115867,1.059226,0.2843558,-7.065853,0.2707658
"1.33 sec",0.08584934,-0.1368222,1.760253,0.09648925,0.70756870508194,0.187746703624725,-7.03479242324829,0.2225212,-0.01209654,0.006256892,1.059226,0.2843558,-7.065853,0.2707658
"1.34 sec",0.1102338,-0.1767011,1.369927,0.09461308,0.715846061706543,0.190363362431526,-7.0359902381897,0.2234592,-0.04123179,0.02505834,1.059226,0.2843558,-7.065853,0.2707658
"1.35 sec",0.06130037,-0.1699934,1.324547,0.09278667,0.724150121212006,0.193005785346031,-7.03699445724487,0.2243724,-0.07363144,0.04562724,1.059226,0.2843558,-7.065853,0.2707658
"1.36 sec",-0.05585962,0.08338028,1.462725,0.09097242,0.732495427131653,0.195688605308533,-7.03768873214722,0.2252796,-0.1030821,0.05896113,1.059226,0.2843558,-7.065853,0.2707658
"1.37 sec",-0.08896306,0.1430086,1.688932,0.08916926,0.740899324417114,0.198425486683846,-7.03809309005737,0.2261811,-0.09581865,0.04993158,1.059226,0.2843558,-7.065853,0.2707658
"1.38 sec",-0.08083513,0.1300468,1.855854,0.08750492,0.749365031719208,0.201215207576752,-7.03829669952393,0.2270133,-0.0515979,0.02265199,1.059226,0.2843558,-7.065853,0.2707658
"1.39 sec",-0.0762823,0.1228742,1.963868,0.0859063,0.757869780063629,0.204033970832825,-7.03840208053589,0.2278126,-0.001308941,-0.006636968,1.059226,0.2843558,-7.065853,0.2707658
"1.4 sec",0.05386059,-0.08672009,2.776445,0.1018584,0.766377449035645,0.206847220659256,-7.03847980499268,0.2286227,0.03918651,-0.02969949,1.14169,0.3145879,-7.074909,0.2795519
"1.41 sec",0.05377376,-0.08677388,2.776445,0.09985405,0.774850010871887,0.209617882966995,-7.03874969482422,0.2296249,0.04374267,-0.03082212,1.14169,0.3145879,-7.074909,0.2795519
"1.42 sec",0.05368879,-0.08682639,2.776445,0.09789377,0.783275842666626,0.212335631251335,-7.03942489624023,0.230605,0.01966419,-0.01465357,1.14169,0.3145879,-7.074909,0.2795519
"1.43 sec",0.07543927,-0.1225291,1.973831,0.09598756,0.791680097579956,0.215027630329132,-7.0405068397522,0.2315581,-0.008641541,0.003718068,1.14169,0.3145879,-7.074909,0.2795519
"1.44 sec",0.1066096,-0.1742949,1.395934,0.09411785,0.800091862678528,0.21772475540638,-7.04180526733398,0.232493,-0.03689577,0.02172115,1.14169,0.3145879,-7.074909,0.2795519
"1.45 sec",0.07940024,-0.1844663,1.253597,0.09229663,0.808528959751129,0.220446065068245,-7.04297208786011,0.2334036,-0.06845971,0.04144789,1.14169,0.3145879,-7.074909,0.2795519
"1.46 sec",-0.04305205,0.110348,1.358929,0.09050161,0.817003548145294,0.223204091191292,-7.04381942749023,0.2343011,-0.1001563,0.05715781,1.14169,0.3145879,-7.074909,0.2795519
"1.47 sec",-0.09276456,0.1522577,1.596503,0.08870825,0.825530886650085,0.226011767983437,-7.04433393478394,0.2351978,-0.09216701,0.05214207,1.14169,0.3145879,-7.074909,0.2795519
"1.48 sec",-0.08247881,0.1354357,1.792639,0.08705395,0.834112524986267,0.228870242834091,-7.04459953308105,0.2360249,-0.04523038,0.0262463,1.14169,0.3145879,-7.074909,0.2795519
"1.49 sec",-0.07643445,0.1256398,1.931588,0.0854713,0.842725276947021,0.231758251786232,-7.04472732543945,0.2368163,0.006017598,-0.003808994,1.14169,0.3145879,-7.074909,0.2795519
"1.5 sec",0.05307913,-0.08719984,2.776444,0.1021298,0.851333737373352,0.234641775488853,-7.04480314254761,0.2376204,0.04612804,-0.02781503,1.225399,0.3457322,-7.083901,0.2886853
"1.51 sec",0.05299163,-0.08725295,2.776445,0.1001212,0.859899401664734,0.237482860684395,-7.04506301879883,0.2386247,0.04937107,-0.02970512,1.225399,0.3457322,-7.083901,0.2886853
"1.52 sec",0.05290602,-0.08730481,2.776445,0.09815657,0.868410885334015,0.2402703166008,-7.04572725296021,0.239607,0.02369096,-0.01414826,1.225399,0.3457322,-7.083901,0.2886853
"1.53 sec",0.07410485,-0.1228135,1.97997,0.09624636,0.876895368099213,0.243031188845634,-7.04679822921753,0.2405621,-0.005993333,0.003779216,1.225399,0.3457322,-7.083901,0.2886853
"1.54 sec",0.1042529,-0.1738947,1.406482,0.0943723,0.885384142398834,0.245796591043472,-7.04808712005615,0.2414991,-0.03526482,0.02141352,1.225399,0.3457322,-7.083901,0.2886853
"1.55 sec",0.09234473,-0.1873551,1.266551,0.09254581,0.893896818161011,0.24858595430851,-7.04924869537354,0.2424124,-0.06743976,0.04070488,1.225399,0.3457322,-7.083901,0.2886853
"1.56 sec",-0.03049042,0.1171491,1.366276,0.09075078,0.902446448802948,0.251412153244019,-7.05009698867798,0.2433099,-0.09983087,0.05774629,1.225399,0.3457322,-7.083901,0.2886853
"1.57 sec",-0.09115922,0.1526816,1.600604,0.08895135,0.911048293113708,0.254289269447327,-7.05061721801758,0.2442096,-0.09155859,0.0555156,1.225399,0.3457322,-7.083901,0.2886853
"1.58 sec",-0.08115305,0.135991,1.794953,0.08728689,0.919703304767609,0.257220149040222,-7.05089139938354,0.2450418,-0.04406781,0.03100337,1.225399,0.3457322,-7.083901,0.2886853
"1.59 sec",-0.07525478,0.1262413,1.932779,0.08570057,0.928387224674225,0.260184466838837,-7.05102920532227,0.245835,0.007223642,0.0007293485,1.225399,0.3457322,-7.083901,0.2886853
"1.6 sec",0.05229148,-0.08767367,2.776445,0.1025524,0.937064826488495,0.263148039579391,-7.05111598968506,0.24664,0.04722615,-0.02399038,1.310055,0.3776763,-7.090566,0.2979162
"1.61 sec",0.05220317,-0.08772619,2.776444,0.1005358,0.945697724819183,0.26607272028923,-7.05138731002808,0.2476483,0.0502138,-0.02684917,1.310055,0.3776763,-7.090566,0.2979162
"1.62 sec",0.05686644,-0.0958176,2.544759,0.09856084,0.954274833202362,0.268946826457977,-7.05206298828125,0.2486358,0.02419762,-0.01230579,1.310055,0.3776763,-7.090566,0.2979162
"1.63 sec",0.08233552,-0.1394383,1.755787,0.0966436,0.962824642658234,0.271797060966492,-7.05309057235718,0.2495944,-0.006718624,0.00534477,1.310055,0.3776763,-7.090566,0.2979162
"1.64 sec",0.101464,-0.1727024,1.423362,0.0947693,0.971378445625305,0.274653226137161,-7.05422163009644,0.2505316,-0.03883983,0.02385753,1.310055,0.3776763,-7.090566,0.2979162
"1.65 sec",0.08046065,-0.1697593,1.39757,0.09293854,0.979956924915314,0.277534872293472,-7.05517053604126,0.2514469,-0.07237688,0.04327088,1.310055,0.3776763,-7.090566,0.2979162
"1.66 sec",-0.03085713,0.120272,1.525089,0.09112555,0.988576948642731,0.280458390712738,-7.05584144592285,0.2523534,-0.1020841,0.05824446,1.310055,0.3776763,-7.090566,0.2979162
"1.67 sec",-0.08328322,0.1422536,1.725134,0.08931869,0.997255980968475,0.283439695835114,-7.05625534057617,0.2532569,-0.09078301,0.05429128,1.310055,0.3776763,-7.090566,0.2979162
"1.68 sec",-0.07654545,0.1308808,1.873978,0.08764362,1.00599253177643,0.286479651927948,-7.05649423599243,0.2540944,-0.04346833,0.03037117,1.310055,0.3776763,-7.090566,0.2979162
"1.69 sec",-0.07274374,0.1245522,1.969034,0.08603764,1.01475942134857,0.289554983377457,-7.05664873123169,0.2548974,0.006232983,0.001560203,1.310055,0.3776763,-7.090566,0.2979162
"1.7 sec",0.05149525,-0.0881429,2.776445,0.1027239,1.02352070808411,0.292630583047867,-7.05678129196167,0.2557091,0.04533359,-0.02220979,1.39552,0.410592,-7.095458,0.3070711
"1.71 sec",0.05140628,-0.08819474,2.776445,0.100703,1.03223884105682,0.295669198036194,-7.05710792541504,0.2567196,0.04822202,-0.02501449,1.39552,0.410592,-7.095458,0.3070711
"1.72 sec",0.06576815,-0.1132503,2.167078,0.09872299,1.04090368747711,0.298659831285477,-7.05783939361572,0.2577096,0.02247263,-0.0109677,1.39552,0.410592,-7.095458,0.3070711
"1.73 sec",0.08585002,-0.1485363,1.658271,0.09680676,1.04954421520233,0.301629513502121,-7.05883264541626,0.2586677,-0.01009058,0.007240893,1.39552,0.410592,-7.095458,0.3070711
"1.74 sec",0.09544235,-0.1657344,1.489641,0.09493691,1.05819141864777,0.304607421159744,-7.05980777740479,0.2596026,-0.0445012,0.02666914,1.39552,0.410592,-7.095458,0.3070711
"1.75 sec",0.05930159,-0.1524397,1.524368,0.09310031,1.06686651706696,0.307614207267761,-7.06058979034424,0.2605209,-0.07755164,0.04539606,1.39552,0.410592,-7.095458,0.3070711
"1.76 sec",-0.04014357,0.1360424,1.659255,0.09126967,1.0755889415741,0.310668498277664,-7.06114101409912,0.2614362,-0.1035287,0.05679935,1.39552,0.410592,-7.095458,0.3070711
"1.77 sec",-0.07793628,0.1358497,1.814718,0.08946472,1.08437633514404,0.313785463571548,-7.06150054931641,0.2623387,-0.08757908,0.04926585,1.39552,0.410592,-7.095458,0.3070711
"1.78 sec",-0.07342833,0.1281671,1.923114,0.08779144,1.09322357177734,0.316961199045181,-7.0617413520813,0.2631753,-0.03894345,0.02510702,1.39552,0.410592,-7.095458,0.3070711
"1.79 sec",-0.07100968,0.1241426,1.9857,0.08617032,1.10209941864014,0.320168524980545,-7.06193256378174,0.2639859,0.009463591,-0.001969691,1.39552,0.410592,-7.095458,0.3070711
"1.8 sec",0.05069253,-0.08860619,2.776444,0.102545,1.11096751689911,0.323372036218643,-7.06211948394775,0.264804,0.04726759,-0.02406418,1.481815,0.4446541,-7.101587,0.3160765
"1.81 sec",0.05060318,-0.08865716,2.776445,0.100526,1.11979115009308,0.32653534412384,-7.06250381469727,0.2658135,0.04928759,-0.0259416,1.481815,0.4446541,-7.101587,0.3160765
"1.82 sec",0.0586197,-0.1030152,2.392963,0.09855121,1.12856078147888,0.329648494720459,-7.06329345703125,0.2668009,0.02296894,-0.01158259,1.481815,0.4446541,-7.101587,0.3160765
"1.83 sec",0.08268244,-0.1460523,1.69466,0.09663498,1.13730525970459,0.332738965749741,-7.06439876556396,0.267759,-0.008712961,0.005947401,1.481815,0.4446541,-7.101587,0.3160765
"1.84 sec",0.09843842,-0.1746974,1.421751,0.09476316,1.14605534076691,0.335836380720139,-7.06555366516113,0.2686949,-0.04202102,0.02448391,1.481815,0.4446541,-7.101587,0.3160765
"1.85 sec",0.05582552,-0.1624073,1.420974,0.09293222,1.15483140945435,0.338960409164429,-7.06650924682617,0.2696104,-0.07606022,0.04345819,1.481815,0.4446541,-7.101587,0.3160765
"1.86 sec",-0.05041451,0.147137,1.567049,0.09110892,1.16365110874176,0.34212800860405,-7.06719160079956,0.2705221,-0.1045046,0.05514922,1.481815,0.4446541,-7.101587,0.3160765
"1.87 sec",-0.07962064,0.1417969,1.748353,0.08931029,1.172532081604,0.345353841781616,-7.06763362884521,0.2714214,-0.08862673,0.04655792,1.481815,0.4446541,-7.101587,0.3160765
"1.88 sec",-0.07367982,0.1313694,1.886256,0.08764863,1.18147087097168,0.348634272813797,-7.06791734695435,0.2722522,-0.0382405,0.0215964,1.481815,0.4446541,-7.101587,0.3160765
"1.89 sec",-0.07035972,0.1256361,1.972274,0.08603281,1.19043743610382,0.351942360401154,-7.06812524795532,0.2730601,0.01141644,-0.005205505,1.481815,0.4446541,-7.101587,0.3160765
"1.9 sec",-0.08894999,-0.05008571,2.776445,-0.1078646,1.19939529895782,0.355243116617203,-7.0683159828186,0.2738777,0.04965444,-0.0265271,1.580182,0.4403725,-7.107677,0.2199454
"1.91 sec",-0.08890053,-0.05017363,2.776445,-0.1058902,1.20830726623535,0.358497619628906,-7.06870079040527,0.2728905,0.05593925,-0.04389998,1.580182,0.4403725,-7.107677,0.2199454
"1.92 sec",-0.1027967,-0.05821886,2.400773,-0.1037969,1.21716356277466,0.361673682928085,-7.06948900222778,0.2718439,0.03716557,-0.05809266,1.580182,0.4403725,-7.107677,0.2199454
"1.93 sec",-0.1447043,-0.08248305,1.707455,-0.1017484,1.2259932756424,0.364764660596848,-7.07059192657471,0.2708196,0.01331426,-0.07012935,1.580182,0.4403725,-7.107677,0.2199454
"1.94 sec",-0.172444,-0.0988664,1.434083,-0.09974793,1.23482775688171,0.367782086133957,-7.07174730300903,0.2698194,-0.01091949,-0.08512309,1.580182,0.4403725,-7.107677,0.2199454
"1.95 sec",-0.1718987,-0.09877137,1.437792,-0.09779748,1.24368786811829,0.370737046003342,-7.07270765304565,0.2688442,-0.03436292,-0.1046509,1.580182,0.4403725,-7.107677,0.2199454
"1.96 sec",-0.1423173,-0.03496483,1.567166,-0.09587964,1.25259125232697,0.373626202344894,-7.07340097427368,0.2678852,-0.05426314,-0.1239078,1.580182,0.4403725,-7.107677,0.2199454
"1.97 sec",-0.08011314,0.1411892,1.751429,-0.09397224,1.26155734062195,0.376436829566956,-7.07385540008545,0.2669315,-0.0617324,-0.1358334,1.580182,0.4403725,-7.107677,0.2199454
"1.98 sec",-0.07420338,0.1303865,1.893731,-0.09210017,1.2705991268158,0.37915301322937,-7.07414770126343,0.2659955,-0.03831855,-0.1335763,1.580182,0.4403725,-7.107677,0.2199454
"1.99 sec",-0.07093941,0.1243403,1.983814,-0.090305,1.27970433235168,0.381761729717255,-7.07435989379883,0.2650979,0.002784223,-0.1217664,1.580182,0.4403725,-7.107677,0.2199454
"2 sec",0.0627081,-0.1095858,2.247245,-0.1157359,1.2888377904892,0.384256482124329,-7.07455158233643,0.2642196,0.03981186,-0.1084361,1.671261,0.4643097,-7.108289,0.2063516
"2.01 sec",0.06756871,-0.1178292,2.089968,-0.1134451,1.29796326160431,0.386632710695267,-7.07481002807617,0.2630741,0.04062537,-0.08140267,1.671261,0.4643097,-7.108289,0.2063516
"2.02 sec",0.07156426,-0.1245104,1.977547,-0.1110626,1.30707144737244,0.388913214206696,-7.07516956329346,0.2618829,0.01059991,-0.04426788,1.671261,0.4643097,-7.108289,0.2063516
"2.03 sec",0.0738949,-0.1282523,1.919176,-0.1087152,1.31618118286133,0.391146779060364,-7.07556486129761,0.2607092,-0.02459099,-0.01037435,1.671261,0.4643097,-7.108289,0.2063516
"2.04 sec",0.07466749,-0.129266,1.903069,-0.1064507,1.32531630992889,0.393375903367996,-7.07595348358154,0.2595769,-0.05548361,0.01649345,1.671261,0.4643097,-7.108289,0.2063516
"2.05 sec",-0.003046121,-0.1081084,1.903104,-0.1042686,1.33449816703796,0.395633101463318,-7.07631492614746,0.2584859,-0.07942178,0.03619915,1.671261,0.4643097,-7.108289,0.2063516
"2.06 sec",-0.03370896,0.1162508,1.931951,-0.1021701,1.34374368190765,0.397941440343857,-7.07664394378662,0.2574367,-0.09414156,0.04082221,1.671261,0.4643097,-7.108289,0.2063516
"2.07 sec",-0.07287233,0.1252081,1.960519,-0.1001025,1.3530638217926,0.400308549404144,-7.07694530487061,0.2564028,-0.07533,0.03012546,1.671261,0.4643097,-7.108289,0.2063516
"2.08 sec",-0.07267585,0.1245664,1.969331,-0.09800801,1.36244559288025,0.402721226215363,-7.07723569869995,0.2553556,-0.03101555,0.009766277,1.671261,0.4643097,-7.108289,0.2063516
"2.09 sec",-0.07273313,0.1243693,1.971249,-0.09594265,1.37185442447662,0.405150771141052,-7.0775260925293,0.2543229,0.01321244,-0.01270496,1.671261,0.4643097,-7.108289,0.2063516
"2.1 sec",0.05170479,-0.08802035,2.776444,-0.1083551,1.38125443458557,0.40756544470787,-7.07782077789307,0.2533271,0.04870187,-0.03145294,1.763775,0.4847676,-7.116706,0.1991496
"2.11 sec",0.05180004,-0.08796443,2.776445,-0.1061873,1.39061009883881,0.409931808710098,-7.07830905914307,0.2522432,0.04979607,-0.03088167,1.763775,0.4847676,-7.116706,0.1991496
"2.12 sec",0.05194654,-0.08799554,2.773708,-0.1040181,1.39991211891174,0.412241816520691,-7.07920217514038,0.2511586,0.02322937,-0.01455534,1.763775,0.4847676,-7.116706,0.1991496
"2.13 sec",0.08290837,-0.1405789,1.742229,-0.1018796,1.40918827056885,0.414524495601654,-7.08050155639648,0.2500893,-0.006756528,0.003519909,1.763775,0.4847676,-7.116706,0.1991496
"2.14 sec",0.1121803,-0.1906483,1.291125,-0.09978014,1.41846895217896,0.41681095957756,-7.08196115493774,0.2490396,-0.03807552,0.02223532,1.763775,0.4847676,-7.116706,0.1991496
"2.15 sec",-0.02142446,-0.1634447,1.22728,-0.09770575,1.42777276039124,0.419120311737061,-7.08320379257202,0.2480024,-0.07366969,0.043361,1.763775,0.4847676,-7.116706,0.1991496
"2.16 sec",-0.07193945,0.1661021,1.405171,-0.09572729,1.43711459636688,0.421466290950775,-7.08409309387207,0.2470132,-0.1044283,0.04786329,1.763775,0.4847676,-7.116706,0.1991496
"2.17 sec",-0.08904619,0.1497202,1.633498,-0.09377491,1.4465126991272,0.423857420682907,-7.08465385437012,0.246037,-0.08716449,0.02985861,1.763775,0.4847676,-7.116706,0.1991496
"2.18 sec",-0.07988408,0.1338373,1.823455,-0.0917508,1.45596671104431,0.426284819841385,-7.0849871635437,0.245025,-0.03423715,0.00239734,1.763775,0.4847676,-7.116706,0.1991496
"2.19 sec",-0.07479732,0.1249545,1.950407,-0.08977884,1.46544814109802,0.428721010684967,-7.08520030975342,0.244039,0.01631342,-0.02295469,1.763775,0.4847676,-7.116706,0.1991496
"2.2 sec",0.05260089,-0.08748869,2.776445,-0.1094177,1.47492051124573,0.431132972240448,-7.085373878479,0.2431026,0.0539656,-0.04140915,1.858065,0.5041813,-7.126099,0.1883938
"2.21 sec",0.05269618,-0.08743142,2.776445,-0.1072358,1.48434507846832,0.433484762907028,-7.08573484420776,0.2420117,0.05481426,-0.0388606,1.858065,0.5041813,-7.126099,0.1883938
"2.22 sec",0.05279212,-0.08737361,2.776445,-0.1050377,1.49371147155762,0.435768455266953,-7.08650016784668,0.2409126,0.02729638,-0.02018653,1.858065,0.5041813,-7.126099,0.1883938
"2.23 sec",0.07232919,-0.119647,2.030943,-0.1028705,1.50304806232452,0.438016027212143,-7.08767175674438,0.239829,-0.003664175,-0.0001125683,1.858065,0.5041813,-7.126099,0.1883938
"2.24 sec",0.0504875,-0.160217,1.399842,-0.100753,1.5123872756958,0.440262824296951,-7.0890736579895,0.2387703,-0.03340337,0.01876833,1.858065,0.5041813,-7.126099,0.1883938
"2.25 sec",-0.08873025,-0.1459201,1.237423,-0.09869093,1.52174973487854,0.442530602216721,-7.09035921096802,0.2377392,-0.06422538,0.03259489,1.858065,0.5041813,-7.126099,0.1883938
"2.26 sec",-0.1085877,0.1793143,1.361113,-0.0967316,1.53114807605743,0.444827795028687,-7.09132385253906,0.2367596,-0.0909079,0.02420203,1.858065,0.5041813,-7.126099,0.1883938
"2.27 sec",-0.09455229,0.1554332,1.564951,-0.0947468,1.54059755802155,0.447152227163315,-7.09195280075073,0.2357672,-0.07210118,-0.002779967,1.858065,0.5041813,-7.126099,0.1883938
"2.28 sec",-0.08393694,0.1374588,1.765248,-0.09270361,1.55009615421295,0.449485927820206,-7.09232807159424,0.2347456,-0.01993065,-0.03019769,1.858065,0.5041813,-7.126099,0.1883938
"2.29 sec",-0.07753102,0.1265852,1.913818,-0.09074453,1.55961608886719,0.451799124479294,-7.09255170822144,0.233766,0.02846422,-0.0500868,1.858065,0.5041813,-7.126099,0.1883938
"2.3 sec",0.05349535,-0.08694552,2.776444,-0.1115929,1.56912171840668,0.454062104225159,-7.09271049499512,0.2328342,0.06355065,-0.06217802,1.95272,0.522692,-7.13672,0.1770377
"2.31 sec",0.05359185,-0.08688617,2.776445,-0.1093693,1.57857429981232,0.456240296363831,-7.09304523468018,0.2317224,0.06192354,-0.05369895,1.95272,0.522692,-7.13672,0.1770377
"2.32 sec",0.05368985,-0.08682574,2.776445,-0.10711,1.58796310424805,0.458328545093536,-7.09378290176392,0.2305927,0.03235604,-0.03010864,1.95272,0.522692,-7.13672,0.1770377
"2.33 sec",0.06733068,-0.108753,2.218534,-0.1048856,1.59731793403625,0.460365861654282,-7.09492588043213,0.2294805,-0.0001212793,-0.006393445,1.95272,0.522692,-7.13672,0.1770377
"2.34 sec",0.07051308,-0.1592712,1.447766,-0.1027219,1.6066734790802,0.46239373087883,-7.09634351730347,0.2283987,-0.02971109,0.01433648,1.95272,0.522692,-7.13672,0.1770377
"2.35 sec",-0.05363799,-0.1599725,1.197226,-0.100611,1.61605143547058,0.464438885450363,-7.09770631790161,0.2273432,-0.06023665,0.03154253,1.95272,0.522692,-7.13672,0.1770377
"2.36 sec",-0.09544032,0.182763,1.290982,-0.09859538,1.62546324729919,0.466511934995651,-7.09875059127808,0.2263354,-0.08916451,0.03008061,1.95272,0.522692,-7.13672,0.1770377
"2.37 sec",-0.1000901,0.1608495,1.503744,-0.09658265,1.63492238521576,0.468613892793655,-7.09943294525146,0.2253291,-0.07210103,0.008410519,1.95272,0.522692,-7.13672,0.1770377
"2.38 sec",-0.08751243,0.140055,1.722043,-0.09450221,1.64442658424377,0.470731407403946,-7.09982824325562,0.2242888,-0.01956955,-0.01915061,1.95272,0.522692,-7.13672,0.1770377
"2.39 sec",-0.0798008,0.1273012,1.891069,-0.09249026,1.65394902229309,0.472837179899216,-7.10004568099976,0.2232829,0.02959517,-0.04209646,1.95272,0.522692,-7.13672,0.1770377
"2.4 sec",0.05440476,-0.08638027,2.776444,0.09912318,1.66345429420471,0.474900513887405,-7.100182056427,0.2223275,0.06498659,-0.0572504,2.03849,0.5794578,-7.147198,0.2718891
"2.41 sec",0.0543283,-0.08642829,2.776445,0.09735125,1.67290306091309,0.476885080337524,-7.10048866271973,0.2232135,0.06329229,-0.05076076,2.03849,0.5794578,-7.147198,0.2718891
"2.42 sec",0.05424707,-0.08647922,2.776444,0.09546968,1.68228435516357,0.478783935308456,-7.10119819641113,0.2241542,0.03351208,-0.02823163,2.03849,0.5794578,-7.147198,0.2718891
"2.43 sec",0.06806653,-0.1088716,2.210143,0.09363681,1.69162940979004,0.480634331703186,-7.10231304168701,0.2250707,0.000791057,-0.00512889,2.03849,0.5794578,-7.147198,0.2718891
"2.44 sec",0.1029676,-0.1657892,1.460353,0.09182534,1.7009733915329,0.482476592063904,-7.10370111465454,0.2259764,-0.0290643,0.01525712,2.03849,0.5794578,-7.147198,0.2718891
"2.45 sec",0.1463515,-0.1040767,1.21058,0.09005323,1.71033918857574,0.484337151050568,-7.10503435134888,0.2268625,-0.06058912,0.03598124,2.03849,0.5794578,-7.147198,0.2718891
"2.46 sec",0.1848231,0.1168708,1.305908,0.08830956,1.7197380065918,0.486229866743088,-7.10605573654175,0.2277343,-0.08378067,0.06058014,2.03849,0.5794578,-7.147198,0.2718891
"2.47 sec",0.1593985,0.1002338,1.512844,0.08650431,1.72917711734772,0.488171428442001,-7.1067214012146,0.2286369,-0.06925155,0.08947566,2.03849,0.5794578,-7.147198,0.2718891
"2.48 sec",0.1390862,0.08706867,1.733014,0.08467364,1.73864734172821,0.490184813737869,-7.10710334777832,0.2295523,-0.03032171,0.1141238,2.03849,0.5794578,-7.147198,0.2718891
"2.49 sec",0.1265368,0.07895174,1.904863,0.08292243,1.74811995029449,0.492292940616608,-7.10730743408203,0.2304279,0.005761025,0.1282846,2.03849,0.5794578,-7.147198,0.2718891
"2.5 sec",0.1247737,-0.2041035,1.195928,0.1179337,1.75756144523621,0.494512408971786,-7.10743045806885,0.2312659,0.03193026,0.1333579,2.132218,0.6064098,-7.137524,0.2902327
"2.51 sec",0.124538,-0.204246,1.195928,0.1156094,1.76695871353149,0.496828109025955,-7.10734891891479,0.232428,0.01630184,0.1334018,2.132218,0.6064098,-7.137524,0.2902327
"2.52 sec",0.1243024,-0.2043883,1.195928,0.1132866,1.77632963657379,0.499219238758087,-7.10687923431396,0.2335894,-0.03163474,0.1316766,2.132218,0.6064098,-7.137524,0.2902327
"2.53 sec",0.06903235,-0.1128439,2.145622,0.1110081,1.78570055961609,0.501691102981567,-7.1060209274292,0.2347287,-0.0802952,0.1296826,2.132218,0.6064098,-7.137524,0.2902327
"2.54 sec",0.05454872,-0.08926857,2.70955,0.1087642,1.79511225223541,0.504281401634216,-7.10499572753906,0.2358506,-0.1090247,0.1215416,2.132218,0.6064098,-7.137524,0.2902327
"2.55 sec",0.0310259,-0.08182924,2.772608,0.1065756,1.80461549758911,0.507042944431305,-7.10417985916138,0.2369449,-0.1159638,0.1070431,2.132218,0.6064098,-7.137524,0.2902327
"2.56 sec",-0.05531945,0.09097727,2.662417,0.1044485,1.8142364025116,0.509982943534851,-7.10373592376709,0.2380085,-0.1120335,0.0895357,2.132218,0.6064098,-7.137524,0.2902327
"2.57 sec",-0.06100131,0.1006027,2.4107,0.1024311,1.8239734172821,0.513075172901154,-7.10365772247314,0.2390171,-0.08477316,0.06263304,2.132218,0.6064098,-7.137524,0.2902327
"2.58 sec",-0.06753626,0.1116948,2.174326,0.1005245,1.83379507064819,0.516270160675049,-7.10386228561401,0.2399704,-0.0408151,0.03062997,2.132218,0.6064098,-7.137524,0.2902327
"2.59 sec",-0.07311053,0.121248,2.005687,0.09863919,1.84365463256836,0.519511580467224,-7.1042332649231,0.2409131,0.00180592,0.002056931,2.132218,0.6064098,-7.137524,0.2902327
"2.6 sec",0.05270971,-0.08742327,2.776445,0.1027715,1.85351276397705,0.522755801677704,-7.10467052459717,0.2418568,0.0376698,-0.02106447,2.227382,0.6356449,-7.140336,0.2932426
"2.61 sec",0.06579204,-0.1095087,2.221193,0.1007361,1.86333525180817,0.525966763496399,-7.10531139373779,0.2428745,0.04087114,-0.02377549,2.227382,0.6356449,-7.140336,0.2932426
"2.62 sec",0.08307809,-0.1388783,1.7569,0.09876081,1.87311708927155,0.529138326644897,-7.10622644424438,0.2438622,0.01422944,-0.008169847,2.227382,0.6356449,-7.140336,0.2932426
"2.63 sec",0.09208581,-0.154467,1.582955,0.09686106,1.88288652896881,0.532298147678375,-7.1071605682373,0.244812,-0.02166863,0.01312921,2.227382,0.6356449,-7.140336,0.2932426
"2.64 sec",-0.03526493,-0.121806,1.582796,0.09500104,1.8926705121994,0.535472571849823,-7.10795021057129,0.2457421,-0.05756984,0.03446615,2.227382,0.6356449,-7.140336,0.2932426
"2.65 sec",-0.1303723,-0.03294094,1.693572,0.093115,1.90249168872833,0.538682997226715,-7.10854911804199,0.2466851,-0.08388048,0.03753171,2.227382,0.6356449,-7.140336,0.2932426
"2.66 sec",-0.07956697,0.1340934,1.822776,0.09124136,1.91237080097198,0.541937649250031,-7.10898113250732,0.2476219,-0.08912621,0.01317804,2.227382,0.6356449,-7.140336,0.2932426
"2.67 sec",-0.07561362,0.1276219,1.915073,0.08949494,1.92232036590576,0.545221388339996,-7.10930633544922,0.2484951,-0.06031779,-0.01650365,2.227382,0.6356449,-7.140336,0.2932426
"2.68 sec",-0.07336324,0.1240295,1.970903,0.08780468,1.93232655525208,0.548504114151001,-7.10958194732666,0.2493402,-0.0141122,-0.03755242,2.227382,0.6356449,-7.140336,0.2932426
"2.69 sec",-0.07233585,0.1225154,1.995991,0.08610791,1.94235515594482,0.551755428314209,-7.1098461151123,0.2501886,0.02755206,-0.05125212,2.227382,0.6356449,-7.140336,0.2932426
"2.7 sec",0.05190605,-0.08790202,2.776445,0.09878331,1.95237052440643,0.554951369762421,-7.1101188659668,0.2510361,0.05920077,-0.05970584,2.324518,0.6702446,-7.154931,0.3004277
"2.71 sec",0.0518204,-0.08795246,2.776444,0.09683245,1.96233761310577,0.558063983917236,-7.11059045791626,0.2520115,0.0569203,-0.05033441,2.324518,0.6702446,-7.154931,0.3004277
"2.72 sec",0.05173815,-0.08800079,2.776445,0.09496033,1.97224831581116,0.561091423034668,-7.11146450042725,0.2529476,0.02790415,-0.02747871,2.324518,0.6702446,-7.154931,0.3004277
"2.73 sec",0.05308361,-0.09048907,2.70194,0.09313357,1.98213124275208,0.564072251319885,-7.11274528503418,0.253861,-0.003780735,-0.004907987,2.324518,0.6702446,-7.154931,0.3004277
"2.74 sec",0.09545384,-0.1639071,1.501855,0.09132028,1.99202024936676,0.56704705953598,-7.11441469192505,0.2547676,-0.03039906,0.0133287,2.324518,0.6702446,-7.154931,0.3004277
"2.75 sec",0.05904219,-0.1103316,1.171149,0.08954495,2.00193524360657,0.570041596889496,-7.11616897583008,0.2556553,-0.05898447,0.03170276,2.324518,0.6702446,-7.154931,0.3004277
"2.76 sec",-0.08331396,0.1976649,1.189201,0.08778858,2.01188230514526,0.57306569814682,-7.11761331558228,0.2565334,-0.08215104,0.04563928,2.324518,0.6702446,-7.154931,0.3004277
"2.77 sec",-0.1194373,0.2072424,1.195928,0.08606744,2.02186727523804,0.576126277446747,-7.11866474151611,0.257394,-0.05900451,0.03603023,2.324518,0.6702446,-7.154931,0.3004277
"2.78 sec",-0.1005789,0.1742202,1.4173,0.08452272,2.03187918663025,0.579215109348297,-7.11932945251465,0.2581664,-0.0005327357,0.005571331,2.324518,0.6702446,-7.154931,0.3004277
"2.79 sec",-0.08245847,0.1426836,1.725561,0.08301407,2.04188990592957,0.582306742668152,-7.11966371536255,0.2589207,0.05443065,-0.02611542,2.324518,0.6702446,-7.154931,0.3004277
"2.8 sec",0.05114299,-0.08834741,2.776445,0.1004488,2.05186486244202,0.585367679595947,-7.11979675292969,0.2597062,0.09128491,-0.0484342,2.421373,0.7037029,-7.176851,0.3099306
"2.81 sec",0.05105587,-0.0883977,2.776445,0.09847468,2.06175804138184,0.588352560997009,-7.12005567550659,0.2606933,0.08590218,-0.0464827,2.421373,0.7037029,-7.176851,0.3099306
"2.82 sec",0.05097193,-0.08844604,2.776445,0.09657359,2.07155537605286,0.591247200965881,-7.12071514129639,0.2616438,0.05017412,-0.02684993,2.421373,0.7037029,-7.176851,0.3099306
"2.83 sec",0.05089025,-0.08849299,2.776444,0.0947246,2.08129549026489,0.594088017940521,-7.1217794418335,0.2625683,0.01196288,-0.005570233,2.421373,0.7037029,-7.176851,0.3099306
"2.84 sec",0.05846653,-0.1019554,2.413144,0.0928871,2.09102082252502,0.596916437149048,-7.12325048446655,0.263487,-0.01956547,0.01206894,2.421373,0.7037029,-7.176851,0.3099306
"2.85 sec",0.1122844,-0.1965165,1.258978,0.09106392,2.10076522827148,0.599765360355377,-7.12504196166992,0.2643986,-0.04442328,0.02601769,2.421373,0.7037029,-7.176851,0.3099306
"2.86 sec",0.04643701,0.1640707,1.179089,0.08929157,2.11054182052612,0.602647066116333,-7.12678384780884,0.2652848,-0.07442153,0.04296482,2.421373,0.7037029,-7.176851,0.3099306
"2.87 sec",-0.1176257,0.2082659,1.195928,0.08750689,2.12035298347473,0.605564832687378,-7.12815380096436,0.2661771,-0.06563028,0.05411939,2.421373,0.7037029,-7.176851,0.3099306
"2.88 sec",-0.1174537,0.2083619,1.195928,0.08584422,2.13019180297852,0.60852175951004,-7.12913417816162,0.2670085,-0.01287444,0.03701264,2.421373,0.7037029,-7.176851,0.3099306
"2.89 sec",-0.1090607,0.1934942,1.285859,0.08434129,2.1400318145752,0.611501157283783,-7.12973070144653,0.2677599,0.04677577,0.001526266,2.421373,0.7037029,-7.176851,0.3099306
"2.9 sec",0.05036348,-0.0887933,2.776444,0.1023247,2.1498441696167,0.614473760128021,-7.12996482849121,0.2685186,0.09519861,-0.03181777,2.518013,0.7363505,-7.18821,0.3196809
"2.91 sec",0.05027479,-0.08884346,2.776444,0.1003248,2.15957403182983,0.617390334606171,-7.13020992279053,0.2695185,0.09661549,-0.03875065,2.518013,0.7363505,-7.18821,0.3196809
"2.92 sec",0.05018808,-0.08889239,2.776445,0.09837085,2.16919279098511,0.620222866535187,-7.13085460662842,0.2704955,0.06082815,-0.02354225,2.518013,0.7363505,-7.18821,0.3196809
"2.93 sec",0.06342477,-0.1127319,2.193884,0.09648108,2.17873907089233,0.623001873493195,-7.13190317153931,0.2714404,0.02043149,-0.004442412,2.518013,0.7363505,-7.18821,0.3196809
"2.94 sec",0.09558615,-0.1710291,1.454557,0.0946185,2.18826031684875,0.625767111778259,-7.13322019577026,0.2723717,-0.01628928,0.01369021,2.518013,0.7363505,-7.18821,0.3196809
"2.95 sec",0.1131006,-0.2034599,1.228068,0.09279609,2.19779109954834,0.628547012805939,-7.13447713851929,0.2732829,-0.05336149,0.03278565,2.518013,0.7363505,-7.18821,0.3196809
"2.96 sec",0.089134,0.1362552,1.295819,0.09101784,2.20734977722168,0.631357431411743,-7.13542604446411,0.274172,-0.09167764,0.05304443,2.518013,0.7363505,-7.18821,0.3196809
"2.97 sec",-0.06977031,0.1569357,1.525388,0.08919764,2.21695232391357,0.634214699268341,-7.13602066040039,0.2750821,-0.08589413,0.06830207,2.518013,0.7363505,-7.18821,0.3196809
"2.98 sec",-0.07882468,0.1418717,1.751779,0.0874567,2.22659754753113,0.637132167816162,-7.13633251190186,0.2759526,-0.03829145,0.05863608,2.518013,0.7363505,-7.18821,0.3196809
"2.99 sec",-0.07190881,0.1295503,1.917174,0.08585685,2.23625898361206,0.64010226726532,-7.13647747039795,0.2767525,0.01292425,0.02953218,2.518013,0.7363505,-7.18821,0.3196809
"3 sec",-0.2081562,-0.1178217,1.195928,-0.1051427,2.2459020614624,0.643094778060913,-7.13655614852905,0.2775502,0.05264017,0.0001175505,2.626083,0.7301003,-7.177632,0.2249788
"3.01 sec",-0.2080443,-0.1180211,1.195928,-0.1032405,2.25550937652588,0.64607834815979,-7.13644027709961,0.2765991,0.05121823,-0.03898403,2.626083,0.7301003,-7.177632,0.2249788
"3.02 sec",-0.2079315,-0.1182217,1.195928,-0.1013259,2.26509499549866,0.649031281471252,-7.13594007492065,0.2756418,0.01770672,-0.08415307,2.626083,0.7301003,-7.177632,0.2249788
"3.03 sec",-0.1225534,-0.06906419,2.018483,-0.09944502,2.27468419075012,0.651933431625366,-7.13505411148071,0.2747013,-0.01928757,-0.1223735,2.626083,0.7301003,-7.177632,0.2249788
"3.04 sec",-0.09192188,-0.05178729,2.686706,-0.09751138,2.28431582450867,0.654746174812317,-7.13397455215454,0.2737345,-0.04442399,-0.1410371,2.626083,0.7301003,-7.177632,0.2249788
"3.05 sec",-0.08889393,-0.05018534,2.776445,-0.09556022,2.29404020309448,0.657416105270386,-7.13306951522827,0.2727589,-0.05505593,-0.139665,2.626083,0.7301003,-7.177632,0.2249788
"3.06 sec",-0.05631487,0.07055378,2.735437,-0.09364441,2.30388641357422,0.659923851490021,-7.13253211975098,0.271801,-0.05753747,-0.1295551,2.626083,0.7301003,-7.177632,0.2249788
"3.07 sec",-0.05607248,0.09945635,2.483671,-0.09179112,2.31385397911072,0.662281095981598,-7.13237905502319,0.2708744,-0.04280707,-0.1146767,2.626083,0.7301003,-7.177632,0.2249788
"3.08 sec",-0.06253619,0.1107621,2.230768,-0.09000239,2.32391405105591,0.664508521556854,-7.13254261016846,0.26998,-0.01270205,-0.09863664,2.626083,0.7301003,-7.177632,0.2249788
"3.09 sec",-0.0683639,0.1209143,2.044032,-0.08824334,2.33402013778687,0.66662722826004,-7.13290119171143,0.2691005,0.01990533,-0.08609926,2.626083,0.7301003,-7.177632,0.2249788
"3.1 sec",0.1172011,-0.2085027,1.195928,-0.1129852,2.34413123130798,0.668651103973389,-7.13334560394287,0.2682293,0.04899419,-0.07828307,2.725736,0.7506804,-7.171335,0.2117367
"3.11 sec",0.1174375,-0.208371,1.195928,-0.1107002,2.35422492027283,0.670604288578033,-7.13362646102905,0.2670868,0.03375062,-0.0523083,2.725736,0.7506804,-7.171335,0.2117367
"3.12 sec",0.09860821,-0.173847,1.42636,-0.1082675,2.36430883407593,0.672523081302643,-7.13352298736572,0.2658705,-0.01827702,-0.01107126,2.725736,0.7506804,-7.171335,0.2117367
"3.13 sec",0.06506463,-0.1138582,2.164177,-0.1059119,2.3744068145752,0.674438655376434,-7.13309144973755,0.2646926,-0.06756397,0.02474082,2.725736,0.7506804,-7.171335,0.2117367
"3.14 sec",0.05673649,-0.09894673,2.486176,-0.1037172,2.38455748558044,0.676392018795013,-7.13256406784058,0.2635953,-0.09666925,0.04648071,2.725736,0.7506804,-7.171335,0.2117367
"3.15 sec",0.02267686,-0.04889538,2.503037,-0.1016275,2.39480113983154,0.678425371646881,-7.1322078704834,0.2625504,-0.1073452,0.05593596,2.725736,0.7506804,-7.171335,0.2117367
"3.16 sec",-0.01310292,0.09011836,2.394039,-0.09959123,2.40515422821045,0.680559158325195,-7.13210868835449,0.2615323,-0.1031986,0.05507351,2.725736,0.7506804,-7.171335,0.2117367
"3.17 sec",-0.06338786,0.1098349,2.237488,-0.09756681,2.41560935974121,0.682789087295532,-7.13224601745605,0.2605201,-0.07511558,0.04430855,2.725736,0.7506804,-7.171335,0.2117367
"3.18 sec",-0.06808939,0.1177639,2.086877,-0.09552506,2.42613458633423,0.685090124607086,-7.13255739212036,0.2594992,-0.03180741,0.02388779,2.725736,0.7506804,-7.171335,0.2117367
"3.19 sec",-0.07182622,0.1239917,1.981914,-0.09350833,2.43668723106384,0.687425196170807,-7.13296985626221,0.2584909,0.01025673,-7.657301e-05,2.725736,0.7506804,-7.171335,0.2117367
"3.2 sec",0.07737822,-0.1333675,1.843045,-0.1072803,2.44723081588745,0.68975818157196,-7.13341999053955,0.2575158,0.04506818,-0.0212869,2.829498,0.7687913,-7.171103,0.2038757
"3.21 sec",0.07562187,-0.129988,1.889241,-0.1051309,2.45774054527283,0.692063570022583,-7.13384580612183,0.2564412,0.04135003,-0.02040575,2.829498,0.7687913,-7.171103,0.2038757
"3.22 sec",0.074107,-0.1270414,1.931367,-0.1029594,2.46821999549866,0.694342613220215,-7.13422250747681,0.2553554,0.006464866,-0.001226336,2.829498,0.7687913,-7.171103,0.2038757
"3.23 sec",0.07317024,-0.1251123,1.959622,-0.1008177,2.47869396209717,0.696619272232056,-7.13457250595093,0.2542846,-0.03069689,0.01960338,2.829498,0.7687913,-7.171103,0.2038757
"3.24 sec",0.0203815,-0.1105243,1.967481,-0.09874436,2.48919129371643,0.69892144203186,-7.13491296768188,0.2532479,-0.06085286,0.03665864,2.829498,0.7687913,-7.171103,0.2038757
"3.25 sec",-0.04826361,0.01583051,1.96847,-0.09675077,2.49973702430725,0.701272189617157,-7.13525199890137,0.2522511,-0.08109029,0.0429785,2.829498,0.7687913,-7.171103,0.2038757
"3.26 sec",-0.07224882,0.1226732,1.994713,-0.09480754,2.51034784317017,0.703681945800781,-7.13558959960938,0.2512795,-0.07842966,0.03254521,2.829498,0.7687913,-7.171103,0.2038757
"3.27 sec",-0.07267518,0.1231255,1.986327,-0.09284094,2.52102327346802,0.706140577793121,-7.13593339920044,0.2502962,-0.04675661,0.01072303,2.829498,0.7687913,-7.171103,0.2038757
"3.28 sec",-0.07322479,0.1237865,1.974704,-0.09088013,2.53174066543579,0.708620846271515,-7.13629055023193,0.2493158,-0.003757741,-0.0123306,2.829498,0.7687913,-7.171103,0.2038757
"3.29 sec",-0.07367245,0.12428,1.965858,-0.08898365,2.54246473312378,0.711090683937073,-7.13665676116943,0.2483675,0.03448275,-0.03138247,2.829498,0.7687913,-7.171103,0.2038757
"3.3 sec",0.05222016,-0.0877161,2.776445,-0.1099532,2.55316424369812,0.713522851467133,-7.13702583312988,0.2474543,0.06388412,-0.04556886,2.935603,0.7880565,-7.181523,0.1924777
"3.31 sec",0.05231608,-0.08765902,2.776445,-0.1077627,2.5638062953949,0.715886831283569,-7.13758611679077,0.2463591,0.06014812,-0.04082936,2.935603,0.7880565,-7.181523,0.1924777
"3.32 sec",0.05241306,-0.08760116,2.776445,-0.1055462,2.57438373565674,0.718177855014801,-7.1385498046875,0.2452509,0.03011721,-0.02116354,2.935603,0.7880565,-7.181523,0.1924777
"3.33 sec",0.07230123,-0.1207822,2.017212,-0.1033643,2.5849277973175,0.720430254936218,-7.13991975784302,0.2441599,-0.002220874,-0.000664691,2.935603,0.7880565,-7.181523,0.1924777
"3.34 sec",0.03107446,-0.1638027,1.326952,-0.1012346,2.59547281265259,0.722680747509003,-7.14151620864868,0.2430951,-0.03282087,0.01842352,2.935603,0.7880565,-7.181523,0.1924777
"3.35 sec",-0.09143172,-0.06101053,1.169049,-0.09916803,2.60604000091553,0.724951088428497,-7.1429762840271,0.2420618,-0.06453232,0.03011898,2.935603,0.7880565,-7.181523,0.1924777
