Time,desired yaw,desired x,desired y,desired z,WorldPosition_1,WorldPosition_2,WorldPosition_3,WorldVelocity_1,WorldVelocity_2,WorldVelocity_3,EulerZYX_1,EulerZYX_2,EulerZYX_3,BodyAngularRateRPY_1,BodyAngularRateRPY_2,BodyAngularRateRPY_3,Thrust,Roll CS,Pitch CS,Yaw CS,Thrust CS
"0 sec",0.9948376,0.2132964,0.3284477,-6.979475,0,0,-7,0,0,0,0,0,0,0,0,0,0,0.04128778,-0.149263,0.1450403,0.5874674
"0.01 sec",0.9948376,0.2132964,0.3284477,-6.979475,9.905976e-08,2.745875e-08,-6.999537,3.745493e-05,1.038894e-05,0.09237617,0.001371371,-0.01738349,0.004801387,0.7849733,-2.834152,0.1575464,0.5874444,0.1198364,-0.1472002,0.2732006,2.59472
"0.02 sec",0.9948376,0.2132964,0.3284477,-6.979475,3.93902e-06,1.329208e-06,-6.998248,0.0008737069,0.0003315993,0.1650607,0.004010779,-0.04833421,0.02254132,2.376027,-3.120313,0.339566,2.594476,0.1464444,-0.1374127,0.2732373,4.604374
"0.03 sec",0.9948376,0.2132964,0.3284477,-6.979475,2.577874e-05,1.179316e-05,-6.996331,0.003729081,0.001988668,0.217755,0.006703982,-0.07618262,0.0501451,2.921492,-2.406327,0.3899105,4.604004,0.1317955,-0.06667729,0.3114111,7.925486
"0.04 sec",0.9948376,0.2132964,0.3284477,-6.979475,9.467547e-05,5.497903e-05,-6.99405,0.01026389,0.007033509,0.2378902,0.00978004,-0.08862358,0.07583711,2.251971,-0.3625185,0.3381076,7.924864,0.1075145,-0.07440847,0.377523,11.81708
"0.05 sec",0.9948376,0.2132964,0.3284477,-6.979475,0.0002484266,0.000173616,-6.991757,0.02056517,0.01708708,0.2197061,0.01352036,-0.08915047,0.09193821,1.152381,0.2106201,0.3582926,11.81683,0.09258157,-0.06743839,0.3959402,13.34649
"0.06 sec",0.9948376,0.2132964,0.3284477,-6.979475,0.0005113303,0.0004081338,-6.989727,0.03195742,0.02999464,0.1858519,0.01747131,-0.08564527,0.09825974,0.3069551,0.4887562,0.3482821,13.34572,0.07845042,-0.05391861,0.4135611,13.58303
"0.07 sec",0.9948376,0.2132964,0.3284477,-6.979475,0.0008861525,0.0007758618,-6.988051,0.04286164,0.04354143,0.1493006,0.02159756,-0.07942708,0.09748521,-0.2783256,0.7446942,0.3412772,13.58164,0.06637555,0.02134242,0.4305851,13.57697
"0.08 sec",0.9948376,0.2132964,0.3284477,-6.979475,0.001364139,0.001277501,-6.986742,0.05236969,0.05666217,0.112602,0.02589023,-0.06373481,0.09214871,-0.6311931,2.110174,0.2358208,13.5777,0.05813229,0.05021228,0.4507306,13.54569
"0.09 sec",0.9948376,0.2132964,0.3284477,-6.979475,0.001923877,0.001905829,-6.985798,0.05900968,0.06881952,0.07595127,0.03037737,-0.03885005,0.08455307,-0.7746812,2.6777,0.2239497,13.54671,0.04961357,0.04252241,0.4602101,13.38703
"0.1 sec",1.030838,0.2041075,0.3389588,-6.977599,0.002532481,0.002649352,-6.985216,0.06216779,0.07967748,0.04062276,0.03496387,-0.01457774,0.07610525,-0.8346208,2.191992,0.2933902,13.3896,0.04154979,0.02734884,0.4749432,12.70071
"0.11 sec",1.030838,0.2041075,0.3389588,-6.977599,0.003157669,0.003492868,-6.984954,0.06251113,0.08881551,0.01187039,0.03969797,0.002390669,0.06741624,-0.8486677,1.330438,0.3856082,12.70164,0.03585774,0.03673428,0.4901602,11.30956
"0.12 sec",1.030838,0.2041075,0.3389588,-6.977599,0.003777625,0.004417565,-6.984912,0.06127091,0.09593304,-0.003250645,0.04458684,0.01366649,0.05903118,-0.8000997,0.9842482,0.4324033,11.31044,0.02196541,-0.00097611,0.4938926,9.875789
"0.13 sec",1.030838,0.2041075,0.3389588,-6.977599,0.004381242,0.005404453,-6.984951,0.05940351,0.1012755,-0.004114076,0.04952206,0.01731638,0.05029559,-0.8961991,-0.02822004,0.4958744,9.876668,0.0209757,-0.03795972,0.4984733,9.491323
"0.14 sec",1.030838,0.2041075,0.3389588,-6.977599,0.004966565,0.006439327,-6.984977,0.05777578,0.1055666,-0.0009145812,0.05450705,0.01059768,0.04191894,-0.7705616,-1.037885,0.5428246,9.491882,0.02524967,-0.04643165,0.5033296,9.30878
"0.15 sec",1.030838,0.2041075,0.3389588,-6.977599,0.005540195,0.007513245,-6.984961,0.05714929,0.1091296,0.00412279,0.05954186,-0.001945553,0.03568649,-0.4970766,-1.30886,0.5507255,9.312957,0.03824234,-0.04660782,0.5355898,9.225886
"0.16 sec",1.030838,0.2041075,0.3389588,-6.977599,0.006113607,0.008620604,-6.98489,0.05772648,0.1123167,0.009999196,0.06488304,-0.01454968,0.03318132,-0.06318444,-1.137788,0.5736505,9.226315,0.05896004,-0.04785284,0.5815858,9.30382
"0.17 sec",1.030838,0.2041075,0.3389588,-6.977599,0.006698272,0.009759915,-6.984765,0.0593605,0.1156004,0.01515354,0.07067419,-0.02488346,0.03576621,0.4842724,-0.8808947,0.6130896,9.303396,0.08245844,-0.04933088,0.62315,9.488189
"0.18 sec",1.030838,0.2041075,0.3389588,-6.977599,0.007303653,0.01093483,-6.984596,0.06182737,0.1195254,0.01853188,0.0768813,-0.03278085,0.04380835,1.013761,-0.6490945,0.6515266,9.484109,0.09933976,-0.05044698,0.6514001,9.684502
"0.19 sec",1.030838,0.2041075,0.3389588,-6.977599,0.007936909,0.01215434,-6.984403,0.06489795,0.1245847,0.02001898,0.08337729,-0.03864179,0.05580541,1.308705,-0.4602745,0.677314,9.680214,0.1028777,-0.05104081,0.6585687,9.84987
"0.2 sec",0.981662,0.2264227,0.3393611,-6.973299,0.008603018,0.01343132,-6.984203,0.06836876,0.1310303,0.01993647,0.08995655,-0.04288965,0.06844031,1.219149,-0.3098613,0.6805285,9.847476,0.09279779,-0.051107,0.6547552,9.788308
"0.21 sec",0.981662,0.2264227,0.3393611,-6.973299,0.009304837,0.01477866,-6.984001,0.07201958,0.1385974,0.02050003,0.09650458,-0.04585386,0.07791587,0.7684615,-0.1903738,0.6708281,9.789122,0.08235916,-0.05090212,0.644756,9.808144
"0.22 sec",0.981662,0.2264227,0.3393611,-6.973299,0.01004383,0.01620581,-6.983794,0.07579345,0.1469141,0.02094868,0.1029568,-0.04780382,0.08254965,0.2862302,-0.09998117,0.6544727,9.804043,0.07201272,-0.0505207,0.6314427,9.845651
"0.23 sec",0.981662,0.2264227,0.3393611,-6.973299,0.01082101,0.01771798,-6.983583,0.07965359,0.1555304,0.02105649,0.109278,-0.04897888,0.08274523,-0.1101784,-0.03479653,0.635744,9.84505,0.06178194,-0.0500243,0.6180076,9.874585
"0.24 sec",0.981662,0.2264227,0.3393611,-6.973299,0.01163712,0.01931612,-6.983374,0.08357503,0.1640492,0.02086216,0.1154651,-0.04958128,0.07951528,-0.400451,0.01024205,0.6183981,9.865061,0.05216294,-0.04950297,0.6069617,9.872871
"0.25 sec",0.981662,0.2264227,0.3393611,-6.973299,0.01249264,0.02099759,-6.983166,0.08753555,0.1721561,0.02064824,0.1215404,-0.04977816,0.07392404,-0.5894886,0.0391878,0.60497,9.870983,0.04391573,-0.0490558,0.6000371,9.855371
"0.26 sec",0.981662,0.2264227,0.3393611,-6.973299,0.01338791,0.02275719,-6.98296,0.09152545,0.1796543,0.02055825,0.1275443,-0.04971124,0.06697164,-0.6840725,0.05484438,0.5969583,9.858716,0.03788051,-0.04876994,0.5979843,9.828797
"0.27 sec",0.981662,0.2264227,0.3393611,-6.973299,0.01432322,0.0245883,-6.982754,0.0955403,0.1864512,0.02068267,0.1335251,-0.04950411,0.05960074,-0.688738,0.0592972,0.5947666,9.83793,0.03480319,-0.04843791,0.6004686,9.80584
"0.28 sec",0.981662,0.2264227,0.3393611,-6.973299,0.01529879,0.02648388,-6.982546,0.09957955,0.1925546,0.02099232,0.1395285,-0.04923296,0.05270519,-0.6082562,0.05960211,0.5974209,9.81593,0.03486944,-0.04875605,0.6062838,9.792391
"0.29 sec",0.981662,0.2264227,0.3393611,-6.973299,0.01631487,0.02843738,-6.982334,0.1036407,0.1980584,0.02140312,0.1455882,-0.04900882,0.04706962,-0.457206,0.04589589,0.6040605,9.798078,0.03776057,-0.04902409,0.6139089,9.792345
"0.3 sec",1.042682,0.2149723,0.3691563,-6.977401,0.01737167,0.03044358,-6.982118,0.1077218,0.2031244,0.02179495,0.1517234,-0.04890487,0.04326877,-0.2599373,0.03150396,0.6123845,9.793788,0.04447578,-0.04930756,0.6294346,9.931979
"0.31 sec",1.042682,0.2149723,0.3691563,-6.977401,0.01846961,0.03249941,-6.981905,0.1118649,0.2080233,0.02081785,0.1580098,-0.0489201,0.04179134,-0.01372296,0.02020635,0.6283863,9.930912,0.05025954,-0.04981068,0.6426333,9.976607
"0.32 sec",1.042682,0.2149723,0.3691563,-6.977401,0.019609,0.03460414,-6.981703,0.1160089,0.2129408,0.01937085,0.1644293,-0.04905873,0.04252885,0.1819193,0.00864426,0.6420721,9.975999,0.05582159,-0.05019948,0.6540005,9.969156
"0.33 sec",1.042682,0.2149723,0.3691563,-6.977401,0.02078963,0.03675883,-6.981517,0.1201102,0.2180433,0.01799324,0.1709635,-0.04930066,0.04491558,0.3195309,0.002431907,0.6537526,9.971118,0.06047387,-0.05050284,0.6638288,9.943996
"0.34 sec",1.042682,0.2149723,0.3691563,-6.977401,0.02201096,0.03896601,-6.981342,0.124143,0.2234534,0.0168758,0.1775967,-0.04959843,0.0483299,0.3950439,0.001685965,0.6637008,9.944848,0.06362878,-0.05074162,0.6719753,9.918336
"0.35 sec",1.042682,0.2149723,0.3691563,-6.977401,0.0232722,0.04122913,-6.981178,0.128093,0.2292381,0.01603517,0.1843122,-0.04990979,0.05213155,0.4081243,0.004813943,0.671795,9.925405,0.06485204,-0.05092323,0.6779971,9.903392
"0.36 sec",1.042682,0.2149723,0.3691563,-6.977401,0.02457253,0.04355205,-6.981021,0.1319577,0.2354088,0.01536499,0.191089,-0.05020474,0.05570254,0.3625669,0.01014753,0.6776246,9.908488,0.06424541,-0.05104728,0.6817226,9.892962
"0.37 sec",1.042682,0.2149723,0.3691563,-6.977401,0.02591108,0.04593844,-6.98087,0.1357407,0.2419177,0.01481912,0.1979043,-0.0504637,0.0585301,0.2729038,0.01641727,0.681058,9.896155,0.062211,-0.05111776,0.6833149,9.885651
"0.38 sec",1.042682,0.2149723,0.3691563,-6.977401,0.0272871,0.04839123,-6.980724,0.1394529,0.2486755,0.01436164,0.2047366,-0.05067518,0.06028922,0.1598883,0.02265784,0.6823113,9.887882,0.05926429,-0.05114302,0.6832618,9.879701
"0.39 sec",1.042682,0.2149723,0.3691563,-6.977401,0.02869995,0.0509124,-6.980583,0.1431104,0.2555709,0.01397192,0.2115693,-0.05083456,0.06086855,0.04432403,0.02817835,0.6819281,9.881919,0.05589633,-0.05113531,0.6822304,9.873682
"0.4 sec",1.005414,0.2401752,0.3845271,-6.970125,0.03014918,0.05350273,-6.980444,0.1467312,0.2624913,0.01364295,0.2183921,-0.05094319,0.06034287,-0.05748604,0.03253048,0.6806229,9.87588,0.0527523,-0.05110893,0.6861106,9.578817
"0.41 sec",1.005414,0.2401752,0.3845271,-6.970125,0.03163401,0.05616102,-6.980296,0.1502295,0.2691439,0.01617403,0.2252512,-0.05100727,0.05894414,-0.1306251,0.03579798,0.6842983,9.579945,0.05240968,-0.05118256,0.6916645,9.50365
"0.42 sec",1.005414,0.2401752,0.3845271,-6.970125,0.03315362,0.05888494,-6.980117,0.1536925,0.2756171,0.019502,0.232165,-0.05104922,0.05725898,-0.1273121,0.03579156,0.6898461,9.50407,0.05321499,-0.05128976,0.6980554,9.564225
"0.43 sec",1.005414,0.2401752,0.3845271,-6.970125,0.03470794,0.06167316,-6.979908,0.1571703,0.2820086,0.02225222,0.2391423,-0.0510947,0.05588057,-0.07896616,0.03402069,0.6963316,9.563434,0.05394059,-0.05140921,0.7042179,9.68115
"0.44 sec",1.005414,0.2401752,0.3845271,-6.970125,0.03629718,0.06452522,-6.979678,0.160676,0.2883976,0.02384546,0.2461813,-0.05115655,0.05501492,-0.02750348,0.03188273,0.7026069,9.680325,0.05419898,-0.05151894,0.7093232,9.79805
"0.45 sec",1.005414,0.2401752,0.3845271,-6.970125,0.03792159,0.06744136,-6.979437,0.1642006,0.2948295,0.02426991,0.253272,-0.0512355,0.05456529,0.006033473,0.03034744,0.707791,9.797205,0.05409097,-0.0516054,0.7130063,9.881997
"0.46 sec",1.005414,0.2401752,0.3845271,-6.970125,0.03958124,0.07042207,-6.979197,0.1677257,0.3013137,0.02384762,0.2604001,-0.0513243,0.0543408,0.02049243,0.02981756,0.7114984,9.881552,0.05378658,-0.051665,0.7152795,9.923602
"0.47 sec",1.005414,0.2401752,0.3845271,-6.970125,0.04127606,0.0734678,-6.978962,0.1712327,0.3078362,0.02299898,0.2675517,-0.05141309,0.05418628,0.02245889,0.03022908,0.713745,9.923033,0.05336848,-0.05170021,0.7163375,9.929584
"0.48 sec",1.005414,0.2401752,0.3845271,-6.970125,0.04300579,0.07657885,-6.978737,0.1747077,0.3143753,0.02208085,0.2747146,-0.05149338,0.05401105,0.01798449,0.03128075,0.7147418,9.927682,0.05286286,-0.05171563,0.7163981,9.914162
"0.49 sec",1.005414,0.2401752,0.3845271,-6.970125,0.04477007,0.07975528,-6.97852,0.1781433,0.3209116,0.021312,0.2818786,-0.05155972,0.05377178,0.01070054,0.0326301,0.7147256,9.917536,0.05224059,-0.05171537,0.7155764,9.895467
"0.5 sec",0.9712325,0.2678106,0.4066886,-6.969928,0.04656851,0.08299702,-6.97831,0.181539,0.327435,0.02072685,0.2890347,-0.05160961,0.05344703,0.001722108,0.03400408,0.7138265,9.90138,0.05163203,-0.05170148,0.720881,9.823332
"0.51 sec",0.9712325,0.2678106,0.4066886,-6.969928,0.04840063,0.08630373,-6.978102,0.1848784,0.3339027,0.02084363,0.2962408,-0.05164264,0.05303921,-0.005449038,0.03562053,0.7190428,9.823751,0.0518797,-0.05178064,0.7257921,9.793208
"0.52 sec",0.9712325,0.2678106,0.4066886,-6.969928,0.05026592,0.08967493,-6.977891,0.1881748,0.3403366,0.02127339,0.3034962,-0.05167198,0.05266605,0.005537282,0.03509292,0.72398,9.802979,0.05220523,-0.05185238,0.72992,9.804155
"0.53 sec",0.9712325,0.2678106,0.4066886,-6.969928,0.05216403,0.09311049,-6.977677,0.1914401,0.3467735,0.02159698,0.3107933,-0.05170947,0.05243402,0.02153214,0.03415791,0.728155,9.799465,0.05245993,-0.05191068,0.7330498,9.822049
"0.54 sec",0.9712325,0.2678106,0.4066886,-6.969928,0.05409462,0.09661049,-6.97746,0.1946725,0.3532321,0.02174777,0.3181222,-0.05175525,0.05234655,0.03463002,0.0335773,0.7313132,9.820366,0.05225924,-0.05195337,0.7349333,9.848135
"0.55 sec",0.9712325,0.2678106,0.4066886,-6.969928,0.05605738,0.1001753,-6.977243,0.197872,0.3597286,0.02163686,0.3254706,-0.05180466,0.05231789,0.0356123,0.03353649,0.7331969,9.835234,0.05162203,-0.05197828,0.7355568,9.863191
"0.56 sec",0.9712325,0.2678106,0.4066886,-6.969928,0.05805195,0.1038052,-6.977028,0.2010346,0.366255,0.02137718,0.3328258,-0.05185175,0.0522231,0.02432151,0.03396905,0.7337955,9.855597,0.05041564,-0.0519861,0.7349119,9.876092
"0.57 sec",0.9712325,0.2678106,0.4066886,-6.969928,0.06007797,0.1075004,-6.976816,0.2041632,0.3727978,0.020987,0.3401753,-0.05189119,0.0519355,0.0005711668,0.03466254,0.7331119,9.871516,0.04873215,-0.05197715,0.7331121,9.881873
"0.58 sec",0.9712325,0.2678106,0.4066886,-6.969928,0.06213512,0.1112611,-6.976609,0.2072632,0.3793286,0.02053515,0.3475073,-0.05191904,0.05135287,-0.03152523,0.03540246,0.7312711,9.87966,0.04672442,-0.0519528,0.7303351,9.88073
"0.59 sec",0.9712325,0.2678106,0.4066886,-6.969928,0.06422316,0.1150869,-6.976406,0.2103426,0.3858124,0.02008899,0.3548121,-0.05193293,0.05042563,-0.06616075,0.03600758,0.7284615,9.879909,0.04457942,-0.05191486,0.7267697,9.874748
"0.6 sec",1.044129,0.2634312,0.4579391,-6.968784,0.06634193,0.1189771,-6.976207,0.2134118,0.3922136,0.01969602,0.3620816,-0.051932,0.04916409,-0.09748659,0.03635927,0.7248789,9.87604,0.04636495,-0.05186511,0.7372711,9.794548
"0.61 sec",1.044129,0.2634312,0.4579391,-6.968784,0.06849127,0.1229306,-6.976008,0.216453,0.3984728,0.02007724,0.369449,-0.05191747,0.04808364,-0.04632455,0.03723861,0.7353376,9.794966,0.04903535,-0.05200606,0.7473376,9.770845
"0.62 sec",1.044129,0.2634312,0.4579391,-6.968784,0.07067089,0.1269463,-6.975804,0.2194657,0.40467,0.02070743,0.3769172,-0.05191626,0.04772248,0.03718694,0.03446497,0.7455353,9.776931,0.05218893,-0.05213134,0.7562595,9.792346
"0.63 sec",1.044129,0.2634312,0.4579391,-6.968784,0.07288045,0.1310241,-6.975595,0.2224366,0.41091,0.02113131,0.3844752,-0.05194871,0.04823362,0.1236985,0.03181529,0.7545828,9.789183,0.05483145,-0.05223303,0.7634848,9.826762
"0.64 sec",1.044129,0.2634312,0.4579391,-6.968784,0.07511941,0.1351649,-6.975383,0.2253409,0.4172771,0.02122273,0.3921063,-0.05201054,0.04947292,0.1845831,0.03068984,0.7618665,9.82617,0.05577473,-0.05230879,0.7685655,9.865992
"0.65 sec",1.044129,0.2634312,0.4579391,-6.968784,0.077387,0.1393703,-6.975172,0.2281595,0.4238246,0.02093079,0.3997894,-0.0520885,0.0510151,0.1933371,0.03118853,0.76693,9.865488,0.05446795,-0.0523584,0.7713682,9.894743
"0.66 sec",1.044129,0.2634312,0.4579391,-6.968784,0.07968231,0.1436421,-6.974966,0.2308863,0.4305477,0.02035482,0.4075016,-0.05216784,0.05227255,0.141404,0.0327672,0.7696578,9.88532,0.05109353,-0.05238414,0.772144,9.902843
"0.67 sec",1.044129,0.2634312,0.4579391,-6.968784,0.08200447,0.1479816,-6.974765,0.2335353,0.43738,0.01970144,0.4152226,-0.0522363,0.05269969,0.04142291,0.03464022,0.7703356,9.899128,0.04605014,-0.05239041,0.7713448,9.902465
"0.68 sec",1.044129,0.2634312,0.4579391,-6.968784,0.08435287,0.1523897,-6.974572,0.2361428,0.4442216,0.01904847,0.4229365,-0.05228604,0.05193139,-0.08572219,0.03606107,0.7694565,9.9016,0.0401928,-0.05238225,0.7696293,9.892762
"0.69 sec",1.044129,0.2634312,0.4579391,-6.968784,0.08672734,0.1568657,-6.974384,0.2387572,0.4509504,0.01848293,0.4306337,-0.05231413,0.04986105,-0.2119796,0.03651414,0.7677109,9.895117,0.03449238,-0.05236583,0.7675988,9.878061
"0.7 sec",1.015678,0.2957874,0.4946381,-6.967562,0.0891282,0.1614079,-6.974201,0.2414286,0.4574524,0.01804874,0.4383107,-0.05232209,0.04666387,-0.3103434,0.03577008,0.7657133,9.879346,0.03585195,-0.05234671,0.7764889,9.750898
"0.71 sec",1.015678,0.2957874,0.4946381,-6.967562,0.09155606,0.1660134,-6.974017,0.2441568,0.4635993,0.01883908,0.4460711,-0.05231613,0.04344903,-0.2461939,0.03457423,0.7746557,9.751365,0.04068347,-0.05242948,0.785393,9.706517
"0.72 sec",1.015678,0.2957874,0.4946381,-6.967562,0.09401149,0.1706791,-6.973823,0.2469361,0.4695061,0.02008232,0.4539204,-0.05231861,0.04152657,-0.07812757,0.03137692,0.7836915,9.70711,0.0488746,-0.05250585,0.7932048,9.728086
"0.73 sec",1.015678,0.2957874,0.4946381,-6.967562,0.09649479,0.1754034,-6.973617,0.2497151,0.4753676,0.02112211,0.4618485,-0.05234674,0.04171702,0.1533099,0.02901176,0.7915969,9.723195,0.05818037,-0.05256703,0.7990181,9.783763
"0.74 sec",1.015678,0.2957874,0.4946381,-6.967562,0.09900553,0.1801871,-6.973403,0.2524057,0.4814053,0.02162343,0.4698356,-0.05240103,0.04425795,0.3804507,0.02894949,0.7974205,9.782935,0.06514446,-0.05260891,0.8020813,9.853322
"0.75 sec",1.015678,0.2957874,0.4946381,-6.967562,0.1015423,0.1850328,-6.973187,0.2549139,0.4878168,0.02144895,0.4778549,-0.05247211,0.04857947,0.5173848,0.03148253,0.8003911,9.852283,0.06662657,-0.05262927,0.8016555,9.911147
"0.76 sec",1.015678,0.2957874,0.4946381,-6.967562,0.104103,0.189945,-6.972976,0.2571764,0.4946984,0.0207176,0.4858716,-0.05254495,0.05333325,0.4952888,0.0358653,0.7997729,9.910321,0.06061387,-0.05262508,0.7973218,9.945174
"0.77 sec",1.015678,0.2957874,0.4946381,-6.967562,0.106685,0.1949282,-6.972775,0.2591994,0.5019944,0.0196603,0.4938471,-0.05260229,0.0567098,0.2855192,0.04063253,0.7951937,9.932747,0.04767801,-0.05259321,0.7896574,9.943809
"0.78 sec",1.015678,0.2957874,0.4946381,-6.967562,0.1092865,0.1999856,-6.972583,0.2610745,0.5094784,0.01862423,0.5017475,-0.05262844,0.0570173,-0.07334238,0.04410117,0.7873304,9.941419,0.03049731,-0.05253464,0.7805235,9.925451
"0.79 sec",1.015678,0.2957874,0.4946381,-6.967562,0.1119066,0.2051173,-6.972401,0.2629687,0.5168198,0.01775651,0.5095575,-0.05261363,0.05328802,-0.4892544,0.04491445,0.7781548,9.928751,0.01270529,-0.05245989,0.7724831,9.89023
"0.8 sec",0.9900352,0.329688,0.5381514,-6.966276,0.1145466,0.2103202,-6.972226,0.2650771,0.5236543,0.01720364,0.5172864,-0.05255761,0.04560309,-0.8533311,0.04234551,0.7702835,9.890821,0.007519604,-0.05238992,0.7789842,9.719477
"0.81 sec",0.9900352,0.329688,0.5381514,-6.966276,0.1172092,0.2155874,-6.972049,0.2675199,0.5296435,0.01828162,0.5250729,-0.052473,0.03618025,-0.8901238,0.03708996,0.7770745,9.723239,0.01085356,-0.05245061,0.7852572,9.64296
"0.82 sec",0.9900352,0.329688,0.5381514,-6.966276,0.1198982,0.2209104,-6.971857,0.2703289,0.5348502,0.02011341,0.5329222,-0.05239773,0.02803608,-0.6562346,0.02793431,0.783702,9.643378,0.02304969,-0.05250594,0.7773905,9.647943
"0.83 sec",0.9900352,0.329688,0.5381514,-6.966276,0.1226167,0.2262827,-6.971647,0.2734133,0.5395412,0.02189835,0.5407001,-0.0523637,0.02356407,-0.2161253,0.01934775,0.7760843,9.646582,0.04122394,-0.05244203,0.7626247,9.705299
"0.84 sec",0.9900352,0.329688,0.5381514,-6.966276,0.1253667,0.2317009,-6.971422,0.2765783,0.5441169,0.02311982,0.5483339,-0.05236677,0.02418747,0.3155568,0.01666595,0.7613988,9.70443,0.06198475,-0.05230409,0.7426842,9.785856
"0.85 sec",0.9900352,0.329688,0.5381514,-6.966276,0.1281477,0.2371662,-6.971189,0.2795652,0.5490296,0.02355128,0.555771,-0.05238274,0.03012705,0.8207155,0.02043949,0.7413855,9.785428,0.07736386,-0.05208177,0.7115825,9.864291
"0.86 sec",0.9900352,0.329688,0.5381514,-6.966276,0.1309566,0.242684,-6.970954,0.2821171,0.554678,0.02322388,0.5629028,-0.05238149,0.03999057,1.116036,0.0296439,0.7099896,9.863865,0.08046437,-0.05164097,0.7040703,9.922723
"0.87 sec",0.9900352,0.329688,0.5381514,-6.966276,0.1337881,0.2482629,-6.970726,0.2840762,0.5612614,0.02235012,0.5699474,-0.05231445,0.05072372,1.056237,0.04580397,0.7016923,9.921956,0.06947301,-0.05150328,0.6925103,9.966321
"0.88 sec",0.9900352,0.329688,0.5381514,-6.966276,0.1366362,0.2539121,-6.97051,0.2854688,0.5686834,0.02108496,0.5768785,-0.05218323,0.05859599,0.6292268,0.0553865,0.6895118,9.96571,0.03853609,-0.05128343,0.6751669,9.979625
"0.89 sec",0.9900352,0.329688,0.5381514,-6.966276,0.1394964,0.259638,-6.970305,0.2865389,0.5765125,0.01970494,0.583639,-0.05199997,0.0595701,-0.2078642,0.06063554,0.6718333,9.976911,-0.001666362,-0.05092406,0.6565129,9.943783
"0.9 sec",1.063164,0.332976,0.6081054,-6.96347,0.1423674,0.2654412,-6.970114,0.287737,0.5840086,0.01865192,0.5902136,-0.05174381,0.05108396,-1.185276,0.06213585,0.6532956,9.954829,-0.02370128,-0.05049144,0.6632084,9.696773
"0.91 sec",1.063164,0.332976,0.6081054,-6.96347,0.145253,0.2713139,-6.969921,0.2895089,0.5903201,0.01994101,0.596842,-0.05140404,0.03557246,-1.669384,0.05990529,0.6605874,9.698054,-0.02094641,-0.05066876,0.6732068,9.546956
"0.92 sec",1.063164,0.332976,0.6081054,-6.96347,0.1481602,0.2772428,-6.969708,0.2920702,0.5952359,0.02269503,0.6035687,-0.05107772,0.01948599,-1.434816,0.04144252,0.6716264,9.548243,-0.006828285,-0.05091957,0.664539,9.518808
"0.93 sec",1.063164,0.332976,0.6081054,-6.96347,0.1510967,0.2832149,-6.969466,0.2953297,0.5990443,0.02573418,0.6102183,-0.05087364,0.008223821,-0.8074135,0.01896445,0.6635391,9.527524,0.008490572,-0.05073788,0.6480645,9.586224
"0.94 sec",1.063164,0.332976,0.6081054,-6.96347,0.1540683,0.2892218,-6.969197,0.299015,0.602267,0.02811198,0.6167074,-0.05077024,0.003560998,-0.1575921,0.009449804,0.647199,9.585416,0.02478035,-0.05033576,0.6365232,9.694854
"0.95 sec",1.063164,0.332976,0.6081054,-6.96347,0.1570774,0.2952601,-6.968909,0.3028001,0.605423,0.02941672,0.6230786,-0.05068132,0.004969244,0.3909349,0.0123589,0.6356538,9.69416,0.04296185,-0.05002175,0.6260724,9.8139
"0.96 sec",1.063164,0.332976,0.6081054,-6.96347,0.1601236,0.3013315,-6.968614,0.3063726,0.6089541,0.02953707,0.6293447,-0.05056574,0.01139528,0.8365381,0.01937808,0.6250967,9.812996,0.05948812,-0.04971161,0.617842,9.910067
"0.97 sec",1.063164,0.332976,0.6081054,-6.96347,0.1632033,0.3074416,-6.968323,0.3094561,0.6132043,0.02870086,0.6355274,-0.05041848,0.02148747,1.131581,0.02874028,0.6165903,9.909528,0.0681155,-0.04923481,0.6083717,9.972487
"0.98 sec",1.063164,0.332976,0.6081054,-6.96347,0.1663105,0.3135987,-6.968043,0.3118623,0.6183735,0.02725567,0.6416161,-0.05021825,0.03305841,1.171898,0.04221392,0.6065536,9.971637,0.06228107,-0.04817206,0.590121,9.999561
"0.99 sec",1.063164,0.332976,0.6081054,-6.96347,0.1694382,0.3198121,-6.967779,0.3135634,0.6244311,0.02556382,0.6475268,-0.04987704,0.04283105,0.849822,0.06610646,0.5871118,9.991848,0.03217088,-0.04586056,0.5790256,9.979952
"1 sec",1.021515,0.3773096,0.6605507,-6.963561,0.1725801,0.3260891,-6.96753,0.3147651,0.6310097,0.02408627,0.6533229,-0.04918979,0.04616893,0.01701762,0.111599,0.5737854,9.982437,-0.009625814,-0.04444682,0.5786273,9.736396
"1.01 sec",1.021515,0.3773096,0.6605507,-6.963561,0.1757333,0.332431,-6.967286,0.3159194,0.6372763,0.02496836,0.659109,-0.0481528,0.03960982,-1.033958,0.1351077,0.5729946,9.737755,-0.03512015,-0.04414277,0.5811464,9.5479
"1.02 sec",1.021515,0.3773096,0.6605507,-6.963561,0.1789001,0.3388311,-6.967022,0.3175773,0.6425385,0.02770162,0.6649183,-0.04703154,0.02498488,-1.638229,0.1216715,0.5775509,9.55037,-0.02865889,-0.04216226,0.5743029,9.458522
"1.03 sec",1.021515,0.3773096,0.6605507,-6.963561,0.1820875,0.3452774,-6.966727,0.3200307,0.646521,0.03130961,0.6706639,-0.04583505,0.009446522,-1.379162,0.1276809,0.572428,9.458982,-0.0195697,-0.04236299,0.5489574,9.444062
"1.04 sec",1.021515,0.3773096,0.6605507,-6.963561,0.185303,0.351758,-6.966395,0.3231711,0.6494371,0.03506369,0.6761658,-0.04472599,-0.001772933,-0.8528731,0.09664392,0.5485336,9.447053,-0.01126008,-0.04012742,0.5371898,9.507472
"1.05 sec",1.021515,0.3773096,0.6605507,-6.963561,0.1885524,0.358264,-6.966029,0.3267488,0.6516907,0.03819847,0.6815434,-0.04363355,-0.007771822,-0.3603784,0.1074799,0.5375056,9.506647,-0.00731098,-0.0390109,0.528627,9.614211
"1.06 sec",1.021515,0.3773096,0.6605507,-6.963561,0.1918386,0.3647908,-6.965637,0.330505,0.65363,0.04027681,0.6868339,-0.0424677,-0.009857759,-0.05769297,0.1090459,0.5292444,9.61356,-0.006506457,-0.03827396,0.5176381,9.740886
"1.07 sec",1.021515,0.3773096,0.6605507,-6.963561,0.1951626,0.3713363,-6.96523,0.3342707,0.6554737,0.04109063,0.6920159,-0.04134137,-0.009912652,0.0667242,0.1010462,0.5182241,9.739787,-0.009210193,-0.03688172,0.504846,9.854343
"1.08 sec",1.021515,0.3773096,0.6605507,-6.963561,0.1985239,0.3779003,-6.96482,0.3379703,0.6573084,0.04076296,0.6970709,-0.04023017,-0.009575979,0.04449651,0.1044494,0.5054612,9.853547,-0.01536118,-0.03528588,0.4910933,9.923245
"1.09 sec",1.021515,0.3773096,0.6605507,-6.963561,0.2019218,0.3844824,-6.964417,0.3416011,0.6591007,0.03973079,0.7019889,-0.03904394,-0.01011268,-0.08473407,0.1145151,0.4918948,9.922228,-0.02275795,-0.03375912,0.4769361,9.939571
"1.1 sec",1.072137,0.3928659,0.7354127,-6.972438,0.2053559,0.3910818,-6.964026,0.3452178,0.6607383,0.03851793,0.7067654,-0.03775876,-0.0121629,-0.2459299,0.1229214,0.478108,9.935899,-0.01457948,-0.02373141,0.4756206,10.00132
"1.11 sec",1.072137,0.3928659,0.7354127,-6.972438,0.2088263,0.3976963,-6.96365,0.3488609,0.6621292,0.03669736,0.711522,-0.03540377,-0.01391358,-0.08973866,0.2900773,0.4793855,10.00039,-0.02007953,-0.02588236,0.4697714,9.937757
"1.12 sec",1.072137,0.3928659,0.7354127,-6.972438,0.2123325,0.4043234,-6.963289,0.3523593,0.6632476,0.03547187,0.7162225,-0.03263719,-0.01522171,-0.1258194,0.2429709,0.4732541,9.938637,-0.02071194,-0.02587189,0.4633799,9.884521
"1.13 sec",1.072137,0.3928659,0.7354127,-6.972438,0.2158731,0.4109604,-6.962938,0.3557394,0.6641104,0.03477456,0.7208594,-0.03045123,-0.01664505,-0.1224133,0.1792602,0.4661986,9.885245,-0.02011796,-0.02549281,0.4562851,9.864408
"1.14 sec",1.072137,0.3928659,0.7354127,-6.972438,0.2194471,0.417605,-6.962593,0.3590546,0.6647656,0.03428427,0.7254258,-0.02882844,-0.01780863,-0.08413586,0.1297754,0.4584711,9.869163,-0.01970183,-0.02421221,0.4481851,9.875804
"1.15 sec",1.072137,0.3928659,0.7354127,-6.972438,0.2230541,0.4242553,-6.962253,0.3623274,0.665271,0.03368308,0.7299117,-0.02752001,-0.01856992,-0.04591447,0.1115659,0.4501601,9.874207,-0.02029083,-0.0230316,0.4390878,9.891665
"1.16 sec",1.072137,0.3928659,0.7354127,-6.972438,0.2266935,0.43091,-6.96192,0.3655528,0.6656641,0.03292332,0.7343072,-0.02632742,-0.01909354,-0.03437173,0.1048346,0.4410141,9.887835,-0.02167865,-0.02212157,0.4292527,9.907826
"1.17 sec",1.072137,0.3928659,0.7354127,-6.972438,0.2303649,0.4375682,-6.961596,0.3687313,0.6659568,0.0320005,0.7386047,-0.02520497,-0.0196492,-0.04868276,0.09787904,0.4311188,9.903425,-0.02343092,-0.02133978,0.4188939,9.923903
"1.18 sec",1.072137,0.3928659,0.7354127,-6.972438,0.234068,0.4442288,-6.961281,0.3718781,0.6661431,0.03091563,0.7427989,-0.02416046,-0.02042009,-0.07528415,0.08973539,0.4206868,9.919316,-0.02518131,-0.02044712,0.4081249,9.939459
"1.19 sec",1.072137,0.3928659,0.7354127,-6.972438,0.2378025,0.4508907,-6.960978,0.3750158,0.6662087,0.02967463,0.7468857,-0.02317807,-0.02144971,-0.1005871,0.08483842,0.4099234,9.934996,-0.02669902,-0.01849075,0.3970186,9.952835
"1.2 sec",1.011178,0.4496137,0.7896713,-6.975137,0.2415684,0.4575525,-6.960688,0.3781609,0.6661361,0.02829963,0.7508615,-0.02210821,-0.02267363,-0.1162479,0.1020214,0.3993296,9.94905,-0.02016912,-0.03293927,0.3869508,9.78383
"1.21 sec",1.011178,0.4496137,0.7896713,-6.975137,0.2453655,0.464213,-6.960404,0.3812841,0.6659783,0.02856958,0.7547361,-0.02274902,-0.02308001,0.02708613,-0.1886828,0.3825977,9.786297,-0.008610958,-0.04099287,0.3791924,9.8038
"1.22 sec",1.011178,0.4496137,0.7896713,-6.975137,0.2491944,0.4708727,-6.960117,0.3845119,0.6660059,0.02868835,0.7585317,-0.02587875,-0.02129675,0.288121,-0.396665,0.3706506,9.800107,0.003759251,-0.03215231,0.3754341,9.936574
"1.23 sec",1.011178,0.4496137,0.7896713,-6.975137,0.2530561,0.4775347,-6.959836,0.3878083,0.6664994,0.02751334,0.7622874,-0.02878357,-0.01682986,0.5507628,-0.2167795,0.3716245,9.935284,0.0003634307,-0.01318763,0.3675435,9.986941
"1.24 sec",1.011178,0.4496137,0.7896713,-6.975137,0.2569498,0.4842043,-6.959569,0.3908712,0.6674643,0.02580876,0.765967,-0.02814851,-0.01181453,0.4626026,0.2418518,0.3703347,9.986268,-0.01823926,0.006049773,0.356447,9.875355
"1.25 sec",1.011178,0.4496137,0.7896713,-6.975137,0.2608718,0.4908843,-6.959315,0.393431,0.668488,0.0251656,0.7695376,-0.02279513,-0.01003323,-0.007571691,0.7027875,0.3634202,9.876128,-0.03439626,0.02109192,0.3466711,9.732924
"1.26 sec",1.011178,0.4496137,0.7896713,-6.975137,0.2648167,0.4975722,-6.95906,0.3954778,0.6689669,0.02592312,0.7730079,-0.01373983,-0.01294741,-0.4596885,0.9937187,0.3592998,9.734528,-0.04386615,0.0333581,0.3384326,9.671474
"1.27 sec",1.011178,0.4496137,0.7896713,-6.975137,0.26878,0.5042602,-6.958794,0.3971251,0.6684332,0.02730859,0.7763931,-0.002677749,-0.01912677,-0.6920708,1.121008,0.3595357,9.672344,-0.04592692,0.03584024,0.3310742,9.730299
"1.28 sec",1.011178,0.4496137,0.7896713,-6.975137,0.2727582,0.5109367,-6.958516,0.3984752,0.6666713,0.02814625,0.7797037,0.008108358,-0.02610221,-0.6707737,0.9859334,0.3565708,9.729512,-0.04108642,0.03480484,0.3239038,9.936456
"1.29 sec",1.011178,0.4496137,0.7896713,-6.975137,0.2767488,0.5175896,-6.95824,0.3996131,0.6637399,0.02698356,0.7829439,0.01677537,-0.03156545,-0.4438233,0.7286251,0.3468556,9.930922,-0.03250264,0.03108034,0.3165034,10.26903
"1.3 sec",1.0493,0.4760726,0.8641658,-6.949478,0.2807499,0.5242083,-6.957992,0.4005669,0.6598933,0.0225565,0.7861118,0.02256937,-0.03411434,-0.1259141,0.432849,0.3313504,10.26822,0.0009242685,-0.02605448,0.3153061,9.268294
"1.31 sec",1.0493,0.4760726,0.8641658,-6.949478,0.2847593,0.5307887,-6.957742,0.4012994,0.6562793,0.02779142,0.7892647,0.01938156,-0.03069867,0.6308106,-0.8301598,0.2896504,9.272031,0.02144666,-0.04640116,0.3097615,9.1934
"1.32 sec",1.0493,0.4760726,0.8641658,-6.949478,0.2887762,0.5373373,-6.957433,0.4021284,0.6536799,0.03397882,0.7923592,0.007130938,-0.0210849,1.133778,-1.447976,0.2784566,9.193825,0.07144058,-0.04689487,0.3230844,9.241295
"1.33 sec",1.0493,0.4760726,0.8641658,-6.949478,0.2928021,0.5438681,-6.957065,0.4030086,0.6528295,0.03968797,0.795571,-0.007223463,-0.003987265,2.020923,-1.365646,0.3162197,9.240688,0.09987929,0.007684213,0.3277739,9.370857
"1.34 sec",1.0493,0.4760726,0.8641658,-6.949478,0.2968344,0.550401,-6.956645,0.4032522,0.6540657,0.04412322,0.7988388,-0.01312657,0.01936436,2.44525,-0.03211991,0.3283294,9.369524,0.09944987,-0.0008276736,0.3309669,8.997614
"1.35 sec",1.0493,0.4760726,0.8641658,-6.949478,0.3008622,0.5569544,-6.956164,0.4020388,0.6568406,0.05220482,0.802148,-0.01193558,0.04231231,2.092507,0.2342539,0.3215536,8.998243,0.07505257,0.01391976,0.3188601,8.832582
"1.36 sec",1.0493,0.4760726,0.8641658,-6.949478,0.3048705,0.5635411,-6.955593,0.3994222,0.6605986,0.062057,0.805346,-0.007712963,0.05778354,1.110553,0.5571992,0.2874638,8.835675,-0.005057028,0.01889638,0.301756,8.820653
"1.37 sec",1.0493,0.4760726,0.8641658,-6.949478,0.3088477,0.5701669,-6.954922,0.3959613,0.6644909,0.0721015,0.8083722,-0.001604394,0.0566554,-0.9341441,0.6473914,0.2652372,8.823764,-0.05988426,0.01395225,0.2883225,8.952308
"1.38 sec",1.0493,0.4760726,0.8641658,-6.949478,0.3127905,0.5768277,-6.954157,0.3927458,0.6674021,0.0808178,0.8112574,0.003746876,0.03787445,-2.430589,0.4560515,0.2706873,8.951244,-0.0929097,0.006476349,0.2874744,9.226494
"1.39 sec",1.0493,0.4760726,0.8641658,-6.949478,0.3167067,0.5835092,-6.953319,0.3908001,0.66856,0.08675426,0.8141283,0.006578142,0.009090363,-3.049893,0.1627227,0.2857348,9.225435,-0.08746621,-0.02598383,0.2915994,9.685641
"1.4 sec",1.079725,0.5053698,0.935684,-6.935269,0.320613,0.5901923,-6.952444,0.3908058,0.6677924,0.08812207,0.8170457,0.003708686,-0.01916411,-2.543877,-0.5820955,0.2812306,9.685235,-0.04982148,0.001087959,0.3012593,9.978044
"1.41 sec",1.079725,0.5053698,0.935684,-6.935269,0.3245298,0.5968605,-6.951571,0.3928193,0.6656862,0.08656042,0.8200571,0.0002060395,-0.03692765,-1.173942,-0.1920991,0.2944904,9.977145,-0.03834479,-0.03548592,0.3028834,10.07216
"1.42 sec",1.079725,0.5053698,0.935684,-6.935269,0.3284731,0.6035041,-6.950717,0.3959747,0.6630175,0.08404819,0.8230867,-0.00495271,-0.04364789,-0.2993135,-0.7314389,0.2713423,10.07157,-0.01724402,-0.0285404,0.3012285,10.65202
"1.43 sec",1.079725,0.5053698,0.935684,-6.935269,0.3324525,0.6101213,-6.949917,0.3999829,0.6605311,0.0758815,0.8260995,-0.01171162,-0.0422589,0.4338743,-0.6276006,0.2748093,10.65143,-0.005480924,0.01136904,0.2963934,10.9521
"1.44 sec",1.079725,0.5053698,0.935684,-6.935269,0.3364733,0.6167168,-6.949214,0.4040916,0.6586611,0.0646307,0.8290657,-0.01246447,-0.03557656,0.8021829,0.2832984,0.3067495,10.95119,-0.0004601735,0.03537885,0.2907521,10.38713
"1.45 sec",1.079725,0.5053698,0.935684,-6.935269,0.3405305,0.623296,-6.948598,0.4071591,0.6571851,0.05877125,0.8319791,-0.00526084,-0.02702536,0.8552813,0.967259,0.3174233,10.38773,-0.001954176,0.02763959,0.2858576,9.531231
"1.46 sec",1.079725,0.5053698,0.935684,-6.935269,0.3446114,0.6298608,-6.947998,0.4088221,0.6557426,0.06136574,0.8348439,0.004006071,-0.01933247,0.6748977,0.8446753,0.3025436,9.533051,-0.002739821,0.02504838,0.2812251,8.970771
"1.47 sec",1.079725,0.5053698,0.935684,-6.935269,0.3487034,0.6364108,-6.947344,0.4094397,0.6542396,0.06962901,0.8376607,0.01119593,-0.0136204,0.4702186,0.5925444,0.2894563,8.971337,-0.00605096,0.01978036,0.2767422,8.781521
"1.48 sec",1.079725,0.5053698,0.935684,-6.935269,0.352798,0.6429453,-6.946597,0.4094046,0.652665,0.07988042,0.8404313,0.01552022,-0.01009287,0.2501309,0.2983689,0.2797773,8.785617,-0.01311265,-0.003238525,0.2721431,8.998795
"1.49 sec",1.079725,0.5053698,0.935684,-6.935269,0.3568905,0.6494638,-6.945756,0.4090884,0.6510485,0.08806089,0.8431552,0.01501511,-0.009024522,-0.002449435,-0.2887581,0.2695157,8.993571,-0.02042799,-0.01547714,0.2666267,9.780958
"1.5 sec",1.108019,0.535916,1.0066,-6.929132,0.3609804,0.6559663,-6.944872,0.4089572,0.6495035,0.08856537,0.8458246,0.009867548,-0.01034759,-0.2196146,-0.6480924,0.25999,9.77989,-0.01187595,-0.04983433,0.2701052,10.19823
"1.51 sec",1.108019,0.535916,1.0066,-6.929132,0.3650718,0.6624551,-6.944005,0.4094647,0.6483614,0.08479837,0.8485246,-0.0006845825,-0.01174537,-0.08097722,-1.286651,0.2550668,10.19782,0.007449113,-0.04490702,0.2768641,10.89072
"1.52 sec",1.108019,0.535916,1.0066,-6.929132,0.3691729,0.6689366,-6.943209,0.4108804,0.6481271,0.0741787,0.8512889,-0.01299808,-0.00997488,0.3473597,-1.141239,0.2652759,10.8895,0.01018415,0.01850144,0.275408,11.02358
"1.53 sec",1.108019,0.535916,1.0066,-6.929132,0.3732908,0.675421,-6.942528,0.4126666,0.6488418,0.06209393,0.854043,-0.01568717,-0.005713298,0.466893,0.3311942,0.2773389,11.0225,-0.01313199,0.02977316,0.272554,10.27567
"1.54 sec",1.108019,0.535916,1.0066,-6.929132,0.3774239,0.6819132,-6.941932,0.4138639,0.6495214,0.05725543,0.8567706,-0.008538571,-0.003990031,-0.02981938,0.9393625,0.2762848,10.27672,-0.02638135,0.0191672,0.2722374,9.442622
"1.55 sec",1.108019,0.535916,1.0066,-6.929132,0.381566,0.688409,-6.941343,0.4144823,0.6495056,0.06071817,0.859492,-6.212758e-05,-0.00676871,-0.4313993,0.7434043,0.2771118,9.444537,-0.02962457,0.01716521,0.2733853,8.921339
"1.56 sec",1.108019,0.535916,1.0066,-6.929132,0.385713,0.6949009,-6.940693,0.4149194,0.6487507,0.06947525,0.8622236,0.00610737,-0.01183164,-0.5351018,0.4979324,0.2791511,8.921812,-0.02684012,0.008660641,0.274635,8.748087
"1.57 sec",1.108019,0.535916,1.0066,-6.929132,0.3898646,0.701382,-6.939945,0.4154196,0.64741,0.08006247,0.8649685,0.009206115,-0.01655279,-0.4111425,0.1611488,0.2772911,8.751286,-0.02204824,-0.02281739,0.2743945,8.984589
"1.58 sec",1.108019,0.535916,1.0066,-6.929132,0.3940222,0.707848,-6.939103,0.4161751,0.6457776,0.08839264,0.8677129,0.006404726,-0.01947466,-0.2016645,-0.5744042,0.2633111,8.977336,-0.007163022,-0.01632732,0.272161,9.926416
"1.59 sec",1.108019,0.535916,1.0066,-6.929132,0.39819,0.7142978,-6.938222,0.4174375,0.6442597,0.08749107,0.8704357,0.0005816509,-0.01916194,0.1862716,-0.5692233,0.2612509,9.92413,-0.01904774,-0.01631806,0.2641264,10.71248
"1.6 sec",1.02916,0.6042896,1.056337,-6.957266,0.4023724,0.7207344,-6.93739,0.4190959,0.6431555,0.07868674,0.8730807,-0.004535328,-0.01811309,0.04597643,-0.4569145,0.2558787,10.71105,-0.03025004,0.007799666,0.2583362,11.438
"1.61 sec",1.02916,0.6042896,1.056337,-6.957266,0.4065733,0.7271616,-6.936683,0.4211217,0.6422886,0.06261401,0.875667,-0.00562161,-0.01927818,-0.2186757,0.1243022,0.2607643,11.43654,-0.03833703,0.04826682,0.2527364,11.3407
"1.62 sec",1.02916,0.6042896,1.056337,-6.957266,0.4107949,0.733579,-6.936133,0.423148,0.6410274,0.04730795,0.8781961,0.001378017,-0.02272088,-0.4123151,1.047881,0.2763978,11.34117,-0.04590089,0.04648614,0.2497341,10.97644
"1.63 sec",1.02916,0.6042896,1.056337,-6.957266,0.4150348,0.7399786,-6.935719,0.4247899,0.6386839,0.03558816,0.8806922,0.01251596,-0.02770969,-0.537551,1.094989,0.2798579,10.97707,-0.04238636,0.03542898,0.2475743,10.86699
"1.64 sec",1.02916,0.6042896,1.056337,-6.957266,0.4192896,0.7463487,-6.935416,0.4261282,0.6351519,0.02505637,0.8831668,0.02133953,-0.03239335,-0.4071202,0.6836481,0.2696544,10.8678,-0.03276586,0.03240883,0.2447955,11.04362
"1.65 sec",1.02916,0.6042896,1.056337,-6.957266,0.423557,0.7526786,-6.935226,0.4273218,0.6307251,0.01285978,0.8856155,0.02649245,-0.03467456,-0.1063442,0.3626564,0.2574164,11.04043,-0.02260815,0.03567056,0.2411377,11.24668
"1.66 sec",1.02916,0.6042896,1.056337,-6.957266,0.4278355,0.7589615,-6.935169,0.4283286,0.6258235,-0.001343877,0.8880289,0.02963316,-0.03382394,0.1991829,0.2521693,0.2497304,11.24179,-0.01495509,0.03092232,0.2363206,11.32011
"1.67 sec",1.02916,0.6042896,1.056337,-6.957266,0.4321224,0.7651947,-6.935257,0.428989,0.620834,-0.01631299,0.8903948,0.03123426,-0.03047376,0.3990941,0.07733338,0.2386915,11.31969,-0.009998962,0.01875872,0.230147,11.28674
"1.68 sec",1.02916,0.6042896,1.056337,-6.957266,0.436414,0.7713791,-6.935493,0.4292697,0.6161141,-0.03098674,0.8926992,0.03024982,-0.02582175,0.4761724,-0.2237138,0.2242878,11.29817,-0.006737913,0.01454705,0.2234231,11.05045
"1.69 sec",1.02916,0.6042896,1.056337,-6.957266,0.4407069,0.7775192,-6.935865,0.429286,0.6120126,-0.0433781,0.8949361,0.0272018,-0.02090579,0.4682236,-0.3540385,0.2159005,11.05183,-0.006945744,0.009326237,0.2152294,11.00362
"1.7 sec",1.053529,0.6383411,1.12345,-6.966854,0.4449992,0.7836215,-6.936359,0.4291568,0.6085595,-0.05527205,0.8970917,0.02316694,-0.01663652,0.3698676,-0.4247134,0.2080516,11.00452,0.003490684,-0.04283812,0.2139359,11.8972
"1.71 sec",1.053529,0.6383411,1.12345,-6.966854,0.4492902,0.7896919,-6.937014,0.4291048,0.6057327,-0.07588146,0.8992295,0.01312714,-0.0122077,0.4651888,-1.354374,0.1970769,11.89471,0.02403255,-0.04322433,0.22707,9.147593
"1.72 sec",1.053529,0.6383411,1.12345,-6.966854,0.4535825,0.7957432,-6.937746,0.4294089,0.6047688,-0.06995507,0.9014887,-0.0009837019,-0.005387121,0.7954074,-1.3865,0.2190388,9.14832,0.05174425,-0.0939872,0.2307798,8.093752
"1.73 sec",1.053529,0.6383411,1.12345,-6.966854,0.4578789,0.8017924,-6.938363,0.4299109,0.605373,-0.05305715,0.9037843,-0.01955251,0.005689763,1.271947,-2.088314,0.241279,8.095341,0.09212296,-0.1124204,0.2089641,7.498672
"1.74 sec",1.053529,0.6383411,1.12345,-6.966854,0.4621811,0.8078566,-6.938779,0.4305237,0.6078196,-0.03005183,0.9058658,-0.04203939,0.02281523,1.942837,-2.246121,0.2578629,7.499121,0.1030163,-0.03341625,0.2071862,7.621813
"1.75 sec",1.053529,0.6383411,1.12345,-6.966854,0.4664886,0.813956,-6.938969,0.430868,0.6123223,-0.008003082,0.9079258,-0.05361288,0.04294231,1.983179,-0.3528271,0.2218114,7.620781,0.09640539,0.02182566,0.2036388,8.066483
"1.76 sec",1.053529,0.6383411,1.12345,-6.966854,0.4707948,0.8201081,-6.93896,0.4301173,0.6181692,0.009763464,0.9099689,-0.04686076,0.06017476,1.483937,1.356323,0.1230659,8.066076,0.0157492,0.04307297,0.1932959,9.069169
"1.77 sec",1.053529,0.6383411,1.12345,-6.966854,0.475085,0.8263218,-6.938821,0.4277187,0.6244145,0.01767701,0.9119101,-0.02887811,0.06323878,-0.4932806,2.02889,0.06466261,9.064965,-0.0324057,0.0433688,0.1871214,9.686902
"1.78 sec",1.053529,0.6383411,1.12345,-6.966854,0.4793459,0.8325921,-6.938636,0.4244393,0.6292499,0.01924633,0.9137712,-0.009180973,0.04933169,-1.928239,1.850252,0.09417444,9.686152,-0.07055988,0.0480549,0.1841985,10.16718
"1.79 sec",1.053529,0.6383411,1.12345,-6.966854,0.4835745,0.8388988,-6.938459,0.4214408,0.6316115,0.01587336,0.9155934,0.007785354,0.02461201,-2.725158,1.522078,0.144636,10.16677,-0.09415799,-0.01032394,0.1870922,10.65662
"1.8 sec",1.074435,0.6741204,1.189281,-6.964613,0.4877789,0.8452151,-6.938342,0.4197882,0.6312408,0.007550056,0.9174525,0.01416602,-0.004413502,-2.8909,0.01127073,0.1870379,10.6562,-0.08243695,-0.02116698,0.2008725,11.28696
"1.81 sec",1.074435,0.6741204,1.189281,-6.964613,0.4919783,0.8515169,-6.938338,0.4205002,0.6288964,-0.00702832,0.9194587,0.01013692,-0.02961833,-2.15565,-0.6710867,0.1817964,11.28616,-0.06157028,0.0162572,0.2075965,10.93939
"1.82 sec",1.074435,0.6741204,1.189281,-6.964613,0.496196,0.8577903,-6.938466,0.4233027,0.6256477,-0.0183257,0.9215342,0.007148607,-0.04535928,-1.109199,-0.04617561,0.2057428,10.94013,-0.03250766,-0.009730937,0.2119339,10.99167
"1.83 sec",1.074435,0.6741204,1.189281,-6.964613,0.5004478,0.864028,-6.938707,0.4271413,0.6218725,-0.02999728,0.9236518,0.004982045,-0.05004533,-0.01484735,-0.3388682,0.1952315,10.99105,-0.01197634,0.00113847,0.2145818,10.74216
"1.84 sec",1.074435,0.6741204,1.189281,-6.964613,0.504739,0.870229,-6.939054,0.4310604,0.6184207,-0.03925528,0.9257958,0.002697838,-0.04569102,0.7188727,-0.1596639,0.2074485,10.7434,0.003899575,-0.006680846,0.212264,10.73017
"1.85 sec",1.074435,0.6741204,1.189281,-6.964613,0.5090672,0.8763985,-6.939492,0.4344726,0.6156203,-0.04836832,0.9279187,0.000761767,-0.03590285,1.108571,-0.2216612,0.204318,10.73316,0.0103158,-0.02002002,0.2056793,10.65079
"1.86 sec",1.074435,0.6741204,1.189281,-6.964613,0.5134257,0.8825446,-6.940018,0.4370984,0.613772,-0.05674811,0.9299768,-0.002861616,-0.02433603,1.135596,-0.4506281,0.1945122,10.6512,0.01207854,-0.01505359,0.1977573,10.4041
"1.87 sec",1.074435,0.6741204,1.189281,-6.964613,0.5178066,0.8886777,-6.940615,0.4389816,0.6130071,-0.06273174,0.9319562,-0.006776171,-0.01376461,0.9563161,-0.3389902,0.1929357,10.40535,0.003826613,-0.01656538,0.1894846,10.29012
"1.88 sec",1.074435,0.6741204,1.189281,-6.964613,0.5222034,0.8948076,-6.941267,0.440299,0.6130998,-0.06755361,0.9338541,-0.009797916,-0.006389061,0.5576359,-0.2660205,0.1877011,10.29073,-0.009192274,-0.01196044,0.1828046,10.12043
"1.89 sec",1.074435,0.6741204,1.189281,-6.964613,0.5266116,0.9009414,-6.941958,0.4413236,0.6137021,-0.07069381,0.9356853,-0.01152961,-0.003615291,0.07793962,-0.1035248,0.1824144,10.12337,-0.02388874,-0.008605062,0.1772883,9.993384
"1.9 sec",1.094164,0.7107961,1.255238,-6.958988,0.5310299,0.907082,-6.942675,0.44236,0.6143987,-0.0725529,0.937461,-0.01176223,-0.005553213,-0.3652738,0.03087388,0.177445,9.994427,-0.0227121,-0.06529784,0.1818294,9.72963
"1.91 sec",1.094164,0.7107961,1.255238,-6.958988,0.5354599,0.913229,-6.943397,0.4437545,0.6150592,-0.07180433,0.9392781,-0.01781617,-0.009604362,-0.4087613,-1.010491,0.1723136,9.730771,-0.006013753,-0.07481556,0.1987998,8.639883
"1.92 sec",1.094164,0.7107961,1.255238,-6.958988,0.5399067,0.9193845,-6.944059,0.4457248,0.6161623,-0.06035246,0.9412587,-0.03008143,-0.01149358,-0.02304565,-1.318968,0.1835941,8.641536,0.01282778,-0.09362385,0.2235079,7.726522
"1.93 sec",1.094164,0.7107961,1.255238,-6.958988,0.5443754,0.9255546,-6.94456,0.4480848,0.6180179,-0.03969313,0.9434793,-0.04483041,-0.008833957,0.463352,-1.515093,0.2095713,7.727514,0.04106533,-0.09976301,0.2386895,7.36267
"1.94 sec",1.094164,0.7107961,1.255238,-6.958988,0.548869,0.9317482,-6.944835,0.4506531,0.6209206,-0.01521034,0.9458523,-0.0596774,-0.0005035929,1.065605,-1.396266,0.2368199,7.363278,0.0786366,-0.09536599,0.2321388,7.537998
"1.95 sec",1.094164,0.7107961,1.255238,-6.958988,0.5533884,0.9379778,-6.944872,0.4531583,0.6252375,0.007720263,0.9481682,-0.07163543,0.01457338,1.763024,-1.000883,0.2452521,7.534336,0.09028767,-0.01247954,0.2378596,8.0961
"1.96 sec",1.094164,0.7107961,1.255238,-6.958988,0.5579302,0.9442589,-6.944707,0.4550042,0.6311186,0.02523981,0.9505442,-0.07036624,0.03313563,1.860804,0.8947554,0.2085291,8.095603,0.07711682,0.008395116,0.2087361,9.052438
"1.97 sec",1.094164,0.7107961,1.255238,-6.958988,0.5624834,0.9506045,-6.944413,0.4553109,0.6379785,0.03332321,0.9526572,-0.05625457,0.04855217,1.276719,1.708379,0.1267481,9.04937,0.005226902,0.04949726,0.2020807,9.487629
"1.98 sec",1.094164,0.7107961,1.255238,-6.958988,0.5670305,0.9570173,-6.944061,0.4538819,0.6443179,0.03688425,0.954684,-0.03445517,0.05057859,-0.5191573,2.410569,0.07959777,9.487224,-0.03261743,0.05712382,0.1994585,9.74385
"1.99 sec",1.094164,0.7107961,1.255238,-6.958988,0.5715579,0.9634842,-6.943688,0.4515389,0.6486301,0.03773808,0.956665,-0.01037134,0.03797336,-1.697135,2.305213,0.1100174,9.742711,-0.0640051,0.0563452,0.1988956,9.883949
"2 sec",1.116639,0.7477986,1.321762,-6.966777,0.5760615,0.9699807,-6.943314,0.4492727,0.6501818,0.03707632,0.9586319,0.01024274,0.01663078,-2.331459,1.806955,0.1666757,9.882577,-0.07623089,0.03879491,0.2084569,10.34213
"2.01 sec",1.116639,0.7477986,1.321762,-6.966777,0.580546,0.9764786,-6.942968,0.4478309,0.6489664,0.0318932,0.9606947,0.02365087,-0.007173455,-2.308762,0.9628339,0.2141273,10.34172,-0.07324875,0.01064033,0.2186859,11.06772
"2.02 sec",1.116639,0.7477986,1.321762,-6.966777,0.5850227,0.982952,-6.94271,0.4477845,0.6454433,0.01955996,0.9628714,0.02753287,-0.0277212,-1.796151,-0.02647481,0.2179433,11.06628,-0.05426271,0.02040668,0.2250461,11.5611
"2.03 sec",1.116639,0.7477986,1.321762,-6.966777,0.5895071,0.9893827,-6.9426,0.4493158,0.640565,0.00228978,0.9651192,0.02659997,-0.04080185,-0.9263191,-0.1476153,0.2191935,11.56069,-0.03396814,0.01409061,0.2304581,11.37398
"2.04 sec",1.116639,0.7477986,1.321762,-6.966777,0.594012,0.9957623,-6.942655,0.4517484,0.6353489,-0.01325099,0.9674215,0.02437436,-0.04514329,-0.09012076,-0.2794431,0.2180154,11.37832,-0.01483217,0.006020458,0.2340979,11.21467
"2.05 sec",1.116639,0.7477986,1.321762,-6.966777,0.5985427,1.002091,-6.942858,0.4543886,0.6304513,-0.02720092,0.96976,0.02073238,-0.04208796,0.5505804,-0.4211159,0.216406,11.21681,-0.0003789921,-0.002226063,0.2342302,11.05489
"2.06 sec",1.116639,0.7477986,1.321762,-6.966777,0.6030988,1.008374,-6.943192,0.4567493,0.626381,-0.03959015,0.9721003,0.01575582,-0.03413562,0.9167744,-0.5404378,0.2156311,11.05716,0.008745772,-0.009457147,0.2304384,10.88676
"2.07 sec",1.116639,0.7477986,1.321762,-6.966777,0.6076759,1.014622,-6.943642,0.4585868,0.6234378,-0.05034481,0.9744036,0.009838932,-0.02401056,1.025228,-0.6093132,0.2155396,10.88945,0.01169512,-0.01498344,0.2239214,10.68981
"2.08 sec",1.116639,0.7477986,1.321762,-6.966777,0.6122686,1.020847,-6.94419,0.4598642,0.6217059,-0.05917065,0.9766429,0.003570399,-0.01412395,0.9153228,-0.6161005,0.2149467,10.69428,0.007428579,-0.01552485,0.2164149,10.46758
"2.09 sec",1.116639,0.7477986,1.321762,-6.966777,0.6168717,1.02706,-6.944815,0.4607004,0.6210593,-0.06579719,0.9788086,-0.002079896,-0.006506293,0.6220521,-0.5074086,0.2129506,10.47385,-0.004566205,-0.01217512,0.2088696,10.28059
"2.1 sec",1.033097,0.8221178,1.369735,-6.963699,0.6214818,1.033271,-6.945497,0.4613105,0.6211753,-0.0705497,0.9809003,-0.006082217,-0.002814701,0.1821966,-0.310312,0.2079614,10.28407,-0.01758364,-0.04579334,0.2022135,9.968499
"2.11 sec",1.033097,0.8221178,1.369735,-6.963699,0.6260982,1.039485,-6.946211,0.4620347,0.6217518,-0.07221091,0.9829261,-0.01243479,-0.00352889,-0.2366587,-0.8266807,0.1993783,9.969387,-0.01360966,-0.04803426,0.1935389,9.020512
"2.12 sec",1.033097,0.8221178,1.369735,-6.963699,0.630724,1.045707,-6.946896,0.4632344,0.6227756,-0.06454445,0.9848671,-0.02118781,-0.006043361,-0.2439067,-0.8689357,0.188361,9.023607,-0.0006171501,-0.08116689,0.1931629,7.935907
"2.13 sec",1.033097,0.8221178,1.369735,-6.963699,0.6353639,1.051942,-6.94745,0.4648505,0.6242554,-0.04605139,0.9867994,-0.03301405,-0.006802971,0.05041818,-1.341965,0.1839126,7.937437,0.01458739,-0.09403013,0.1953287,7.300844
"2.14 sec",1.033097,0.8221178,1.369735,-6.963699,0.640022,1.058195,-6.947786,0.4668199,0.6264786,-0.02106194,0.9887497,-0.04760222,-0.004075497,0.4242201,-1.471495,0.1888111,7.301359,0.03695103,-0.09897164,0.1914539,7.263261
"2.15 sec",1.033097,0.8221178,1.369735,-6.963699,0.6447012,1.064475,-6.947869,0.46906,0.62977,0.004505807,0.9906614,-0.06179539,0.003009766,0.886173,-1.317647,0.1944715,7.263833,0.06408318,-0.09115591,0.1702433,7.743284
"2.16 sec",1.033097,0.8221178,1.369735,-6.963699,0.6494036,1.070795,-6.947719,0.4713596,0.6345029,0.02547594,0.9923682,-0.0725771,0.01499726,1.374857,-0.8625787,0.1821413,7.742857,0.07350071,-0.06270029,0.1551463,8.556919
"2.17 sec",1.033097,0.8221178,1.369735,-6.963699,0.6541275,1.077171,-6.947398,0.4732713,0.6409022,0.03847755,0.9939244,-0.07626271,0.02941255,1.439489,-0.01030315,0.1550349,8.555329,0.06271499,-0.04605564,0.136546,10.12158
"2.18 sec",1.033097,0.8221178,1.369735,-6.963699,0.6588666,1.083621,-6.947023,0.4743642,0.6491969,0.03611158,0.9953012,-0.0728339,0.04125782,0.9744149,0.5744401,0.1128641,10.12077,-0.007871516,-0.0191693,0.1255989,11.03102
"2.19 sec",1.033097,0.8221178,1.369735,-6.963699,0.6636116,1.090158,-6.946719,0.4745405,0.658063,0.02449236,0.9965625,-0.06340865,0.04092219,-0.6999621,1.155721,0.07773777,11.0285,-0.04838109,0.0285808,0.119461,10.93906
"2.2 sec",1.051411,0.8630055,1.437222,-6.948393,0.6683573,1.096777,-6.946529,0.4746474,0.6652203,0.01341573,0.997748,-0.0462652,0.0265833,-1.852938,2.018006,0.06382518,10.93955,-0.07058598,0.03904754,0.123725,9.73326
"2.21 sec",1.051411,0.8630055,1.437222,-6.948393,0.6731061,1.103451,-6.946394,0.4752158,0.6690055,0.01395295,0.9989597,-0.02507424,0.004912378,-2.271922,2.090736,0.1109582,9.734253,-0.07924531,0.04919136,0.1288621,8.889503
"2.22 sec",1.051411,0.8630055,1.437222,-6.948393,0.6778636,1.110147,-6.94621,0.4764102,0.6698024,0.02295683,1.000222,-0.00475257,-0.01757093,-2.124703,1.895282,0.1600766,8.891423,-0.06484264,0.04439493,0.1340235,8.409799
"2.23 sec",1.051411,0.8630055,1.437222,-6.948393,0.682636,1.116839,-6.945912,0.4781398,0.668311,0.03686843,1.001544,0.01156913,-0.03492789,-1.392246,1.370264,0.1809542,8.410216,-0.0342494,0.04211618,0.1387309,8.264497
"2.24 sec",1.051411,0.8630055,1.437222,-6.948393,0.6874272,1.123508,-6.945466,0.48012,0.6653222,0.05236498,1.002924,0.02280762,-0.04260436,-0.3128624,0.8937169,0.1767581,8.266358,-0.01157707,0.02822081,0.1430026,8.440268
"2.25 sec",1.051411,0.8630055,1.437222,-6.948393,0.6922379,1.130143,-6.944873,0.4819488,0.6615473,0.06621061,1.004352,0.02846223,-0.04071631,0.5135289,0.3058424,0.155608,8.437294,-0.003381728,0.005458719,0.1435757,9.044648
"2.26 sec",1.051411,0.8630055,1.437222,-6.948393,0.6970651,1.136738,-6.94417,0.4834142,0.6575662,0.07411963,1.005787,0.02752072,-0.03348042,0.8252029,-0.369502,0.1310786,9.044028,-0.005738071,-0.02565339,0.1379902,10.11981
"2.27 sec",1.051411,0.8630055,1.437222,-6.948393,0.7019055,1.143294,-6.943442,0.4846307,0.6539323,0.07137027,1.007167,0.01928855,-0.02562691,0.7161564,-1.098348,0.1094522,10.11816,-0.006394109,-0.001942504,0.1287639,11.05659
"2.28 sec",1.051411,0.8630055,1.437222,-6.948393,0.706758,1.149819,-6.942788,0.485854,0.6512531,0.05918454,1.008456,0.01070193,-0.0193805,0.5303477,-0.6605991,0.1157881,11.05546,-0.01135088,0.03942407,0.1216833,10.89449
"2.29 sec",1.051411,0.8630055,1.437222,-6.948393,0.7116219,1.156322,-6.942251,0.4868805,0.6493611,0.04832038,1.009677,0.01037174,-0.01547903,0.2748978,0.3902008,0.1277849,10.89725,-0.02792042,0.04495072,0.1153682,10.34919
"2.3 sec",1.063954,0.9067425,1.505461,-6.928079,0.716494,1.162806,-6.941796,0.4874764,0.6473738,0.04280898,1.010834,0.01658638,-0.01538449,-0.1735386,0.7459703,0.1267833,10.34967,-0.02016645,-0.006022834,0.1167196,8.958458
"2.31 sec",1.063954,0.9067425,1.505461,-6.928079,0.7213706,1.169269,-6.941328,0.487842,0.6452167,0.05099453,1.012,0.01812727,-0.01689797,-0.1327984,-0.2573047,0.1123838,8.959298,-0.006873248,-0.02803385,0.1190499,8.412846
"2.32 sec",1.063954,0.9067425,1.505461,-6.928079,0.7262514,1.175712,-6.94075,0.488369,0.6433693,0.06484818,1.013189,0.01132677,-0.01646226,0.158127,-0.9378296,0.1035457,8.413382,0.01775939,-0.0199601,0.1469992,8.652316
"2.33 sec",1.063954,0.9067425,1.505461,-6.928079,0.7311388,1.182139,-6.940042,0.4891198,0.642211,0.07649732,1.014643,0.002458212,-0.01159181,0.6858431,-0.8138323,0.1372899,8.650918,0.03393549,-0.02472625,0.162898,8.976712
"2.34 sec",1.063954,0.9067425,1.505461,-6.928079,0.7360334,1.188559,-6.939235,0.489746,0.6419793,0.0849165,1.01626,-0.005244435,-0.002465297,1.024259,-0.7063098,0.1607818,8.975669,0.039227,-0.03049063,0.1604195,9.425232
"2.35 sec",1.063954,0.9067425,1.505461,-6.928079,0.7409323,1.194982,-6.938365,0.4899527,0.6428192,0.08888396,1.017862,-0.01212931,0.008097002,1.031029,-0.6431628,0.1652757,9.424828,0.02132796,-0.0181001,0.1472616,9.974263
"2.36 sec",1.063954,0.9067425,1.505461,-6.928079,0.7458308,1.201419,-6.937484,0.4896815,0.6446934,0.08740038,1.019339,-0.01642503,0.01537807,0.4926335,-0.2614804,0.1512082,9.973728,-0.02365923,-0.01549931,0.1403088,10.25036
"2.37 sec",1.063954,0.9067425,1.505461,-6.928079,0.7507254,1.207878,-6.936631,0.4892651,0.6470271,0.08309492,1.020746,-0.01778898,0.01356693,-0.6249147,-0.04160478,0.1408794,10.2493,-0.05434693,-0.007565854,0.1364395,10.306
"2.38 sec",1.063954,0.9067425,1.505461,-6.928079,0.7556182,1.214359,-6.935824,0.4894581,0.6490232,0.07816938,1.022112,-0.01683644,0.002157622,-1.433119,0.185243,0.13589,10.30526,-0.07479016,0.006296657,0.1354247,10.16889
"2.39 sec",1.063954,0.9067425,1.505461,-6.928079,0.7605184,1.220855,-6.935061,0.4907888,0.6500241,0.07456077,1.023463,-0.01310288,-0.01481105,-1.7928,0.4815409,0.1421202,10.17027,-0.08449406,0.0169997,0.1360027,9.923165
"2.4 sec",1.075407,0.9516563,1.571992,-6.952815,0.765438,1.227355,-6.934321,0.4933423,0.6496512,0.07340118,1.024817,-0.006890426,-0.03293661,-1.739004,0.6806007,0.1578825,9.924485,-0.07355628,-0.004152112,0.1423456,10.00376
"2.41 sec",1.075407,0.9516563,1.571992,-6.952815,0.7703891,1.233843,-6.933597,0.4970449,0.6479225,0.07156823,1.026234,-0.002739326,-0.04737362,-1.175194,0.2054827,0.1521055,10.00333,-0.05617944,-0.03321464,0.1486075,10.27414
"2.42 sec",1.075407,0.9516563,1.571992,-6.952815,0.7753825,1.24031,-6.932903,0.5017677,0.645464,0.06713443,1.027717,-0.005098291,-0.05495984,-0.4400512,-0.536124,0.1194571,10.2731,-0.03498472,-0.006687223,0.1547133,10.98261
"2.43 sec",1.075407,0.9516563,1.571992,-6.952815,0.780428,1.246752,-6.932287,0.5073823,0.6429726,0.05576215,1.029262,-0.008233348,-0.0550955,0.2778673,-0.1614508,0.1460174,10.98136,-0.02206172,0.04167874,0.1590609,11.1338
"2.44 sec",1.075407,0.9516563,1.571992,-6.952815,0.7855296,1.25317,-6.931795,0.5127912,0.6405838,0.04272025,1.030851,-0.00327845,-0.04970334,0.6926565,0.9026296,0.2044681,11.13215,-0.01330182,0.04243982,0.1612087,10.75137
"2.45 sec",1.075407,0.9516563,1.571992,-6.952815,0.7906792,1.259563,-6.931415,0.5169187,0.6378902,0.03332281,1.032467,0.007128428,-0.04159645,0.851984,1.071727,0.2064246,10.75198,-0.007529717,0.03002758,0.1604498,10.5825
"2.46 sec",1.075407,0.9516563,1.571992,-6.952815,0.7958632,1.265927,-6.93112,0.5196638,0.6348009,0.02563658,1.034075,0.01581345,-0.0328633,0.843512,0.6793675,0.1831586,10.58581,-0.006927481,0.02310147,0.1566588,10.71782
"2.47 sec",1.075407,0.9516563,1.571992,-6.952815,0.8010689,1.272258,-6.930909,0.5213118,0.6315216,0.01665515,1.035646,0.02048044,-0.02511885,0.6864104,0.2929709,0.1641481,10.71675,-0.01036365,0.03062913,0.1510545,10.98048
"2.48 sec",1.075407,0.9516563,1.571992,-6.952815,0.8062869,1.278557,-6.9308,0.5221758,0.6282145,0.005071057,1.03716,0.02331653,-0.01955073,0.4372621,0.2583216,0.1561549,10.97934,-0.0157652,0.03498659,0.1454177,11.1624
"2.49 sec",1.075407,0.9516563,1.571992,-6.952815,0.8115106,1.284822,-6.930816,0.5224938,0.624827,-0.008354879,1.038618,0.02613215,-0.01664874,0.1708086,0.2796949,0.1500725,11.15919,-0.02140306,0.0294327,0.1403633,11.2957
"2.5 sec",1.091625,0.996945,1.637904,-6.962804,0.8167357,1.291053,-6.930973,0.5225175,0.6212459,-0.02312036,1.040024,0.02809065,-0.01622696,-0.05348635,0.1259696,0.142368,11.2945,-0.01498149,-0.02110749,0.1428348,12.27715
"2.51 sec",1.091625,0.996945,1.637904,-6.962804,0.8219611,1.297246,-6.931325,0.5226087,0.6174411,-0.04748151,1.041451,0.02307738,-0.0163602,0.008346629,-0.906634,0.1279759,12.27373,0.0101626,-0.03513183,0.1628968,10.4676
"2.52 sec",1.091625,0.996945,1.637904,-6.962804,0.8271891,1.303407,-6.931837,0.5230593,0.6150452,-0.05449144,1.043068,0.01125064,-0.0132131,0.5033823,-1.318007,0.1451512,10.46847,0.0192741,-0.04309148,0.1680111,10.50443
"2.53 sec",1.091625,0.996945,1.637904,-6.962804,0.8324231,1.309552,-6.932416,0.5237423,0.6141104,-0.06141927,1.044741,-0.002424569,-0.006618759,0.7334908,-1.339611,0.1586428,10.50385,0.0283179,-0.0412608,0.1682308,9.917623
"2.54 sec",1.091625,0.996945,1.637904,-6.962804,0.8376639,1.315695,-6.933038,0.5243989,0.6147235,-0.06264069,1.046418,-0.014421,0.001533537,0.8352519,-1.049203,0.1693673,9.918302,0.02943945,-0.04112393,0.1508349,9.359083
"2.55 sec",1.091625,0.996945,1.637904,-6.962804,0.8429103,1.32185,-6.933643,0.5248441,0.6165387,-0.05825558,1.047932,-0.023391,0.009426178,0.726421,-0.7502768,0.1575868,9.359594,0.03154172,-0.06301925,0.1153722,8.890439
"2.56 sec",1.091625,0.996945,1.637904,-6.962804,0.84816,1.328028,-6.93418,0.5250812,0.619242,-0.04913833,1.049101,-0.03220329,0.01603256,0.5912542,-0.9257509,0.1298886,8.890847,0.04536087,-0.06181634,0.06497082,8.485974
"2.57 sec",1.091625,0.996945,1.637904,-6.962804,0.8534116,1.334237,-6.934606,0.5252096,0.6227565,-0.0359285,1.049773,-0.04083014,0.02272512,0.6959841,-0.7766103,0.08230517,8.486513,0.05218049,-0.04256487,0.02420056,8.448339
"2.58 sec",1.091625,0.996945,1.637904,-6.962804,0.8586634,1.340486,-6.934897,0.525109,0.6270554,-0.02221162,1.050034,-0.04537583,0.03002427,0.7216518,-0.213175,0.03050239,8.449511,0.03729879,-0.004930349,0.003291094,8.828228
"2.59 sec",1.091625,0.996945,1.637904,-6.962804,0.8639122,1.346781,-6.935068,0.5245454,0.6318862,-0.01216257,1.050079,-0.04186021,0.03489215,0.3057784,0.7179548,-0.0216571,8.827633,-0.0125699,0.02504531,0.002116234,9.519954
"2.6 sec",1.104001,1.0456,1.703259,-6.943287,0.8691525,1.353124,-6.935173,0.5234767,0.6364979,-0.008966264,1.050098,-0.03006092,0.03107119,-0.8300316,1.436857,-0.04312903,9.518737,-0.03256407,-0.004810101,0.01257358,8.807268
"2.61 sec",1.104001,1.0456,1.703259,-6.943287,0.8743824,1.359504,-6.935214,0.5225792,0.6394606,0.0009342001,1.050212,-0.01909839,0.01903042,-1.400935,0.8138843,-0.003516104,8.808307,-0.03959424,-0.01575946,0.01961244,8.543621
"2.62 sec",1.104001,1.0456,1.703259,-6.943287,0.8796065,1.365908,-6.935142,0.5223962,0.6411592,0.01354837,1.0504,-0.01416741,0.004385579,-1.438646,0.2528542,0.01829961,8.544859,-0.02605708,-0.03246838,0.01720866,8.537257
"2.63 sec",1.104001,1.0456,1.703259,-6.943287,0.8848334,1.372325,-6.934943,0.5231302,0.6421244,0.0262835,1.050574,-0.01488729,-0.007189003,-0.9124053,-0.2887667,0.01526234,8.539409,-0.008602554,-0.05735955,0.04968077,8.738326
"2.64 sec",1.104001,1.0456,1.703259,-6.943287,0.8900719,1.378751,-6.934626,0.5246841,0.6430149,0.03706902,1.051056,-0.02144294,-0.01244766,-0.2381992,-0.8740667,0.03890827,8.734982,0.01331718,-0.08244987,0.09170871,9.211454
