Time,desired yaw,desired x,desired y,desired z,WorldPosition_1,WorldPosition_2,WorldPosition_3,WorldVelocity_1,WorldVelocity_2,WorldVelocity_3,EulerZYX_1,EulerZYX_2,EulerZYX_3,BodyAngularRateRPY_1,BodyAngularRateRPY_2,BodyAngularRateRPY_3,Thrust,Roll CS,Pitch CS,Yaw CS,Thrust CS
"0 sec",0.9948376,0.2132964,0.3284477,-6.979475,0,0,-7,0,0,0,0,0,0,0,0,0,0,0.1680236,-0.170447,0.5,5.979641
"0.01 sec",0.9948376,0.2132964,0.3284477,-6.979475,1.149419e-06,1.137331e-06,-6.999794,0.0004343654,0.0004302935,0.03984202,0.004721938,-0.01987457,0.0195407,3.194482,-3.232759,0.558138,5.979239,0.1672208,-0.1712344,0.5,5.979641
"0.02 sec",0.9948376,0.2132964,0.3284477,-6.979475,1.482734e-05,1.472992e-05,-6.999203,0.002655169,0.002643018,0.07823418,0.009658886,-0.05565576,0.05446329,3.565264,-3.605745,0.6899351,5.979245,0.1663776,-0.1720534,0.5,5.979641
"0.03 sec",0.9948376,0.2132964,0.3284477,-6.979475,6.125257e-05,6.106825e-05,-6.998228,0.006957633,0.006958387,0.1168547,0.01460128,-0.08956756,0.08720598,2.987383,-3.01036,0.7583908,5.979242,0.1655294,-0.1728689,0.5,5.979641
"0.04 sec",0.9948376,0.2132964,0.3284477,-6.979475,0.0001598131,0.0001598949,-6.996865,0.01300728,0.0130694,0.1557832,0.01956533,-0.1164162,0.1127276,2.225932,-2.231068,0.7497648,5.979246,0.1047867,-0.1095893,0.5,9.371803
"0.05 sec",0.9948376,0.2132964,0.3284477,-6.979475,0.0003443869,0.0003459638,-6.99527,0.02416684,0.02442133,0.1624108,0.024556,-0.1284856,0.123886,0.415345,-0.3435443,0.542402,9.371603,0.07030205,-0.07403187,0.5,13.88222
"0.06 sec",0.9948376,0.2132964,0.3284477,-6.979475,0.0006705024,0.0006765732,-6.993828,0.0410834,0.04174682,0.1249917,0.02955442,-0.1244164,0.1196113,-0.8720035,0.9931972,0.3798866,13.88192,0.06993146,-0.07438195,0.5,13.88222
"0.07 sec",0.9948376,0.2132964,0.3284477,-6.979475,0.001161949,0.001177033,-6.992772,0.05694854,0.05809594,0.08615222,0.03454791,-0.113322,0.1086376,-1.100073,1.218833,0.3660699,13.87919,0.06955951,-0.07472983,0.5,13.88222
"0.08 sec",0.9948376,0.2132964,0.3284477,-6.979475,0.001804194,0.001833321,-6.992106,0.07124695,0.07291095,0.04696736,0.03954125,-0.1022691,0.09765737,-0.9562329,1.051956,0.3961472,13.88141,0.06918585,-0.07507581,0.5,13.88222
"0.09 sec",0.9948376,0.2132964,0.3284477,-6.979475,0.002582289,0.002630677,-6.991833,0.08416966,0.0863574,0.00750439,0.04453683,-0.09346006,0.08873992,-0.7254189,0.7943464,0.4287806,13.88122,0.07348004,-0.08056704,0.5,13.00143
"0.1 sec",1.045172,0.2000935,0.3425097,-7.007611,0.003480557,0.003553254,-6.991915,0.09534036,0.09801132,-0.02363039,0.04953476,-0.08774448,0.0826665,-0.4238189,0.4612269,0.4614508,13.00305,0.06843285,-0.07576258,0.5,13.88222
"0.11 sec",1.045172,0.2000935,0.3425097,-7.007611,0.004490529,0.004592439,-6.992348,0.1065816,0.1097508,-0.0631712,0.05453383,-0.08398937,0.0784067,-0.3359796,0.3647114,0.4710457,13.88005,0.06805363,-0.0761033,0.5,13.88222
"0.12 sec",1.045172,0.2000935,0.3425097,-7.007611,0.005610614,0.005746633,-6.993179,0.1173678,0.1210174,-0.1030147,0.05953328,-0.08124214,0.07509743,-0.243116,0.2633478,0.4799062,13.87874,0.06767268,-0.0764421,0.5,13.88222
"0.13 sec",1.045172,0.2000935,0.3425097,-7.007611,0.006836745,0.007011584,-6.994408,0.1278115,0.1319229,-0.1429125,0.064533,-0.07941435,0.07265322,-0.166782,0.180288,0.4866019,13.88138,0.06729002,-0.07677902,0.5,13.88222
"0.14 sec",1.045172,0.2000935,0.3425097,-7.007611,0.008166066,0.008384259,-6.996037,0.1380214,0.1425782,-0.1828481,0.06953287,-0.07829802,0.07087877,-0.1104334,0.1192027,0.4912512,13.88124,0.06868716,-0.07917796,0.5,13.52271
"0.15 sec",1.045172,0.2000935,0.3425097,-7.007611,0.009595453,0.00986133,-6.998048,0.1478349,0.1528126,-0.2193221,0.07453284,-0.07792909,0.0697899,-0.03738126,0.03788017,0.4970507,13.52345,0.1549361,-0.1824054,0.5,5.979641
"0.16 sec",1.045172,0.2000935,0.3425097,-7.007611,0.01109738,0.011414,-7.000067,0.152531,0.1576942,-0.1825793,0.07952653,-0.09009042,0.07926551,1.640862,-1.940805,0.652194,5.979937,0.1540284,-0.1831701,0.5,5.97964
"0.17 sec",1.045172,0.2000935,0.3425097,-7.007611,0.01264944,0.01301857,-7.001699,0.1580783,0.1634185,-0.1437397,0.08450743,-0.1120434,0.09685338,1.842551,-2.175949,0.7086067,5.981254,0.1531193,-0.1839281,0.5,5.979641
"0.18 sec",1.045172,0.2000935,0.3425097,-7.007611,0.01426285,0.01468632,-7.002941,0.1647858,0.1703165,-0.104655,0.08948994,-0.1329108,0.113355,1.546559,-1.820958,0.7046783,5.981603,0.162683,-0.08914975,0.5,5.911215
"0.19 sec",1.045172,0.2000935,0.3425097,-7.007611,0.01594738,0.01642785,-7.003788,0.1721449,0.1781348,-0.06470134,0.09448514,-0.13838,0.127352,1.349427,0.4477877,0.4421289,5.912309,0.1746845,0.03935917,0.5,5.904359
"0.2 sec",0.9975719,0.2303306,0.3476363,-6.994742,0.01770385,0.01825151,-7.004235,0.1789015,0.1867032,-0.0246275,0.09949833,-0.1155389,0.1400309,1.259485,3.497606,0.01060054,5.906298,0.1503609,-0.1861814,0.5,5.979641
"0.21 sec",0.9975719,0.2303306,0.3476363,-6.994742,0.0195204,0.02016422,-7.004284,0.1842921,0.1959133,0.01465541,0.1045049,-0.1044621,0.1479609,0.5291328,-0.4593673,0.5711407,5.978447,0.1494323,-0.1869244,0.5,5.979641
"0.22 sec",0.9975719,0.2303306,0.3476363,-6.994742,0.02139021,0.02217091,-7.003941,0.1897838,0.2054699,0.05398413,0.1095036,-0.1170756,0.1507761,0.1935454,-1.598032,0.7449868,5.978844,0.1485015,-0.1876615,0.5,5.979641
"0.23 sec",0.9975719,0.2303306,0.3476363,-6.994742,0.02331907,0.02427435,-7.003204,0.1961527,0.2152462,0.09343778,0.1145036,-0.1347371,0.1512354,0.05046512,-1.639368,0.7510987,5.978622,0.1475669,-0.188394,0.5,5.979641
"0.24 sec",0.9975719,0.2303306,0.3476363,-6.994742,0.02531644,0.0264763,-7.002072,0.2034675,0.2251639,0.1330256,0.1195046,-0.1506598,0.1506864,-0.002951985,-1.331523,0.7022901,5.978772,0.0902313,-0.1154266,0.5,9.695462
"0.25 sec",0.9975719,0.2303306,0.3476363,-6.994742,0.02741393,0.02880674,-7.000716,0.2162082,0.2409701,0.137295,0.1245056,-0.1544809,0.1431993,-1.089808,0.4078537,0.4401649,9.693557,0.0646311,-0.08333531,0.5,13.44058
"0.26 sec",0.9975719,0.2303306,0.3476363,-6.994742,0.02966308,0.03131966,-6.999501,0.2335497,0.2613979,0.1046687,0.1294972,-0.1442687,0.1275619,-1.686752,1.485867,0.3069533,13.43619,0.06216923,-0.08097839,0.5,13.88222
"0.27 sec",0.9975719,0.2303306,0.3476363,-6.994742,0.03208221,0.03402951,-6.998645,0.2499847,0.2801569,0.0663245,0.1344829,-0.1288626,0.1101735,-1.580159,1.585212,0.3221445,13.88177,0.06825519,-0.03449483,0.5,13.85047
"0.28 sec",0.9975719,0.2303306,0.3476363,-6.994742,0.03465583,0.03691452,-6.998175,0.2643231,0.2964763,0.02763199,0.1394682,-0.1092541,0.09616083,-1.116468,2.191448,0.2865604,13.86075,0.08594132,0.04789428,0.5,12.7598
"0.29 sec",0.9975719,0.2303306,0.3476363,-6.994742,0.03735395,0.03994718,-6.998043,0.2746474,0.3097853,-0.001027523,0.1444557,-0.07892083,0.08849464,-0.4169588,3.517157,0.1874063,12.76407,0.05211767,0.08180598,0.5,11.33106
"0.3 sec",1.04138,0.2380519,0.3813495,-6.983689,0.04013065,0.04309929,-6.998129,0.2799656,0.320374,-0.01597867,0.1494422,-0.04073608,0.08178208,-0.7650012,3.892534,0.1806086,11.33196,0.1409374,-0.1933775,0.5,5.979641
"0.31 sec",1.04138,0.2380519,0.3813495,-6.983689,0.04293717,0.0463297,-6.99811,0.2812692,0.3256194,0.02119213,0.154438,-0.0369453,0.08430865,0.9586006,-1.952127,0.66558,5.980121,0.166107,-0.04106778,0.5,5.896057
"0.32 sec",1.04138,0.2380519,0.3813495,-6.983689,0.04575802,0.04961357,-6.997701,0.2829813,0.3313178,0.0606119,0.1594296,-0.04861622,0.0990598,1.793735,-0.4959032,0.5506229,5.896561,0.1870653,0.09837983,0.5,5.941891
"0.33 sec",1.04138,0.2380519,0.3813495,-6.983689,0.04859641,0.05295983,-6.9969,0.2845167,0.3381093,0.09971558,0.1644427,-0.03459,0.1191961,2.104053,2.699144,0.1827715,5.941288,0.1394171,0.1005529,0.5,8.27694
"0.34 sec",1.04138,0.2380519,0.3813495,-6.983689,0.05144304,0.05639273,-6.995817,0.2843606,0.3486587,0.1163291,0.1694649,-0.004045713,0.1332425,0.8794829,3.219209,0.07448747,8.276368,0.09431312,0.06700237,0.5,12.2575
"0.35 sec",1.04138,0.2380519,0.3813495,-6.983689,0.05426952,0.05995846,-6.99476,0.2803843,0.364524,0.09398334,0.1744672,0.02197361,0.1336526,-0.5393425,2.136925,0.2165309,12.25566,0.08506901,0.05975396,0.5,13.63365
"0.36 sec",1.04138,0.2380519,0.3813495,-6.983689,0.05703921,0.06368776,-6.994002,0.2732043,0.3811152,0.057309,0.1794605,0.03804392,0.1250747,-1.060454,1.2585,0.3446892,13.63275,0.08723775,0.06063706,0.5,13.34187
"0.37 sec",1.04138,0.2380519,0.3813495,-6.983689,0.05972956,0.06757363,-6.993601,0.2646942,0.3957847,0.0229988,0.1844556,0.04742047,0.1148727,-0.9820856,0.7646747,0.4141657,13.34286,0.09488212,0.065286,0.5,12.31211
"0.38 sec",1.04138,0.2380519,0.3813495,-6.983689,0.06233378,0.07159375,-6.993494,0.2560633,0.4080306,-0.001372384,0.1894531,0.05348885,0.1072066,-0.627655,0.5573567,0.4420284,12.31503,0.01962262,0.08775537,0.5,11.14167
"0.39 sec",1.04138,0.2380519,0.3813495,-6.983689,0.06485304,0.07572512,-6.993573,0.2477249,0.417933,-0.01423573,0.1944486,0.06032813,0.09366373,-1.831354,0.8159035,0.4239503,11.1432,-0.072684,0.113667,0.5,10.31364
"0.4 sec",0.9777842,0.286211,0.4047857,-6.97519,0.0672896,0.0799414,-6.99374,0.239514,0.4247602,-0.01892681,0.1994332,0.07089749,0.06425214,-3.611152,1.230618,0.4184383,10.31485,0.1311637,-0.2000905,0.5,5.979641
"0.41 sec",0.9777842,0.286211,0.4047857,-6.97519,0.06966065,0.0842021,-6.993747,0.235057,0.4272677,0.01848307,0.2044374,0.04607363,0.05206301,0.4077795,-4.831919,0.7511134,5.981614,0.1301675,-0.200735,0.5,5.979641
"0.42 sec",0.9777842,0.286211,0.4047857,-6.97519,0.0719996,0.08848912,-6.99337,0.2332556,0.430362,0.05690174,0.209406,-0.009829059,0.06346467,1.572077,-5.778114,0.8635697,5.98011,0.1291753,-0.2013699,0.5,5.979641
"0.43 sec",0.9777842,0.286211,0.4047857,-6.97519,0.07433624,0.09281465,-6.992609,0.2345666,0.4350211,0.0954098,0.2143603,-0.06464563,0.07977663,1.631455,-4.93989,0.8913696,5.980726,0.07851268,-0.1227712,0.5,9.745893
"0.44 sec",0.9777842,0.286211,0.4047857,-6.97519,0.07670991,0.09721199,-6.991639,0.2407144,0.4447877,0.0977133,0.2193422,-0.09930648,0.08850022,0.3897364,-2.214389,0.6955718,9.743996,0.06088476,-0.09608476,0.5,12.46489
"0.45 sec",0.9777842,0.286211,0.4047857,-6.97519,0.07916786,0.1017273,-6.990782,0.251163,0.4583725,0.07305313,0.2243425,-0.1115823,0.08715788,-0.3925858,-0.4203072,0.5356396,12.46424,-0.0007951712,-0.07814208,0.5,13.10904
"0.46 sec",0.9777842,0.286211,0.4047857,-6.97519,0.08173816,0.1063808,-6.990209,0.2629334,0.472076,0.041481,0.2293413,-0.1102661,0.07441474,-1.718496,0.5661921,0.4556648,13.10816,-0.0950381,-0.05927651,0.5,12.65769
"0.47 sec",0.9777842,0.286211,0.4047857,-6.97519,0.08442414,0.1111579,-6.989932,0.2742091,0.4826891,0.01384378,0.2343278,-0.1013203,0.04480829,-3.575305,1.121487,0.4456097,12.65811,-0.1032432,-0.06372063,0.5,11.69087
"0.48 sec",0.9777842,0.286211,0.4047857,-6.97519,0.08721744,0.1160167,-6.989887,0.2843976,0.4882955,-0.004626294,0.239307,-0.09073774,0.007367443,-3.60427,0.9838206,0.4888183,11.69347,-0.1128081,-0.06890477,0.5,10.73593
"0.49 sec",0.9777842,0.286211,0.4047857,-6.97519,0.09010789,0.1209086,-6.98998,0.2936805,0.4894531,-0.0137174,0.2442921,-0.08266599,-0.02696801,-3.085959,0.6381958,0.5145918,10.73882,-0.1211492,-0.07322642,0.5,10.03018
"0.5 sec",1.028354,0.2954043,0.4614469,-7.004293,0.0930886,0.125795,-6.990128,0.3024856,0.4873552,-0.01568866,0.2492846,-0.07787955,-0.05537257,-2.474859,0.3104174,0.5159896,10.03137,0.05205974,-0.08781125,0.5,13.88222
"0.51 sec",1.028354,0.2954043,0.4614469,-7.004293,0.09617461,0.1306423,-6.990475,0.3147927,0.4820713,-0.05477156,0.2542835,-0.07713598,-0.05688651,1.494278,-0.138844,0.4913479,13.8803,0.05162069,-0.08806963,0.5,13.88222
"0.52 sec",1.028354,0.2954043,0.4614469,-7.004293,0.09938348,0.1354426,-6.991224,0.3269072,0.4784707,-0.09491444,0.2592816,-0.07906026,-0.03612947,2.438046,-0.2572461,0.48918,13.88091,0.05118044,-0.08832576,0.5,13.88222
"0.53 sec",1.028354,0.2954043,0.4614469,-7.004293,0.1027111,0.1402227,-6.992374,0.3385262,0.4781075,-0.1351456,0.2642787,-0.0815158,-0.01258018,2.255904,-0.2443377,0.4950352,13.88114,0.06733643,-0.02789703,0.5,13.84676
"0.54 sec",1.028354,0.2954043,0.4614469,-7.004293,0.1061513,0.145015,-6.993925,0.3492646,0.4808145,-0.1750753,0.2692833,-0.07663795,0.00909134,2.072124,0.9613642,0.4907695,13.84741,0.09033833,0.05125621,0.5,13.62591
"0.55 sec",1.028354,0.2954043,0.4614469,-7.004293,0.1096878,0.1498467,-6.995865,0.3574585,0.4858595,-0.2129442,0.2743036,-0.05644095,0.0299236,2.048583,2.65913,0.4225177,13.63314,0.2077734,0.118502,0.5,5.979641
"0.56 sec",1.028354,0.2954043,0.4614469,-7.004293,0.1132733,0.1547211,-6.997822,0.3591148,0.4891532,-0.1764862,0.2793594,-0.02135883,0.06195076,3.865746,3.951396,0.2634121,5.980948,0.2083685,0.117442,0.5,5.979641
"0.57 sec",1.028354,0.2954043,0.4614469,-7.004293,0.1168606,0.1596348,-6.999394,0.3578771,0.4938566,-0.1379771,0.2844352,0.01665339,0.1005757,3.678998,3.571034,0.1489582,5.980645,0.2089605,0.1163745,0.5,5.979641
"0.58 sec",1.028354,0.2954043,0.4614469,-7.004293,0.120422,0.1646032,-7.00058,0.3540083,0.5000442,-0.09922133,0.2894905,0.04794966,0.1338407,2.901847,2.750118,0.1379014,5.980518,0.1769074,0.1252602,0.5,5.948724
"0.59 sec",1.028354,0.2954043,0.4614469,-7.004293,0.1239341,0.1696392,-7.001376,0.3481135,0.5072915,-0.05987353,0.2945189,0.07201892,0.1552379,1.470191,2.144166,0.1709812,5.958598,-0.04032453,0.1900045,0.5,5.921291
"0.6 sec",0.9811391,0.3452861,0.5004398,-7.017163,0.1273795,0.174749,-7.001776,0.3407801,0.5144271,-0.02010278,0.2995026,0.09744572,0.1409056,-3.407065,2.774461,0.1045583,5.921917,0.04759237,-0.09030608,0.5,13.88222
"0.61 sec",0.9811391,0.3452861,0.5004398,-7.017163,0.1306976,0.1799569,-7.002152,0.3229206,0.5267537,-0.05704623,0.3045063,0.09088106,0.1112952,-2.600434,-2.848275,0.8229897,13.88087,0.04714052,-0.0905423,0.5,13.88222
"0.62 sec",0.9811391,0.3452861,0.5004398,-7.017163,0.1338529,0.1852763,-7.00292,0.3091203,0.53689,-0.0966974,0.309547,0.05348762,0.08952793,-1.846975,-4.05716,0.8693601,13.88126,0.04668415,-0.09077798,0.5,13.88222
"0.63 sec",0.9811391,0.3452861,0.5004398,-7.017163,0.1369001,0.1906922,-7.004087,0.3012776,0.5462295,-0.1368725,0.3145785,0.01373234,0.07432167,-1.253692,-3.645532,0.7752063,13.88133,0.07930031,-0.1567658,0.5,8.098128
"0.64 sec",0.9811391,0.3452861,0.5004398,-7.017163,0.1399031,0.1961828,-7.005384,0.2999281,0.5518854,-0.1210254,0.3195928,-0.02671681,0.06787556,-0.1934569,-4.051453,0.7769257,8.098427,0.1064251,-0.2141428,0.5,5.979641
"0.65 sec",0.9811391,0.3452861,0.5004398,-7.017163,0.1429077,0.2017252,-7.006407,0.3013859,0.5567447,-0.08304627,0.3245867,-0.07139632,0.07113663,0.707584,-4.465582,0.8167613,5.979907,0.1053626,-0.2146615,0.5,5.979641
"0.66 sec",0.9811391,0.3452861,0.5004398,-7.017163,0.1459387,0.2073217,-7.007044,0.3051897,0.5627597,-0.04431276,0.3295712,-0.1132723,0.07880849,0.8528088,-3.721109,0.790747,5.981478,-0.06759503,-0.1571555,0.5,5.895958
"0.67 sec",0.9811391,0.3452861,0.5004398,-7.017163,0.1490175,0.2129827,-7.007288,0.310844,0.5694011,-0.004543563,0.3345842,-0.139416,0.06614578,-2.534449,-1.669111,0.609165,5.896402,-0.1691094,-0.08274271,0.5,7.563218
"0.68 sec",0.9811391,0.3452861,0.5004398,-7.017163,0.1521693,0.2187133,-7.007213,0.3197653,0.5762771,0.01920532,0.3395901,-0.1422688,0.02419856,-5.002043,0.7036564,0.4764307,7.562387,-0.143079,-0.06890175,0.5,8.948594
"0.69 sec",0.9811391,0.3452861,0.5004398,-7.017163,0.1554238,0.2244998,-7.00697,0.3312211,0.5803195,0.02901523,0.34456,-0.1297819,-0.02354207,-4.283185,1.55493,0.5289948,8.94772,-0.1237825,-0.04424506,0.5,9.86351
"0.7 sec",1.023688,0.3628108,0.565228,-7.007865,0.1587991,0.2303066,-7.006676,0.343785,0.5803939,0.02952622,0.3495247,-0.1110135,-0.0594145,-2.849525,1.96519,0.6115944,9.860768,0.1000196,-0.2171719,0.5,5.979641
"0.71 sec",1.023688,0.3628108,0.565228,-7.007865,0.162275,0.2361037,-7.006197,0.3512744,0.5791,0.06731239,0.3545159,-0.1122188,-0.05704556,2.407636,-1.579298,0.4058584,5.981735,0.09894292,-0.2176583,0.5,5.979641
"0.72 sec",1.023688,0.3628108,0.565228,-7.007865,0.1658258,0.2418937,-7.00533,0.358973,0.579271,0.1061176,0.3594835,-0.133217,-0.02576619,3.57373,-2.384258,0.4301286,5.981511,0.09786904,-0.2181372,0.5,5.979641
"0.73 sec",1.023688,0.3628108,0.565228,-7.007865,0.1694563,0.2476973,-7.004074,0.3672302,0.581856,0.1450547,0.3644432,-0.1564024,0.008205229,3.240638,-2.169259,0.5082041,5.98068,0.05050829,-0.1131499,0.5,11.44642
"0.74 sec",1.023688,0.3628108,0.565228,-7.007865,0.1732088,0.253557,-7.002685,0.3834032,0.5906142,0.1316007,0.3694315,-0.1635351,0.03078122,1.620049,0.3253655,0.4837255,11.44614,0.05964821,-0.04636175,0.5,13.83208
"0.75 sec",1.023688,0.3628108,0.565228,-7.007865,0.1771358,0.2595253,-7.001554,0.4016379,0.6032405,0.09379181,0.3744394,-0.1481802,0.04274242,0.9831726,2.313178,0.3970335,13.83138,0.0935265,0.04088683,0.5,13.88222
"0.76 sec",1.023688,0.3628108,0.565228,-7.007865,0.1812292,0.2656226,-7.000813,0.4161839,0.6161656,0.05446135,0.3794576,-0.1133799,0.0537698,1.239996,4.14139,0.2769767,13.8816,0.09835701,0.04242474,0.5,13.23118
"0.77 sec",1.023688,0.3628108,0.565228,-7.007865,0.1854379,0.2718442,-7.000436,0.424589,0.6280627,0.02089665,0.3844818,-0.0722634,0.06561923,1.16715,3.937809,0.2432403,13.23191,0.01972806,0.08295513,0.5,11.87722
"0.78 sec",1.023688,0.3628108,0.565228,-7.007865,0.1897012,0.2781753,-7.000331,0.4273084,0.6378508,0.0003195111,0.3894852,-0.0323561,0.06665147,-0.5812789,3.882263,0.2405782,11.87817,-0.05060236,0.1214648,0.5,10.78261
"0.79 sec",1.023688,0.3628108,0.565228,-7.007865,0.1939709,0.2845891,-7.000379,0.4261068,0.6443246,-0.009477063,0.3944526,0.007107834,0.04973385,-2.357866,3.842988,0.3047463,10.78692,-0.05397754,0.1314681,0.5,9.988711
"0.8 sec",0.9730321,0.4188276,0.6150684,-6.988856,0.198215,0.2910478,-7.000484,0.4223152,0.6467798,-0.01135834,0.3994064,0.04296574,0.02457451,-2.529824,3.268583,0.4151202,9.990053,0.08915694,-0.2217917,0.5,5.979641
"0.81 sec",0.9730321,0.4188276,0.6150684,-6.988856,0.2024229,0.2975158,-7.000415,0.419471,0.6468164,0.02598491,0.4043989,0.03032981,0.0180895,0.6220113,-4.259688,0.5757313,5.981798,0.08805764,-0.2222243,0.5,5.979641
"0.82 sec",0.9730321,0.4188276,0.6150684,-6.988856,0.2066113,0.3039882,-6.999964,0.4186503,0.6479765,0.06431302,0.4093682,-0.02292244,0.02970357,1.473123,-5.774696,0.6674053,5.982091,0.0869614,-0.2226496,0.5,5.979641
"0.83 sec",0.9730321,0.4188276,0.6150684,-6.988856,0.2108051,0.3104824,-6.999129,0.4205677,0.6512372,0.1027442,0.4143265,-0.07852642,0.04444471,1.453447,-5.116342,0.7227932,5.980248,0.08586551,-0.2230685,0.5,5.979641
"0.84 sec",0.9730321,0.4188276,0.6150684,-6.988856,0.2150307,0.3170196,-6.997908,0.4249085,0.6564961,0.1414434,0.419297,-0.1240819,0.05710112,1.16795,-3.909398,0.7182525,5.980234,0.05641554,-0.1478456,0.5,8.978477
"0.85 sec",0.9730321,0.4188276,0.6150684,-6.988856,0.219323,0.3236329,-6.99644,0.4338992,0.6664672,0.1515475,0.4242881,-0.14887,0.06315639,0.3131465,-1.335726,0.5797832,8.976209,-0.008158953,-0.07671931,0.5,13.66033
"0.86 sec",0.9730321,0.4188276,0.6150684,-6.988856,0.2237364,0.330377,-6.995096,0.4489316,0.6823569,0.1160239,0.4292865,-0.1481026,0.05618222,-1.223576,1.080106,0.4338838,13.65995,-0.09562643,-0.03568657,0.5,13.88222
"0.87 sec",0.9730321,0.4188276,0.6150684,-6.988856,0.228301,0.337273,-6.994131,0.4638328,0.6961356,0.07685637,0.4342619,-0.129092,0.03131479,-3.110477,2.401404,0.4169759,13.8808,-0.05674218,0.04943794,0.5,13.84918
"0.88 sec",0.9730321,0.4188276,0.6150684,-6.988856,0.2330077,0.3442825,-6.993559,0.477038,0.7048535,0.03737552,0.4392129,-0.09493252,0.003439231,-2.347462,3.954286,0.4791475,13.85248,-0.03457336,0.09603342,0.5,13.88222
"0.89 sec",0.9730321,0.4188276,0.6150684,-6.988856,0.2378296,0.3513528,-6.993387,0.4865975,0.7083969,-0.002954241,0.444171,-0.05060559,-0.01425141,-1.238065,4.542329,0.5610306,13.8692,-0.0389997,0.1100997,0.5,12.13799
"0.9 sec",1.026181,0.4456947,0.693532,-6.976029,0.24272,0.3584362,-6.993537,0.4907309,0.707729,-0.02659534,0.4491476,-0.006484197,-0.02410032,-0.7477357,4.098929,0.5972858,12.13885,0.07811417,-0.2258584,0.5,5.979641
"0.91 sec",1.026181,0.4456947,0.693532,-6.976029,0.2476309,0.365507,-6.993627,0.491433,0.7065457,0.01014494,0.4541392,-0.009091252,-0.01637647,1.768031,-3.220343,0.4446783,5.979928,0.07699539,-0.2262364,0.5,5.979641
"0.92 sec",1.026181,0.4456947,0.693532,-6.976029,0.2525525,0.3725727,-6.993333,0.4931763,0.7069786,0.04848187,0.4590949,-0.05233926,0.004274769,2.198436,-4.874072,0.5147994,5.981685,0.07588289,-0.2266062,0.5,5.979641
"0.93 sec",1.026181,0.4456947,0.693532,-6.976029,0.2575011,0.3796546,-6.992656,0.4968726,0.7098033,0.08697306,0.4640453,-0.09987842,0.02467912,1.90559,-4.434954,0.6029165,5.980136,0.1233577,-0.08627029,0.5,6.742908
"0.94 sec",1.026181,0.4456947,0.693532,-6.976029,0.2624981,0.3867787,-6.991629,0.5026658,0.7153757,0.1183244,0.4690188,-0.1231534,0.04650221,2.36402,-0.758151,0.5309929,6.741717,0.1138871,0.03745468,0.5,11.82692
"0.95 sec",1.026181,0.4456947,0.693532,-6.976029,0.267573,0.3939921,-6.990529,0.5119613,0.7276437,0.1004797,0.474031,-0.1088508,0.06720775,1.872439,2.889528,0.3062204,11.82664,0.0975723,0.03150749,0.5,13.81899
"0.96 sec",1.026181,0.4456947,0.693532,-6.976029,0.2727296,0.4013435,-6.989715,0.5185747,0.7426292,0.06188574,0.4790533,-0.07655827,0.08092687,1.04473,3.356823,0.2296345,13.81867,0.05021176,0.05614356,0.5,13.72317
"0.97 sec",1.026181,0.4456947,0.693532,-6.976029,0.2779287,0.4088407,-6.989288,0.5205097,0.7564895,0.02345195,0.4840577,-0.04254466,0.08302124,-0.3186829,3.323395,0.2241745,13.72373,-0.03298868,0.1063783,0.5,12.72605
"0.98 sec",1.026181,0.4456947,0.693532,-6.976029,0.2831275,0.4164596,-6.989199,0.5187305,0.7666337,-0.005538649,0.4890309,-0.006802866,0.06767954,-2.267996,3.623802,0.2513571,12.72882,-0.03604938,0.1183827,0.5,11.45949
"0.99 sec",1.026181,0.4456947,0.693532,-6.976029,0.2882961,0.4241549,-6.989339,0.5146266,0.7716693,-0.02216606,0.4939871,0.02789704,0.04298343,-2.502908,3.239073,0.3568024,11.46055,-0.03905531,0.1306436,0.5,10.40608
"1 sec",1.072742,0.4807412,0.7763659,-6.983935,0.2934161,0.4318782,-6.989593,0.50912,0.7723631,-0.02824195,0.4989507,0.05787501,0.01958274,-2.158921,2.715485,0.4430825,10.41035,0.0287876,-0.09791825,0.5,13.88222
"1.01 sec",1.072742,0.4807412,0.7763659,-6.983935,0.2984658,0.4395904,-6.990068,0.5009692,0.7698848,-0.06781009,0.5039468,0.0548571,0.008771261,-0.3502481,-2.322286,0.5200265,13.88028,0.02829882,-0.09806021,0.5,13.88222
"1.02 sec",1.072742,0.4807412,0.7763659,-6.983935,0.303445,0.447279,-6.990949,0.495499,0.7681993,-0.1084085,0.5089459,0.02406661,0.009193667,0.2747628,-3.440357,0.5310079,13.88075,0.03080584,-0.1088285,0.5,12.53212
"1.03 sec",1.072742,0.4807412,0.7763659,-6.983935,0.3083899,0.4549629,-6.992173,0.4940891,0.7690055,-0.1359583,0.5139388,-0.01064004,0.01325057,0.4727566,-3.318872,0.5432033,12.53314,0.0591273,-0.1526955,0.5,7.929983
"1.04 sec",1.072742,0.4807412,0.7763659,-6.983935,0.3133355,0.4626628,-6.99345,0.4953717,0.7712842,-0.1182909,0.5189253,-0.04575346,0.02114382,0.9933976,-3.461847,0.5711125,7.932222,0.2172256,0.05088275,0.5,6.153202
"1.05 sec",1.072742,0.4807412,0.7763659,-6.983935,0.318299,0.4703913,-6.994454,0.4972311,0.7746932,-0.0820546,0.5239174,-0.05392301,0.04937428,3.97533,1.042282,0.450142,6.154122,0.2221533,0.06048448,0.5,6.200421
"1.06 sec",1.072742,0.4807412,0.7763659,-6.983935,0.3232745,0.4781627,-6.995093,0.4974791,0.7798712,-0.04572424,0.5289567,-0.03498731,0.09154479,4.220327,2.433597,0.2835225,6.199825,0.09498812,0.1097855,0.5,7.040916
"1.07 sec",1.072742,0.4807412,0.7763659,-6.983935,0.3282389,0.4859968,-6.995408,0.4949487,0.7870078,-0.01740415,0.5339939,-0.004798184,0.1154408,1.052984,3.336684,0.1183907,7.039065,-0.04257507,0.1666364,0.5,8.265687
"1.08 sec",1.072742,0.4807412,0.7763659,-6.983935,0.3331619,0.4939056,-6.995499,0.4892563,0.7943565,-0.00111446,0.5389721,0.03359787,0.1029643,-2.763036,4.056966,0.07769857,8.264694,-0.03749283,0.1496823,0.5,9.20345
"1.09 sec",1.072742,0.4807412,0.7763659,-6.983935,0.3380145,0.5018746,-6.995474,0.4810169,0.7987646,0.005676883,0.5439142,0.06964267,0.07132663,-3.334021,3.1768,0.2677027,9.200479,-0.03449005,0.1405562,0.5,9.807684
"1.1 sec",1.016664,0.5491147,0.8433143,-7.001097,0.3427763,0.5098676,-6.995414,0.47123,0.7991685,0.006353482,0.5488724,0.09552949,0.0406147,-2.820669,2.105571,0.4095421,9.807011,0.02387365,-0.09922692,0.5,13.88222
"1.11 sec",1.016664,0.5491147,0.8433143,-7.001097,0.3474207,0.5178442,-6.99554,0.45799,0.7959327,-0.03264561,0.5538756,0.08453093,0.02318275,-1.008765,-3.196301,0.5740042,13.88032,0.02337772,-0.09934457,0.5,13.88222
"1.12 sec",1.016664,0.5491147,0.8433143,-7.001097,0.3519504,0.5257893,-6.996068,0.4487958,0.7934643,-0.07303137,0.5588861,0.04522395,0.01775307,-0.2542677,-4.226902,0.575119,13.88177,0.02288047,-0.09945991,0.5,13.88222
"1.13 sec",1.016664,0.5491147,0.8433143,-7.001097,0.3564135,0.5337226,-6.997001,0.4446434,0.7936686,-0.113682,0.5638878,0.004736986,0.01698755,0.0300476,-3.723284,0.5632682,13.88095,0.02238355,-0.09957255,0.5,13.88222
"1.14 sec",1.016664,0.5491147,0.8433143,-7.001097,0.3608577,0.5416719,-6.998342,0.4448163,0.7966279,-0.1543662,0.5688867,-0.02823825,0.01773843,0.1152246,-2.839469,0.5501242,13.88145,0.03357453,-0.1532968,0.5,9.050428
"1.15 sec",1.016664,0.5491147,0.8433143,-7.001097,0.3653161,0.5496549,-6.999859,0.4472137,0.8002131,-0.147904,0.5738835,-0.05870178,0.02009585,0.3452009,-3.027226,0.5596395,9.050865,-0.1537541,-0.1038459,0.5,5.911203
"1.16 sec",1.016664,0.5491147,0.8433143,-7.001097,0.3698025,0.5576724,-7.00115,0.4503193,0.8032197,-0.1095625,0.5789012,-0.08088678,0.001564973,-3.194812,-1.556524,0.5034382,5.911833,-0.233599,-0.04986563,0.5,5.979641
"1.17 sec",1.016664,0.5491147,0.8433143,-7.001097,0.3743286,0.5657154,-7.002053,0.4551959,0.8050249,-0.0710099,0.5839131,-0.085891,-0.04389515,-5.17645,0.2181713,0.5077184,5.97871,-0.2338458,-0.04867388,0.5,5.979641
"1.18 sec",1.016664,0.5491147,0.8433143,-7.001097,0.3789117,0.5737643,-7.00257,0.4616477,0.8043,-0.03234621,0.5888987,-0.08012832,-0.09512361,-4.777442,0.7259815,0.5679935,5.978721,-0.1125785,0.1314032,0.5,6.033759
"1.19 sec",1.016664,0.5491147,0.8433143,-7.001097,0.3835644,0.5817927,-7.002702,0.4688202,0.8009703,0.005954915,0.5938607,-0.05110537,-0.1239778,-1.414317,4.110772,1.012119,6.033031,-0.03377957,0.1751588,0.5,7.971469
"1.2 sec",1.072776,0.5756243,0.9342987,-7.003253,0.3882917,0.5897693,-7.002542,0.4761182,0.7939831,0.02549223,0.5988647,-0.001293722,-0.1214232,1.392895,5.172756,1.138486,7.971197,0.01975593,-0.1048855,0.5,13.27642
"1.21 sec",1.072776,0.5756243,0.9342987,-7.003253,0.3930897,0.5976442,-7.002443,0.4829764,0.7811148,-0.006995275,0.6038844,0.0160271,-0.09716946,2.999735,-0.7934238,0.4240864,13.27611,0.02281819,-0.1246712,0.5,11.18906
"1.22 sec",1.072776,0.5756243,0.9342987,-7.003253,0.3979423,0.6054115,-7.002585,0.4875236,0.7730868,-0.02093483,0.6088537,-0.004586671,-0.06644525,2.97359,-2.880923,0.3050774,11.19005,0.02542056,-0.1430082,0.5,9.77175
"1.23 sec",1.072776,0.5756243,0.9342987,-7.003253,0.4028396,0.6131235,-7.002795,0.4920941,0.7700166,-0.02075364,0.613809,-0.03668103,-0.03921555,2.445643,-3.316423,0.3657782,9.772622,0.04347045,-0.1300594,0.5,9.078125
"1.24 sec",1.072776,0.5756243,0.9342987,-7.003253,0.4077862,0.6208244,-7.002967,0.4973864,0.7707114,-0.0134505,0.6187738,-0.06600712,-0.01608089,2.161419,-2.554302,0.4550834,9.079302,0.1558484,0.02642855,0.5,8.98494
"1.25 sec",1.072776,0.5756243,0.9342987,-7.003253,0.4127876,0.6285474,-7.003059,0.5026304,0.774304,-0.004994744,0.6237682,-0.06950488,0.01580924,3.794547,1.16161,0.482479,8.985402,0.1532333,0.02518511,0.5,9.144609
"1.26 sec",1.072776,0.5756243,0.9342987,-7.003253,0.4178301,0.6363181,-7.003075,0.5053295,0.7801538,0.001933292,0.6288,-0.05210381,0.05280712,3.512923,2.079786,0.3937504,9.142295,0.1491096,0.02372134,0.5,9.403136
"1.27 sec",1.072776,0.5756243,0.9342987,-7.003253,0.4228829,0.6441563,-7.003033,0.504678,0.7876867,0.006378606,0.6338323,-0.03185517,0.08350343,2.659701,1.944832,0.3413643,9.401832,-0.02213227,0.1454401,0.5,9.648541
"1.28 sec",1.072776,0.5756243,0.9342987,-7.003253,0.4279135,0.6520737,-7.002958,0.5010102,0.7955182,0.008447655,0.6388356,-0.0005663325,0.08600232,-1.381794,3.839896,0.1683256,9.641974,-0.02101843,0.1428877,0.5,9.826838
"1.29 sec",1.072776,0.5756243,0.9342987,-7.003253,0.4328953,0.6600568,-7.002872,0.4950464,0.8004583,0.008639505,0.6437976,0.03743872,0.0658889,-2.362765,3.640848,0.256162,9.824018,-0.02011696,0.1416094,0.5,9.921897
"1.3 sec",1.012003,0.6457208,1.000585,-7.001833,0.4378092,0.6680698,-7.00279,0.4875214,0.8015118,0.007843644,0.6487591,0.06978755,0.04283582,-2.206454,2.843833,0.3741707,9.9214,0.02605282,-0.190677,0.5,7.394897
"1.31 sec",1.012003,0.6457208,1.000585,-7.001833,0.4426547,0.6760799,-7.002596,0.4819005,0.8004875,0.03156781,0.6537628,0.05524886,0.02875301,-0.8568498,-4.269529,0.6240124,7.39553,0.02000267,-0.1516775,0.5,9.280549
"1.32 sec",1.012003,0.6457208,1.000585,-7.001833,0.4474519,0.6840833,-7.002249,0.4781513,0.8005732,0.03743081,0.6587768,0.007247838,0.02303006,-0.3757772,-4.911551,0.6142246,9.280278,0.01720139,-0.1355503,0.5,10.3829
"1.33 sec",1.012003,0.6457208,1.000585,-7.001833,0.4522299,0.6921007,-7.0019,0.4780725,0.8033316,0.0320293,0.6637837,-0.03685512,0.02019621,-0.1908637,-3.84496,0.5778951,10.38143,0.01591819,-0.1306268,0.5,10.77839
"1.34 sec",1.012003,0.6457208,1.000585,-7.001833,0.4570247,0.7001585,-7.001626,0.4813628,0.8085603,0.02262902,0.6687871,-0.06928831,0.01847075,-0.1041265,-2.66703,0.5483995,10.77764,0.01532261,-0.1311894,0.5,10.73876
"1.35 sec",1.012003,0.6457208,1.000585,-7.001833,0.4618648,0.7082775,-7.001445,0.4869808,0.8154718,0.01370374,0.673789,-0.09143127,0.01728905,-0.05241505,-1.788611,0.5290493,10.73929,-0.1053363,-0.03842744,0.5,10.47569
"1.36 sec",1.012003,0.6457208,1.000585,-7.001833,0.4667687,0.716469,-7.001339,0.4939923,0.822673,0.007463565,0.6787902,-0.095269,0.002448772,-2.304157,0.5946095,0.4956468,10.47677,-0.1375833,-0.01481745,0.5,10.25292
"1.37 sec",1.012003,0.6457208,1.000585,-7.001833,0.4717474,0.7247227,-7.001285,0.5018849,0.8275443,0.003403349,0.6837713,-0.08254097,-0.02695106,-3.158941,1.660115,0.5404887,10.25999,-0.07595757,0.06577002,0.5,9.977647
"1.38 sec",1.012003,0.6457208,1.000585,-7.001833,0.4768066,0.7330079,-7.001258,0.5098485,0.8289087,0.001987495,0.6887397,-0.05588517,-0.05045654,-1.63669,3.182477,0.6577052,9.978877,-0.01378739,0.1426885,0.5,9.899431
"1.39 sec",1.012003,0.6457208,1.000585,-7.001833,0.4819385,0.7412902,-7.001242,0.5160644,0.8270414,0.001293007,0.6937282,-0.01482705,-0.05540258,0.3288913,4.483624,0.7499623,9.899862,-0.01319622,0.1440563,0.5,9.810621
"1.4 sec",1.06702,0.676423,1.092975,-6.998112,0.487116,0.7495403,-7.001229,0.5188084,0.822625,0.001409849,0.6987427,0.02887757,-0.0486173,0.8740593,4.036358,0.6986524,9.811101,0.02047021,-0.2379046,0.5,5.979641
"1.41 sec",1.06702,0.676423,1.092975,-6.998112,0.4923052,0.7577494,-7.001032,0.5190276,0.819414,0.03881779,0.7037374,0.02047672,-0.03561027,1.503138,-4.139679,0.3496991,5.981689,0.01746733,-0.2151022,0.5,6.604517
"1.42 sec",1.06702,0.676423,1.092975,-6.998112,0.4975009,0.7659349,-7.000482,0.5204199,0.8181638,0.07106653,0.7087003,-0.02999784,-0.0210684,1.360696,-5.445704,0.3813846,6.604059,0.01089679,-0.1422807,0.5,9.944489
"1.43 sec",1.06702,0.676423,1.092975,-6.998112,0.5027276,0.7741251,-6.999769,0.5253891,0.8204858,0.07073782,0.7136745,-0.07342994,-0.009906076,0.946404,-3.403891,0.4633587,9.93992,0.04057707,-0.08551672,0.5,11.55633
"1.44 sec",1.06702,0.676423,1.092975,-6.998112,0.5080196,0.7823581,-6.999143,0.5331662,0.8265488,0.0541144,0.7186632,-0.09382354,0.001016517,1.212947,-1.022423,0.4982073,11.55546,0.1181075,0.007930609,0.5,11.97512
"1.45 sec",1.06702,0.676423,1.092975,-6.998112,0.5133908,0.7906635,-6.998706,0.5407171,0.8347824,0.0330959,0.7236696,-0.08771403,0.02116144,2.540046,1.69862,0.4642538,11.97469,0.1217418,0.007561975,0.5,11.62306
"1.46 sec",1.06702,0.676423,1.092975,-6.998112,0.5188219,0.7990557,-6.998465,0.5448548,0.8437435,0.01530026,0.7286958,-0.06724144,0.0468229,2.527733,2.215706,0.3983853,11.62374,0.03194637,0.09389389,0.5,10.96735
"1.47 sec",1.06702,0.676423,1.092975,-6.998112,0.5242749,0.807536,-6.99837,0.5451584,0.8520851,0.003881657,0.7337147,-0.03625647,0.05904936,0.3236999,3.590689,0.2889155,10.96826,-0.007002481,0.1357863,0.5,10.43337
"1.48 sec",1.06702,0.676423,1.092975,-6.998112,0.5297151,0.8160877,-6.998362,0.5424345,0.8576881,-0.00229583,0.7387036,0.003691668,0.05313067,-1.173707,4.119154,0.2792501,10.43382,-0.00660334,0.1417895,0.5,9.996845
"1.49 sec",1.06702,0.676423,1.092975,-6.998112,0.5351166,0.8246768,-6.998395,0.5375478,0.8595332,-0.004132574,0.7436771,0.04266628,0.0396996,-1.418164,3.596006,0.3545422,9.997267,-0.006053706,0.1455305,0.5,9.743725
"1.5 sec",1.113033,0.713771,1.185046,-7.001511,0.5404612,0.8332669,-6.998433,0.531125,0.857973,-0.003305278,0.7486556,0.07463983,0.02662443,-1.223515,2.801278,0.4224922,9.74495,0.003742212,-0.1019809,0.5,13.88222
"1.51 sec",1.113033,0.713771,1.185046,-7.001511,0.5457228,0.841822,-6.998657,0.52139,0.8529454,-0.04252974,0.7536554,0.06965283,0.01734203,-0.7479706,-2.693967,0.5464958,13.88029,0.003679865,-0.1161503,0.5,12.19708
"1.52 sec",1.113033,0.713771,1.185046,-7.001511,0.5509041,0.8503336,-6.999204,0.5155129,0.8498126,-0.06664329,0.7586654,0.0329427,0.01171583,-0.4518948,-4.149126,0.5492864,12.19793,0.004076372,-0.1530473,0.5,9.273301
"1.53 sec",1.113033,0.713771,1.185046,-7.001511,0.5560495,0.8588293,-6.999851,0.5141335,0.8497773,-0.06200768,0.7636732,-0.01189709,0.008321313,-0.2529039,-4.492743,0.5379956,9.274336,0.0482213,-0.1325965,0.5,7.927509
"1.54 sec",1.113033,0.713771,1.185046,-7.001511,0.5611959,0.8673367,-7.000381,0.5154856,0.8520868,-0.04347771,0.7686686,-0.05105058,0.0114545,0.7127571,-3.332823,0.5364475,7.928391,0.1813688,0.00306822,0.5,7.839265
"1.55 sec",1.113033,0.713771,1.185046,-7.001511,0.5663625,0.8758782,-7.000716,0.5177149,0.856556,-0.02363136,0.7736572,-0.06341396,0.03505275,3.416264,0.2613952,0.4903679,7.839767,0.1718783,0.002038219,0.5,8.268075
"1.56 sec",1.113033,0.713771,1.185046,-7.001511,0.5715442,0.8844752,-7.000873,0.5181951,0.8630993,-0.007836715,0.778672,-0.05448995,0.06988037,3.414196,1.321787,0.4101637,8.267647,0.0327717,0.1270189,0.5,8.838665
"1.57 sec",1.113033,0.713771,1.185046,-7.001511,0.5767168,0.893145,-7.000899,0.5158779,0.8707198,0.002387117,0.7836905,-0.02618754,0.08449508,0.103842,3.772442,0.1824384,8.838079,-0.0002558159,0.1503742,0.5,9.440155
"1.58 sec",1.113033,0.713771,1.185046,-7.001511,0.5818523,0.9018839,-7.000854,0.5108539,0.8765056,0.006559138,0.7886722,0.01527545,0.07520258,-1.584299,4.251648,0.1776835,9.43954,0.0004721813,0.1447251,0.5,9.80587
"1.59 sec",1.113033,0.713771,1.185046,-7.001511,0.5869268,0.9106629,-7.000786,0.5037918,0.878637,0.006979831,0.7936379,0.0539628,0.05776233,-1.803457,3.468572,0.2963782,9.805184,0.001166155,0.1420028,0.5,9.99227
"1.6 sec",1.057622,0.7844257,1.261043,-7.007657,0.5919237,0.9194444,-7.000723,0.4954297,0.8771248,0.005571008,0.7986127,0.08347145,0.04129846,-1.52327,2.495802,0.3936606,9.987817,-0.00134615,-0.1020405,0.5,13.88222
"1.61 sec",1.057622,0.7844257,1.261043,-7.007657,0.5968193,0.9281912,-7.000858,0.4839844,0.8721183,-0.03358405,0.8036152,0.07571659,0.02806244,-1.195356,-2.92799,0.5825799,13.8803,-0.00185571,-0.1020325,0.5,13.88222
"1.62 sec",1.057622,0.7844257,1.261043,-7.007657,0.601616,0.936892,-7.001396,0.4761244,0.8685011,-0.07402747,0.8086336,0.03861188,0.01806629,-0.8662254,-4.047236,0.5745835,13.88099,-0.002758173,-0.1189651,0.497977,11.91255
"1.63 sec",1.057622,0.7844257,1.261043,-7.007657,0.6063602,0.9455726,-7.002246,0.473396,0.8681101,-0.09551693,0.8136296,-0.002363887,0.0108477,-0.6023006,-3.927967,0.5418668,11.91349,-0.004743445,-0.1687765,0.4879849,8.415862
"1.64 sec",1.057622,0.7844257,1.261043,-7.007657,0.611096,0.9542612,-7.00314,0.4742161,0.8699921,-0.08244019,0.8185261,-0.04368401,0.005594114,-0.426652,-4.070473,0.5112981,8.420135,-0.00663532,-0.2015861,0.478192,7.059452
"1.65 sec",1.057622,0.7844257,1.261043,-7.007657,0.6158509,0.9629771,-7.00383,0.4771377,0.8734972,-0.05513131,0.8233222,-0.08479479,0.001598566,-0.3074004,-3.943712,0.4835798,7.060432,-0.1717007,-0.02413936,0.4685997,7.068355
"1.66 sec",1.057622,0.7844257,1.261043,-7.007657,0.6206455,0.9717355,-7.004242,0.4820812,0.8781253,-0.02738589,0.8280256,-0.0997133,-0.02056575,-3.328821,0.2317158,0.4709377,7.06671,-0.1811625,0.007812918,0.4591929,7.84206
"1.67 sec",1.057622,0.7844257,1.261043,-7.007657,0.6255012,0.9805359,-7.004414,0.489297,0.8814976,-0.007096161,0.8325968,-0.08578741,-0.05807071,-3.788255,2.077734,0.574955,7.840961,-0.1016043,0.06437182,0.4500505,8.650957
"1.68 sec",1.057622,0.7844257,1.261043,-7.007657,0.6304382,0.9893555,-7.004423,0.4981288,0.8818663,0.00516097,0.8370624,-0.05649607,-0.08443392,-1.68084,3.29787,0.7269546,8.649395,0.00773221,0.1500954,0.4411193,9.445232
"1.69 sec",1.057622,0.7844257,1.261043,-7.007657,0.6354634,0.9981621,-7.004348,0.506444,0.8789643,0.009431983,0.8414792,-0.01375509,-0.08315722,1.370352,4.647059,0.8330101,9.443799,0.008008953,0.143152,0.4322857,9.89766
"1.7 sec",1.110234,0.8148519,1.358224,-7.001969,0.6405559,1.006926,-7.004256,0.5113529,0.8734009,0.008959917,0.8458476,0.0307189,-0.06485921,2.046308,4.030903,0.6991665,9.897249,-0.01428836,-0.2383472,0.5,5.979641
"1.71 sec",1.110234,0.8148519,1.358224,-7.001969,0.6456759,1.01564,-7.003984,0.5125667,0.8696518,0.04638945,0.8508111,0.02205446,-0.04747303,1.422912,-4.187171,0.2985354,5.984658,-0.01546005,-0.2382755,0.5,5.979641
"1.72 sec",1.110234,0.8148519,1.358224,-7.001969,0.6508101,1.024326,-7.003328,0.5145538,0.8681823,0.08475096,0.8557794,-0.03154192,-0.03583214,0.9418935,-5.929729,0.2846787,5.981107,-0.01113709,-0.1586493,0.5,8.929981
"1.73 sec",1.110234,0.8148519,1.358224,-7.001969,0.6559808,1.033015,-7.002429,0.51999,0.8701977,0.09450545,0.8607595,-0.07936893,-0.02786715,0.7123551,-3.803625,0.3913082,8.92837,0.03205321,-0.08466775,0.4989495,11.76639
"1.74 sec",1.110234,0.8148519,1.358224,-7.001969,0.6612253,1.041747,-7.001572,0.5290617,0.8766704,0.07620408,0.8657385,-0.101159,-0.01717107,1.340443,-0.9935997,0.4787292,11.76529,0.1107635,-0.008954734,0.4889916,12.75275
"1.75 sec",1.110234,0.8148519,1.358224,-7.001969,0.6665629,1.050558,-7.000951,0.538027,0.8858258,0.04767867,0.8706394,-0.09595352,0.004927202,2.777422,1.517794,0.4812412,12.74921,0.1131844,-0.009713088,0.4791896,12.47602
"1.76 sec",1.110234,0.8148519,1.358224,-7.001969,0.6719726,1.059465,-7.000606,0.5431953,0.8956591,0.02145,0.8754621,-0.07750047,0.0327843,2.730495,1.99723,0.4152265,12.47714,0.01089451,0.1209363,0.4695444,11.6756
"1.77 sec",1.110234,0.8148519,1.358224,-7.001969,0.6774124,1.068467,-7.000484,0.544148,0.9043201,0.002920588,0.8801826,-0.0433548,0.045304,0.2393682,4.243509,0.2777922,11.67689,0.01236642,0.1304543,0.4601033,10.82352
"1.78 sec",1.110234,0.8148519,1.358224,-7.001969,0.6828449,1.077538,-7.000507,0.5418888,0.9091949,-0.007290892,0.8847835,0.0004730324,0.0427599,-0.5634428,4.299795,0.2753495,10.82529,0.01381632,0.1390158,0.4509015,10.15649
"1.79 sec",1.110234,0.8148519,1.358224,-7.001969,0.6882432,1.086637,-7.000598,0.537416,0.9100835,-0.01081767,0.8892842,0.0405224,0.03630821,-0.6892923,3.642474,0.3172842,10.15747,0.01503972,0.1447662,0.4419001,9.751407
"1.8 sec",1.04891,0.8890678,1.435652,-7.006583,0.6935884,1.095729,-7.000704,0.5313868,0.907761,-0.01011713,0.8936977,0.07291939,0.03013359,-0.5849166,2.836633,0.3546441,9.752017,-0.01101139,-0.1014555,0.3104242,13.88222
"1.81 sec",1.04891,0.8890678,1.435652,-7.006583,0.6988549,1.104778,-7.000996,0.5220775,0.9019714,-0.04934309,0.896871,0.0683839,0.02226096,-0.9325255,-2.645532,0.3698127,13.88032,-0.01145657,-0.1025326,0.3040776,13.73217
"1.82 sec",1.04891,0.8890678,1.435652,-7.006583,0.7040406,1.113775,-7.001685,0.5157288,0.8979008,-0.08838756,0.8999305,0.03368524,0.01322059,-0.8677313,-3.856555,0.3566067,13.73386,-0.01689611,-0.1474244,0.2979585,9.565931
"1.83 sec",1.04891,0.8890678,1.435652,-7.006583,0.7091877,1.122749,-7.002567,0.5142655,0.8974608,-0.08699512,0.9029313,-0.008941243,0.004887772,-0.7756287,-4.333951,0.3208916,9.567989,-0.02190676,-0.1866402,0.2919569,7.570624
"1.84 sec",1.04891,0.8890678,1.435652,-7.006583,0.7143353,1.131732,-7.00333,0.5156707,0.8993828,-0.06506935,0.9058716,-0.05381959,-0.002623787,-0.6820104,-4.381948,0.2816661,7.571575,-0.02369042,-0.1970005,0.2860764,7.175017
"1.85 sec",1.04891,0.8890678,1.435652,-7.006583,0.7195085,1.140744,-7.003849,0.5193166,0.9033567,-0.03861312,0.9087496,-0.09493471,-0.009018936,-0.542661,-3.73899,0.2522494,7.17563,-0.1843619,0.02312194,0.2803204,7.655869
"1.86 sec",1.04891,0.8890678,1.435652,-7.006583,0.7247298,1.149804,-7.004124,0.5252389,0.9086753,-0.01653102,0.9115599,-0.1020189,-0.03263667,-3.433753,1.367469,0.3214886,7.655448,-0.1668324,0.02136041,0.2746997,8.448618
"1.87 sec",1.04891,0.8890678,1.435652,-7.006583,0.7300215,1.158911,-7.004217,0.5333172,0.9122066,-0.002245766,0.9142711,-0.07993362,-0.06754067,-3.324079,2.644087,0.4486872,8.447249,0.01977646,0.1532253,0.2692773,9.190811
"1.88 sec",1.04891,0.8890678,1.435652,-7.006583,0.7354004,1.168038,-7.004204,0.5421714,0.9124106,0.004572263,0.916949,-0.03787973,-0.07599445,0.897807,5.013364,0.6535319,9.189309,0.01909072,0.1448054,0.2639216,9.717608
"1.89 sec",1.04891,0.8890678,1.435652,-7.006583,0.7408558,1.177149,-7.004151,0.5482282,0.9093367,0.00588046,0.9196299,0.01155247,-0.05992751,2.015935,4.615867,0.5461417,9.717173,0.01892894,0.1406489,0.2585597,9.999193
"1.9 sec",1.081093,0.9308092,1.532286,-7.006314,0.7463512,1.186216,-7.0041,0.5501851,0.9037188,0.004246505,0.9222621,0.05246117,-0.03943164,1.960595,3.514285,0.4007364,9.998153,-0.02009077,-0.1464183,0.3176625,9.604613
"1.91 sec",1.081093,0.9308092,1.532286,-7.006314,0.7518497,1.195221,-7.004047,0.5493844,0.8975795,0.006400216,0.9254116,0.04896946,-0.02615495,0.8087092,-2.965861,0.2385495,9.605195,-0.01984591,-0.1413037,0.3113633,9.9454
"1.92 sec",1.081093,0.9308092,1.532286,-7.006314,0.7573419,1.204175,-7.003989,0.5493873,0.8937653,0.005212981,0.9285179,0.01029607,-0.02086317,0.3009928,-4.307425,0.2208179,9.944676,-0.02000101,-0.139263,0.3051509,10.08574
"1.93 sec",1.081093,0.9308092,1.532286,-7.006314,0.7628451,1.213108,-7.00395,0.551639,0.893447,0.002524211,0.9315686,-0.03112778,-0.0191092,0.08967128,-3.845618,0.2314064,10.08398,-0.02042599,-0.1392128,0.2990495,10.08495
"1.94 sec",1.081093,0.9308092,1.532286,-7.006314,0.7683821,1.222054,-7.003938,0.5561036,0.8962714,-8.330416e-05,0.9345618,-0.06514559,-0.01885108,0.007603607,-2.950525,0.2428842,10.07875,0.08474292,-0.06235444,0.2930629,9.976727
"1.95 sec",1.081093,0.9308092,1.532286,-7.006314,0.7739713,1.231041,-7.003946,0.5617059,0.9014437,-0.001483129,0.9374881,-0.08126625,-0.006869212,1.986645,-0.6360961,0.2870465,9.977188,0.1406262,-0.02169919,0.2872105,9.973297
"1.96 sec",1.081093,0.9308092,1.532286,-7.006314,0.7796118,1.240089,-7.003967,0.5659708,0.9083085,-0.002784975,0.9403678,-0.07789422,0.02126005,3.279803,0.9848844,0.267007,9.975609,0.02203281,0.1415299,0.2814511,9.908023
"1.97 sec",1.081093,0.9308092,1.532286,-7.006314,0.7852802,1.249209,-7.003999,0.5671675,0.915415,-0.003514174,0.9432104,-0.04690021,0.03954061,0.7891063,4.399655,0.1091682,9.90912,0.02254876,0.1421981,0.2757659,9.857472
"1.98 sec",1.081093,0.9308092,1.532286,-7.006314,0.7909446,1.258387,-7.004035,0.5652289,0.9197095,-0.003880227,0.9459774,-0.000375202,0.04193308,-0.1351209,4.619277,0.08193482,9.85817,0.02302473,0.1426594,0.2702317,9.821555
"1.99 sec",1.081093,0.9308092,1.532286,-7.006314,0.7965763,1.267591,-7.004075,0.560754,0.9203269,-0.003893632,0.9486767,0.04201848,0.03901617,-0.395784,3.796494,0.1212727,9.822108,0.02345073,0.142857,0.2648332,9.803839
"2 sec",1.106249,0.9778283,1.627344,-7.010463,0.8021535,1.276783,-7.004112,0.5544239,0.9177165,-0.003591777,0.9513214,0.07490756,0.0350867,-0.4004855,2.803889,0.1653017,9.807737,-0.01682631,-0.1006573,0.3098545,13.88222
"2.01 sec",1.106249,0.9778283,1.627344,-7.010463,0.8076485,1.28593,-7.004339,0.544746,0.9116014,-0.04279243,0.9543994,0.07007518,0.02691926,-1.097503,-2.672856,0.3825257,13.88033,-0.01766629,-0.1037331,0.3036984,13.4652
"2.02 sec",1.106249,0.9778283,1.627344,-7.010463,0.8130601,1.295022,-7.00495,0.5382432,0.9073771,-0.07921951,0.9574592,0.03487969,0.01569662,-1.112551,-3.916939,0.3672396,13.4658,-0.02496523,-0.1441895,0.2975789,9.699781
"2.03 sec",1.106249,0.9778283,1.627344,-7.010463,0.8184316,1.304091,-7.005745,0.5366344,0.9068302,-0.07905934,0.9604619,-0.007848534,0.004772349,-1.032966,-4.309053,0.3204592,9.702575,-0.03130401,-0.1779805,0.2915735,7.86976
"2.04 sec",1.106249,0.9778283,1.627344,-7.010463,0.8238026,1.313167,-7.006444,0.5379996,0.9087481,-0.06008484,0.9634035,-0.051704,-0.005254109,-0.9186125,-4.232778,0.2710416,7.87065,0.06282681,-0.1212029,0.2856902,7.411881
"2.05 sec",1.106249,0.9778283,1.627344,-7.010463,0.8291979,1.322273,-7.006925,0.5412583,0.912728,-0.03603959,0.9662628,-0.08340894,-0.002570527,1.095239,-2.30502,0.2775623,7.412298,0.1766499,-0.03264876,0.2799717,7.916265
"2.06 sec",1.106249,0.9778283,1.627344,-7.010463,0.8346289,1.331429,-7.007187,0.5446777,0.9189148,-0.01665362,0.9690579,-0.09037899,0.02427495,3.677491,0.4302076,0.2690973,7.915825,0.03002818,0.1624183,0.2743815,8.602425
"2.07 sec",1.106249,0.9778283,1.627344,-7.010463,0.840084,1.340656,-7.00729,0.5458363,0.9262339,-0.004076073,0.9718326,-0.05860051,0.04533425,0.9778566,4.903664,0.05427104,8.601386,0.02835056,0.1509137,0.2688321,9.247383
"2.08 sec",1.106249,0.9778283,1.627344,-7.010463,0.8455351,1.349947,-7.0073,0.5438857,0.9312245,0.001881687,0.9745339,-0.006885204,0.04876654,-0.08955143,5.123596,0.01892248,9.246674,0.02740614,0.1436999,0.2634294,9.702928
"2.09 sec",1.106249,0.9778283,1.627344,-7.010463,0.8509521,1.359268,-7.007274,0.5391442,0.9324363,0.003201603,0.9771646,0.03920453,0.04581135,-0.4307833,4.057394,0.07664762,9.702508,0.02708318,0.1399854,0.2581681,9.953505
"2.1 sec",1.029829,1.058227,1.704692,-7.014688,0.856311,1.368584,-7.007248,0.5323676,0.9301275,0.002093563,0.9797412,0.07354233,0.04131287,-0.4680777,2.864137,0.13865,9.952247,-0.01967505,-0.1001411,0.1001761,13.88222
"2.11 sec",1.029829,1.058227,1.704692,-7.014688,0.8615834,1.377856,-7.007418,0.522302,0.9243014,-0.03712886,0.9808269,0.06925715,0.03170663,-1.269579,-2.628996,0.1849503,13.88027,-0.01978357,-0.1001198,0.09800482,13.88222
"2.12 sec",1.029829,1.058227,1.704692,-7.014688,0.8667679,1.387076,-7.007991,0.5153084,0.9201334,-0.07760396,0.9818305,0.0348419,0.01866238,-1.275559,-3.825407,0.1718615,13.88089,-0.02763081,-0.1393352,0.09599757,9.990633
"2.13 sec",1.029829,1.058227,1.704692,-7.014688,0.8719088,1.396272,-7.008786,0.5134569,0.9196112,-0.08038077,0.9828181,-0.006797633,0.006162715,-1.176201,-4.196162,0.124425,9.992581,-0.03469757,-0.1744185,0.09402227,7.99594
"2.14 sec",1.029829,1.058227,1.704692,-7.014688,0.8770473,1.405476,-7.009504,0.5146858,0.9215178,-0.06271315,0.9837846,-0.04973272,-0.005180756,-1.047936,-4.158641,0.0746561,7.996891,-0.03719829,-0.1861973,0.09208941,7.494652
"2.15 sec",1.029829,1.058227,1.704692,-7.014688,0.88221,1.414709,-7.010016,0.5182163,0.925454,-0.03949678,0.9847263,-0.08882462,-0.01480523,-0.8479409,-3.558676,0.04066333,7.495078,-0.1776936,0.03628661,0.09020591,7.84234
"2.16 sec",1.029829,1.058227,1.704692,-7.014688,0.8874194,1.42399,-7.01031,0.5239633,0.9306175,-0.01934723,0.9856326,-0.09410184,-0.03856035,-3.283502,1.545418,0.1471531,7.841627,-0.1633411,0.033455,0.08839333,8.522898
"2.17 sec",1.029829,1.058227,1.704692,-7.014688,0.892697,1.433315,-7.010435,0.5317762,0.9339219,-0.005871845,0.9864787,-0.07058921,-0.07143207,-3.12415,2.771057,0.2821828,8.521791,-0.07820646,0.07986674,0.08670104,9.137524
"2.18 sec",1.029829,1.058227,1.704692,-7.014688,0.89806,1.442657,-7.010456,0.5407786,0.9339205,0.001461411,0.9873148,-0.03752648,-0.08966438,-0.8500473,3.483434,0.3984872,9.136916,0.02921569,0.1432501,0.08502889,9.709073
"2.19 sec",1.029829,1.058227,1.704692,-7.014688,0.9035102,1.451983,-7.010433,0.5487957,0.930689,0.003010541,0.9881827,0.003082762,-0.08057119,2.060644,4.22622,0.4309019,9.708541,0.02854036,0.1392955,0.08329308,9.98088
"2.2 sec",1.044223,1.106112,1.800296,-7.00776,0.9090239,1.461263,-7.010409,0.5532435,0.9249675,0.001643885,0.9890654,0.04263797,-0.05634647,2.550781,3.562242,0.2890406,9.979725,-0.04785422,-0.234012,0.1103158,5.979641
"2.21 sec",1.044223,1.106112,1.800296,-7.00776,0.9145616,1.470492,-7.010211,0.5542157,0.9212008,0.03904819,0.9901545,0.03035316,-0.04110241,0.7502435,-4.424263,-0.07334822,5.981553,-0.04810673,-0.2339611,0.1081376,5.979641
"2.22 sec",1.044223,1.106112,1.800296,-7.00776,0.9201114,1.479694,-7.009628,0.5560287,0.9197326,0.07740495,0.9912271,-0.02511222,-0.03773397,0.0414177,-6.047584,-0.1203078,5.98062,-0.03833639,-0.1847553,0.1059924,7.541291
"2.23 sec",1.044223,1.106112,1.800296,-7.00776,0.9256924,1.488898,-7.008737,0.560554,0.9214971,0.1006579,0.9922878,-0.07745106,-0.0376078,0.002778564,-4.438502,-0.06122359,7.540438,-0.0254829,-0.1217358,0.1038711,11.40116
"2.24 sec",1.044223,1.106112,1.800296,-7.00776,0.9313429,1.498143,-7.007797,0.5698984,0.9281483,0.08632335,0.9933259,-0.1073717,-0.03623699,0.2387403,-1.875305,0.03514313,11.3993,-0.02255969,-0.1071527,0.1017947,12.94188
"2.25 sec",1.044223,1.106112,1.800296,-7.00776,0.9371002,1.507473,-7.007082,0.5816547,0.9379655,0.05631281,0.9943435,-0.1177979,-0.03337707,0.3242607,-0.4345666,0.08656202,12.941,0.09098154,0.002537653,0.09975958,12.89469
"2.26 sec",1.044223,1.106112,1.800296,-7.00776,0.9429736,1.516904,-7.006669,0.5925698,0.948382,0.02634226,0.9953527,-0.106197,-0.01715586,2.443907,2.181687,0.139226,12.89527,0.02426322,0.114131,0.09774113,12.14896
"2.27 sec",1.044223,1.106112,1.800296,-7.00776,0.9489361,1.526434,-7.006521,0.5991957,0.9570231,0.003259155,0.9963654,-0.06836078,0.001234966,1.358192,4.690788,0.09502114,12.15023,0.02649594,0.1240709,0.09571588,11.17828
"2.28 sec",1.044223,1.106112,1.800296,-7.00776,0.9549416,1.53603,-7.006559,0.6012279,0.9615951,-0.01054871,0.9973503,-0.01978081,0.01172389,0.7973821,4.745039,0.04206866,11.18085,0.02873785,0.1339874,0.09374607,10.35385
"2.29 sec",1.044223,1.106112,1.800296,-7.00776,0.9609489,1.545652,-7.006693,0.5997381,0.9621885,-0.01617762,0.9983039,0.0245972,0.01815835,0.5080989,4.023745,0.02175695,10.35548,0.03045189,0.1413762,0.09183872,9.814528
"2.3 sec",1.050331,1.161941,1.895494,-7.009618,0.9669282,1.555264,-7.006856,0.595746,0.959697,-0.01624332,0.9992316,0.06064228,0.02245226,0.3487071,3.153914,0.02147113,9.815027,-0.02322729,-0.107187,0.1021992,12.9216
"2.31 sec",1.050331,1.161941,1.895494,-7.009618,0.9728513,1.564834,-7.007165,0.5889431,0.9542655,-0.04626769,1.000251,0.05869181,0.01911254,-0.7912958,-2.451316,0.1497847,12.91888,-0.02910279,-0.1338002,0.1001601,10.36184
"2.32 sec",1.050331,1.161941,1.895494,-7.009618,0.97872,1.57436,-7.007661,0.5853075,0.9513752,-0.05233171,1.001272,0.02258707,0.009109241,-1.101839,-4.224116,0.1409763,10.36244,-0.03394672,-0.1554876,0.09811878,8.925282
"2.33 sec",1.050331,1.161941,1.895494,-7.009618,0.9845691,1.583872,-7.008143,0.5850119,0.9514999,-0.04384428,1.002279,-0.02172365,-0.002054418,-1.073683,-4.363484,0.09157505,8.926159,-0.03602275,-0.1642908,0.09610367,8.449753
"2.34 sec",1.050331,1.161941,1.895494,-7.009618,0.9904293,1.593398,-7.008515,0.5874681,0.9542187,-0.03027817,1.003263,-0.06267037,-0.01203311,-0.8922743,-3.722113,0.05290009,8.450171,-0.03326908,-0.1605191,0.09413671,8.560272
"2.35 sec",1.050331,1.161941,1.895494,-7.009618,0.9963264,1.602964,-7.008754,0.5922784,0.9592202,-0.01746713,1.004218,-0.09482756,-0.01953711,-0.6058235,-2.724228,0.04140667,8.559531,0.1057998,0.04386055,0.09222579,8.888553
"2.36 sec",1.050331,1.161941,1.895494,-7.009618,1.002279,1.612588,-7.008879,0.5981688,0.9657932,-0.007728067,1.005147,-0.09387422,-0.008376069,2.245352,1.998938,0.1106365,8.887734,0.03285562,0.1476891,0.09036803,9.384464
"2.37 sec",1.050331,1.161941,1.895494,-7.009618,1.008283,1.622279,-7.008933,0.6019312,0.9719086,-0.003062494,1.006085,-0.05459078,0.008899338,1.307618,5.051897,0.04869225,9.384026,0.03194807,0.1429436,0.08849287,9.691461
"2.38 sec",1.050331,1.161941,1.895494,-7.009618,1.014307,1.632016,-7.008956,0.6022508,0.9750109,-0.001737188,1.006998,-0.003403951,0.01886073,0.7427393,4.925852,-0.002463154,9.690565,0.03152324,0.1404245,0.0866673,9.861988
"2.39 sec",1.050331,1.161941,1.895494,-7.009618,1.020317,1.641767,-7.008976,0.5993902,0.9745328,-0.002163145,1.007879,0.04082589,0.02449315,0.411889,3.877019,-0.007486576,9.858494,0.03143528,0.1394529,0.08490515,9.928243
"2.4 sec",1.059565,1.218116,1.993453,-7.016867,1.026286,1.651497,-7.009002,0.5941056,0.971029,-0.003120645,1.008734,0.07393929,0.02763221,0.2239641,2.775209,0.008354329,9.927212,-0.02256501,-0.09953172,0.101661,13.88222
"2.41 sec",1.059565,1.218116,1.993453,-7.016867,1.032184,1.661173,-7.009224,0.5854701,0.9640995,-0.04238314,1.009746,0.06921893,0.02307327,-0.9069917,-2.645779,0.1636129,13.88031,-0.0226655,-0.09950896,0.09963822,13.88222
"2.42 sec",1.059565,1.218116,1.993453,-7.016867,1.038005,1.670786,-7.009851,0.5794441,0.95921,-0.08288042,1.010761,0.03479287,0.01272045,-1.082332,-3.817713,0.1502555,13.88117,-0.0246674,-0.1078277,0.09760785,12.81254
"2.43 sec",1.059565,1.218116,1.993453,-7.016867,1.043787,1.68037,-7.010832,0.5775667,0.9580124,-0.1131512,1.011758,-0.003124423,0.002336528,-0.9623216,-3.595472,0.1078188,12.81621,-0.03726368,-0.1625902,0.095613,8.51951
"2.44 sec",1.059565,1.218116,1.993453,-7.016867,1.049567,1.689955,-7.011909,0.5787627,0.9595044,-0.1013204,1.012735,-0.04175584,-0.007661752,-0.9744262,-3.864266,0.06789251,8.52163,-0.04733418,-0.2062236,0.09365916,6.736361
"2.45 sec",1.059565,1.218116,1.993453,-7.016867,1.055367,1.699564,-7.012773,0.5817109,0.9626074,-0.07090122,1.013694,-0.08246481,-0.0177632,-0.9766979,-4.021975,0.02397587,6.737274,0.1645507,0.01005087,0.09174156,6.589278
"2.46 sec",1.059565,1.218116,1.993453,-7.016867,1.061205,1.709213,-7.01332,0.5856671,0.9672994,-0.03844393,1.014612,-0.09413236,-0.002031281,3.241504,0.8207287,0.09409367,6.59111,0.04317094,0.1862227,0.08990502,7.445439
"2.47 sec",1.059565,1.218116,1.993453,-7.016867,1.067076,1.718914,-7.013583,0.5880759,0.9727251,-0.01433561,1.015552,-0.05691225,0.02126127,1.614063,5.514288,-0.02287138,7.44379,0.03833429,0.1644284,0.08802629,8.418034
"2.48 sec",1.059565,1.218116,1.993453,-7.016867,1.072956,1.72866,-7.013653,0.5873731,0.9759738,-8.949525e-05,1.016466,-0.000374105,0.032235,0.7003185,5.484589,-0.08670872,8.414624,0.03505899,0.1496348,0.08619761,9.240013
"2.49 sec",1.059565,1.218116,1.993453,-7.016867,1.078812,1.738422,-7.013623,0.5834439,0.9757116,0.005914682,1.017341,0.04769804,0.03648785,0.2148216,4.123983,-0.06387005,9.238429,0.03322714,0.1411983,0.08444858,9.785457
"2.5 sec",1.068502,1.27335,2.091762,-7.024232,1.084616,1.748164,-7.01356,0.5769859,0.9721499,0.006583642,1.018188,0.08159637,0.0373412,-0.01629118,2.735463,-0.01796032,9.784945,-0.02350337,-0.099315,0.1006277,13.88222
"2.51 sec",1.068502,1.27335,2.091762,-7.024232,1.090334,1.757849,-7.013685,0.5669139,0.9649103,-0.03252808,1.01919,0.07578894,0.03020476,-1.165381,-2.79487,0.1863559,13.88032,-0.02360271,-0.09929151,0.09862375,13.88222
"2.52 sec",1.068502,1.27335,2.091762,-7.024232,1.095965,1.767469,-7.014212,0.559817,0.9597114,-0.07296225,1.0202,0.03978482,0.01747631,-1.295622,-3.972406,0.1706189,13.88177,-0.02461674,-0.10311,0.09660316,13.36694
"2.53 sec",1.068502,1.27335,2.091762,-7.024232,1.101546,1.777056,-7.015121,0.5571269,0.9582075,-0.1086188,1.021192,0.0009686565,0.005358091,-1.101419,-3.6364,0.1181873,13.36738,-0.03730111,-0.1559547,0.09462023,8.859187
"2.54 sec",1.068502,1.27335,2.091762,-7.024232,1.107119,1.786643,-7.016171,0.5579802,0.9595735,-0.1002454,1.022161,-0.03759661,-0.00576991,-1.06513,-3.825389,0.07461298,8.861348,-0.04819643,-0.201257,0.09268188,6.885196
"2.55 sec",1.068502,1.27335,2.091762,-7.024232,1.112711,1.796252,-7.017031,0.5607218,0.9625722,-0.07137948,1.023111,-0.07799515,-0.01669551,-1.050442,-3.997562,0.02787567,6.886137,0.0954547,-0.05961611,0.09078074,6.566936
"2.56 sec",1.068502,1.27335,2.091762,-7.024232,1.118338,1.805899,-7.017582,0.5646977,0.9671355,-0.03874997,1.024019,-0.09815767,-0.009545633,1.892292,-0.5815402,0.08416444,6.567815,0.04499925,0.1861869,0.08896637,7.430781
"2.57 sec",1.068502,1.27335,2.091762,-7.024232,1.124004,1.815599,-7.017847,0.5681266,0.9726677,-0.01444656,1.024932,-0.06829173,0.007311943,1.47927,5.264232,0.0541733,7.428599,0.04003336,0.1647539,0.08714032,8.38328
"2.58 sec",1.068502,1.27335,2.091762,-7.024232,1.129692,1.825346,-7.017917,0.5688872,0.9761391,0.0001519557,1.025839,-0.01178481,0.01934724,0.9664664,5.64933,-0.0192912,8.380196,0.03658925,0.1498586,0.085325,9.206071
"2.59 sec",1.068502,1.27335,2.091762,-7.024232,1.13537,1.83511,-7.017883,0.566359,0.9761129,0.006447302,1.026713,0.03855703,0.02675869,0.5512421,4.383247,-0.03071432,9.204476,0.03462949,0.141232,0.08357644,9.761518
"2.6 sec",1.07822,1.326423,2.190326,-7.02602,1.141009,1.844857,-7.017814,0.5610206,0.9727442,0.007284875,1.027558,0.07496771,0.03078403,0.2741876,2.969677,-0.007604131,9.760982,-0.02550628,-0.103468,0.1013227,13.29735
"2.61 sec",1.07822,1.326423,2.190326,-7.02602,1.146576,1.854551,-7.017905,0.5524246,0.9659911,-0.02622851,1.028566,0.07075512,0.0257962,-1.01109,-2.694316,0.1718815,13.29541,-0.03100547,-0.1253513,0.09930706,10.9841
"2.62 sec",1.07822,1.326423,2.190326,-7.02602,1.152073,1.864189,-7.01823,0.5475065,0.9620946,-0.03837608,1.029583,0.03286798,0.01357582,-1.316323,-4.348708,0.1612097,10.98437,-0.03592937,-0.1447708,0.09727263,9.518179
"2.63 sec",1.07822,1.326423,2.190326,-7.02602,1.157539,1.873804,-7.018603,0.5464185,0.9615805,-0.03581711,1.030587,-0.01209036,0.0004721428,-1.246467,-4.383985,0.1021846,9.519102,-0.03864254,-0.1551303,0.09526467,8.885846
"2.64 sec",1.07822,1.326423,2.190326,-7.02602,1.163011,1.88343,-7.018916,0.5483525,0.9638628,-0.02668062,1.031566,-0.05320738,-0.01106381,-1.030817,-3.735775,0.05584641,8.886681,-0.03908494,-0.1562678,0.0933075,8.81967
"2.65 sec",1.07822,1.326423,2.190326,-7.02602,1.168515,1.893089,-7.019133,0.5527321,0.9684716,-0.01656055,1.032516,-0.08604755,-0.02012626,-0.7676836,-2.826298,0.037265,8.820638,0.07607774,-0.03100965,0.09140754,8.970488
"2.66 sec",1.07822,1.326423,2.190326,-7.02602,1.174071,1.902805,-7.019254,0.5584515,0.9747922,-0.007720734,1.033432,-0.09540366,-0.01325682,1.654944,0.3866028,0.09636407,8.968863,0.03689214,0.1462629,0.08957648,9.412992
"2.67 sec",1.07822,1.326423,2.190326,-7.02602,1.17968,1.912587,-7.019309,0.5629155,0.9812855,-0.003301227,1.03435,-0.0651022,0.001766134,1.340695,4.678697,0.08428576,9.412567,0.03600727,0.142175,0.08774042,9.679166
"2.68 sec",1.07822,1.326423,2.190326,-7.02602,1.185318,1.922421,-7.019333,0.5642529,0.9850139,-0.001832825,1.035258,-0.01486107,0.01320711,0.9633263,5.024045,0.02391374,9.678045,0.03554807,0.139813,0.08592439,9.839156
"2.69 sec",1.07822,1.326423,2.190326,-7.02602,1.190954,1.932275,-7.019353,0.5623274,0.9851327,-0.002055736,1.036137,0.03117941,0.02119128,0.6476192,4.105653,0.000308391,9.836953,0.03541747,0.1387825,0.08416486,9.909465
"2.7 sec",1.087876,1.378651,2.289404,-7.024397,1.196556,1.942113,-7.019378,0.557767,0.9820992,-0.002875242,1.03699,0.06661355,0.02649091,0.4178358,2.99863,0.0052399,9.908387,-0.05025896,-0.1969669,0.1017716,7.007927
"2.71 sec",1.087876,1.378651,2.289404,-7.024397,1.202114,1.951918,-7.019272,0.5539014,0.9789896,0.02457727,1.038008,0.05264769,0.01991725,-1.364851,-4.304915,0.1901703,7.009519,-0.03859779,-0.1501703,0.09973598,9.159709
"2.72 sec",1.087876,1.378651,2.289404,-7.024397,1.207638,1.961697,-7.018989,0.5515589,0.977295,0.03168682,1.039041,0.004995758,0.005509129,-1.429603,-4.851507,0.1300488,9.159417,-0.03404593,-0.1317687,0.0976696,10.42532
"2.73 sec",1.087876,1.378651,2.289404,-7.024397,1.213156,1.971475,-7.018699,0.552579,0.9788069,0.02588261,1.040048,-0.03800216,-0.007089184,-1.082527,-3.725144,0.07334304,10.42441,-0.03273273,-0.1261289,0.09565663,10.88552
