Time,desired yaw,desired x,desired y,desired z,WorldPosition_1,WorldPosition_2,WorldPosition_3,WorldVelocity_1,WorldVelocity_2,WorldVelocity_3,EulerZYX_1,EulerZYX_2,EulerZYX_3,BodyAngularRateRPY_1,BodyAngularRateRPY_2,BodyAngularRateRPY_3,Thrust,Roll CS,Pitch CS,Yaw CS,Thrust CS
"0 sec",0.6806784,0.3010184,0.2437599,-7.061348,0,0,-7,0,0,0,0,0,0,0,0,0,0,0.01068044,0.05975684,0.1301244,2.063935
"0.01 sec",0.6806784,0.3010184,0.2437599,-7.061348,-1.393645e-07,2.483969e-08,-6.999608,-5.269875e-05,9.384959e-06,0.07798995,0.001234999,0.006958231,0.001246168,0.202506,1.134805,0.1288205,2.063785,0.03497974,-0.1372087,0.2343529,3.926652
"0.02 sec",0.6806784,0.3010184,0.2437599,-7.061348,-1.919442e-06,6.050189e-07,-6.998529,-0.0002333615,0.0001412553,0.137302,0.003522107,-0.003501854,0.006304527,0.6867994,-2.473047,0.2491223,3.926551,0.0701853,-0.09440901,0.30159,5.631926
"0.03 sec",0.6806784,0.3010184,0.2437599,-7.061348,-9.680875e-07,4.671665e-06,-6.996943,0.0006544297,0.0007836923,0.1795324,0.00648996,-0.02790724,0.01754768,1.377206,-2.298,0.3402393,5.6318,0.08993815,-0.05133875,0.2920929,7.872473
"0.04 sec",0.6806784,0.3010184,0.2437599,-7.061348,1.881503e-05,2.141107e-05,-6.995044,0.003517057,0.002789568,0.1995618,0.0094028,-0.04350623,0.03360184,1.703761,-0.9728766,0.3237954,7.871391,0.07849938,-0.05946506,0.3129941,8.837534
"0.05 sec",0.6806784,0.3010184,0.2437599,-7.061348,7.41527e-05,6.660463e-05,-6.992997,0.007663524,0.006476215,0.2097099,0.01251618,-0.05086736,0.04826039,1.260727,-0.5184216,0.3376378,8.836982,0.07128453,-0.06351185,0.3690689,10.57113
"0.06 sec",0.6806784,0.3010184,0.2437599,-7.061348,0.0001778875,0.0001589544,-6.990932,0.01317659,0.01218748,0.2028433,0.0161758,-0.05533305,0.05788306,0.7462841,-0.3442187,0.3889294,10.57062,0.06509127,-0.06077971,0.3768827,12.50748
"0.07 sec",0.6806784,0.3010184,0.2437599,-7.061348,0.0003439073,0.0003185694,-6.989032,0.02010135,0.01986918,0.1767952,0.01993989,-0.05801746,0.06276961,0.327013,-0.1655121,0.3873637,12.50703,0.05909074,-0.05021837,0.3856377,13.08037
"0.08 sec",0.6806784,0.3010184,0.2437599,-7.061348,0.0005819933,0.0005594388,-6.987423,0.02751973,0.02834503,0.1447247,0.02379172,-0.05816881,0.06404343,0.02354832,0.1282692,0.3775496,13.07964,0.0537351,0.01509714,0.3993023,13.30487
"0.09 sec",0.6806784,0.3010184,0.2437599,-7.061348,0.0008934067,0.0008861985,-6.986148,0.03455325,0.03698273,0.1102998,0.02777704,-0.04905626,0.06285968,-0.1735166,1.437982,0.3089525,13.29758,0.04811357,0.0339583,0.4230815,13.2965
"0.1 sec",0.6167006,0.3146538,0.2234707,-7.0641,0.001266662,0.001298073,-6.985218,0.03970148,0.04532193,0.07579821,0.03199308,-0.03148532,0.06009015,-0.3072288,1.928181,0.3073067,13.29733,0.04218739,-0.007363191,0.440639,13.10677
"0.11 sec",0.6167006,0.3146538,0.2234707,-7.0641,0.001679498,0.001790437,-6.984623,0.04257121,0.05305546,0.04304355,0.03638771,-0.01803333,0.05623934,-0.4034572,0.9255658,0.3889542,13.11076,0.0426774,-0.01522888,0.4560035,12.74389
"0.12 sec",0.6167006,0.3146538,0.2234707,-7.0641,0.002113883,0.002356362,-6.984339,0.04419063,0.0600392,0.01381263,0.04093869,-0.01266589,0.0523741,-0.3462106,0.2874969,0.4414687,12.74454,0.04532396,0.01879448,0.4617816,12.14982
"0.13 sec",0.6167006,0.3146538,0.2234707,-7.0641,0.002561326,0.002988264,-6.984319,0.045188,0.0662739,-0.009573779,0.04555283,-0.007524526,0.04959633,-0.2107995,0.6815472,0.4284322,12.15045,0.04303281,0.008720807,0.4646371,11.39568
"0.14 sec",0.6167006,0.3146538,0.2234707,-7.0641,0.003015031,0.003679071,-6.984495,0.04544407,0.07183639,-0.02548775,0.05019715,-0.001949565,0.04764561,-0.1721612,0.4839137,0.4420475,11.3968,0.03450136,-0.01015154,0.4604307,10.81928
"0.15 sec",0.6167006,0.3146538,0.2234707,-7.0641,0.003468684,0.004422866,-6.984801,0.04525757,0.07686894,-0.03561128,0.05480341,-0.0003211646,0.0451528,-0.2894176,-0.02675907,0.4621143,10.81992,0.02331023,-0.02963101,0.4517551,10.50716
"0.16 sec",0.6167006,0.3146538,0.2234707,-7.0641,0.003920538,0.005214659,-6.985193,0.04518035,0.08141623,-0.04256431,0.05932617,-0.003993778,0.04098871,-0.4813689,-0.5475475,0.4747243,10.50797,0.01420363,-0.03885301,0.4407918,10.19186
"0.17 sec",0.6167006,0.3146538,0.2234707,-7.0641,0.004374284,0.006048965,-6.985638,0.04569555,0.08534995,-0.04638622,0.06374183,-0.01120601,0.03516279,-0.6178858,-0.7762151,0.4685965,10.19257,0.004481355,-0.03897723,0.4308964,10.08809
"0.18 sec",0.6167006,0.3146538,0.2234707,-7.0641,0.004837114,0.006919486,-6.986115,0.04700452,0.08864351,-0.04913096,0.06805865,-0.01885044,0.02810266,-0.7211695,-0.6974314,0.4508668,10.08884,-0.001016397,-0.03586158,0.4233092,10.06224
"0.19 sec",0.6167006,0.3146538,0.2234707,-7.0641,0.005316811,0.00781951,-6.986619,0.04904064,0.09124389,-0.0516037,0.07229798,-0.02478152,0.02063271,-0.7134202,-0.4774674,0.4333107,10.06954,-0.00259865,-0.03205096,0.4153252,10.11282
"0.2 sec",0.6520733,0.3150628,0.2448434,-7.036338,0.005819725,0.008742142,-6.98715,0.05160889,0.0931753,-0.05456964,0.07645664,-0.02833192,0.01388206,-0.59849,-0.2437869,0.4186665,10.1122,0.000698325,-0.0338603,0.4098195,9.57622
"0.21 sec",0.6520733,0.3150628,0.2448434,-7.036338,0.006349282,0.009680753,-6.987685,0.05433645,0.09447046,-0.05232147,0.08055822,-0.03036105,0.008938299,-0.3802533,-0.1582645,0.4110968,9.576751,0.004023937,-0.02997131,0.4133549,9.736956
"0.22 sec",0.6520733,0.3150628,0.2448434,-7.036338,0.006907244,0.01063048,-6.988204,0.0572736,0.09543478,-0.05150145,0.08469011,-0.031215,0.006173201,-0.1718891,-0.0271134,0.4133324,9.734488,0.008656316,-0.03191158,0.4075844,9.826143
"0.23 sec",0.6520733,0.3150628,0.2448434,-7.036338,0.00749505,0.01158897,-6.988719,0.06029278,0.09625412,-0.05158967,0.08876892,-0.03146028,0.00543082,0.01695602,-0.01779019,0.4074855,9.825677,0.01260536,-0.03125947,0.4007069,9.802244
"0.24 sec",0.6520733,0.3150628,0.2448434,-7.036338,0.008113109,0.01255564,-6.989234,0.06331822,0.09709564,-0.05146629,0.09277952,-0.03154946,0.006289214,0.1498269,0.001457316,0.4005061,9.808119,0.01541918,-0.02819221,0.3949291,9.808006
"0.25 sec",0.6520733,0.3150628,0.2448434,-7.036338,0.008761341,0.01353138,-6.989749,0.06631815,0.09808506,-0.05139523,0.0967318,-0.0311668,0.008118337,0.2176743,0.0662892,0.3942182,9.808972,0.016891,-0.02510941,0.3884035,9.841917
"0.26 sec",0.6520733,0.3150628,0.2448434,-7.036338,0.00943921,0.01451805,-6.990264,0.06923416,0.09928315,-0.05165558,0.1006193,-0.03011225,0.01028719,0.2262706,0.1332096,0.3868909,9.841283,0.01706439,-0.02219735,0.3806029,9.872196
"0.27 sec",0.6520733,0.3150628,0.2448434,-7.036338,0.01014553,0.01551775,-6.990784,0.07199965,0.1006902,-0.05222371,0.1044295,-0.02847212,0.01227581,0.1897748,0.1845873,0.3782269,9.860835,0.01623427,-0.01728389,0.3721243,9.899132
"0.28 sec",0.6520733,0.3150628,0.2448434,-7.036338,0.01087852,0.01653241,-6.99131,0.07455664,0.1022628,-0.0530598,0.1081552,-0.02616717,0.01373809,0.1269995,0.2590898,0.3684868,9.898528,0.01504987,-0.01124624,0.3625565,9.943164
"0.29 sec",0.6520733,0.3150628,0.2448434,-7.036338,0.01163577,0.01756335,-6.991847,0.07683819,0.1039346,-0.05433983,0.1117858,-0.02301334,0.01454897,0.06117096,0.3474839,0.3574512,9.942633,0.01402355,-0.01065417,0.3521563,10.00728
"0.3 sec",0.6916627,0.3118067,0.2665487,-7.044223,0.0124142,0.01861122,-6.9924,0.07878992,0.1056383,-0.05626272,0.1153127,-0.01966466,0.01478667,0.009880668,0.3194024,0.347403,10.0064,0.01257563,-0.009019331,0.3472278,10.33199
"0.31 sec",0.6916627,0.3118067,0.2665487,-7.044223,0.01321076,0.01967627,-6.992988,0.08047157,0.1073643,-0.06137112,0.1187875,-0.01667131,0.01454932,-0.03493861,0.2802851,0.3431316,10.33121,0.01413862,-0.005046191,0.3440582,10.0858
"0.32 sec",0.6916627,0.3118067,0.2665487,-7.044223,0.01402248,0.0207581,-6.993616,0.08182295,0.108991,-0.06416955,0.1222297,-0.01378117,0.01427763,-0.01196974,0.2896834,0.3399211,10.08692,0.01290596,-0.007725084,0.3385971,10.23984
"0.33 sec",0.6916627,0.3118067,0.2665487,-7.044223,0.01484638,0.02185604,-6.994278,0.0829181,0.1105882,-0.06841087,0.1256184,-0.01148641,0.01402747,-0.0256313,0.1859995,0.3359956,10.23801,0.01401013,-0.006746058,0.3344846,9.988192
"0.34 sec",0.6916627,0.3118067,0.2665487,-7.044223,0.01568009,0.02296953,-6.994972,0.08379849,0.112104,-0.07024113,0.1289653,-0.009922648,0.01386259,-0.003592214,0.1368116,0.3326028,9.989431,0.01292275,-0.008925054,0.328594,10.06792
"0.35 sec",0.6916627,0.3118067,0.2665487,-7.044223,0.01652195,0.02409809,-6.995687,0.08455838,0.1136047,-0.07278626,0.1322543,-0.009068688,0.01371566,-0.01633398,0.05420892,0.3278672,10.06751,0.0135204,-0.009428705,0.3238503,9.869776
"0.36 sec",0.6916627,0.3118067,0.2665487,-7.044223,0.01737102,0.02524142,-6.996418,0.08525085,0.1150572,-0.07342021,0.1354952,-0.008833073,0.01358547,-0.005304066,0.00914066,0.3237433,9.875229,0.01277968,-0.009027999,0.3185163,9.893154
"0.37 sec",0.6916627,0.3118067,0.2665487,-7.044223,0.01822694,0.02639922,-6.997156,0.0859328,0.1165017,-0.07423525,0.1386831,-0.008829173,0.01344609,-0.01438834,0.001710173,0.3185098,9.88927,0.01282426,-0.00872249,0.3134927,9.833413
"0.38 sec",0.6916627,0.3118067,0.2665487,-7.044223,0.01908965,0.02757136,-6.9979,0.08660925,0.1179242,-0.07447089,0.1418206,-0.008830922,0.01327769,-0.01303849,0.00561893,0.3134334,9.834167,0.01264917,-0.007515648,0.3083526,9.830765
"0.39 sec",0.6916627,0.3118067,0.2665487,-7.044223,0.0199591,0.02875766,-6.998646,0.0872771,0.1193313,-0.07466685,0.1449068,-0.008669457,0.01311643,-0.01290494,0.02938477,0.3079819,9.831601,0.0126478,-0.006680073,0.3029868,9.83052
"0.4 sec",0.6204125,0.3366239,0.2555991,-7.05559,0.0208351,0.02995794,-6.999393,0.08791638,0.1207217,-0.07486027,0.1479394,-0.008296224,0.01297529,-0.009940926,0.04762023,0.3023836,9.831047,0.009656155,-0.02496377,0.2946379,10.08153
"0.41 sec",0.6204125,0.3366239,0.2555991,-7.05559,0.02171756,0.0311722,-7.000155,0.0886071,0.1221288,-0.07749946,0.1508901,-0.009992945,0.01251801,-0.06332208,-0.302552,0.2984442,10.08033,0.01102602,-0.02891254,0.2941723,9.449428
"0.42 sec",0.6204125,0.3366239,0.2555991,-7.05559,0.02260799,0.03240006,-7.000913,0.08953966,0.123443,-0.07404156,0.1538322,-0.01390458,0.01197069,-0.04031393,-0.4268418,0.2992856,9.450083,0.00981612,-0.02732176,0.3055405,9.395215
"0.43 sec",0.6204125,0.3366239,0.2555991,-7.05559,0.02350963,0.03364108,-7.001633,0.09084975,0.1247634,-0.06988911,0.1568819,-0.0178682,0.01146775,-0.04644093,-0.3512385,0.3095505,9.395949,0.01044316,-0.02367966,0.3187284,9.450471
"0.44 sec",0.6204125,0.3366239,0.2555991,-7.05559,0.0244261,0.0348954,-7.002314,0.09248552,0.1261009,-0.06625637,0.1600625,-0.02052415,0.0110557,-0.02542298,-0.1892358,0.3207769,9.449757,0.01088834,-0.01947417,0.3241837,9.665445
"0.45 sec",0.6204125,0.3366239,0.2555991,-7.05559,0.0253601,0.03616326,-7.002968,0.09433059,0.1274725,-0.06472987,0.1633015,-0.02147734,0.01085655,-0.003786884,-0.02132904,0.3243599,9.65872,0.01138245,-0.01892747,0.3197262,9.861138
"0.46 sec",0.6204125,0.3366239,0.2555991,-7.05559,0.02631297,0.03744498,-7.003617,0.09624065,0.1288736,-0.06516197,0.1665011,-0.02131904,0.01085789,0.01434465,0.04610754,0.3191718,9.856862,0.01241189,-0.02147835,0.3126686,9.858019
"0.47 sec",0.6204125,0.3366239,0.2555991,-7.05559,0.02728479,0.03874077,-7.004272,0.09811831,0.1302871,-0.06561393,0.1696314,-0.02109986,0.01108115,0.03788827,0.01030864,0.3125041,9.85765,0.01285721,-0.02145481,0.3067465,9.803164
"0.48 sec",0.6204125,0.3366239,0.2555991,-7.05559,0.02827523,0.0400508,-7.004927,0.09996764,0.1317275,-0.06553134,0.1727019,-0.02110339,0.0114626,0.04747193,-0.00170022,0.3067178,9.803852,0.01287924,-0.01990775,0.3017056,9.792571
"0.49 sec",0.6204125,0.3366239,0.2555991,-7.05559,0.02928409,0.04137546,-7.005581,0.1018015,0.13321,-0.06533095,0.1757215,-0.02099368,0.01185643,0.04279044,0.02500125,0.3013642,9.794853,0.01281176,-0.01877274,0.2963887,9.805553
"0.5 sec",0.650269,0.3396804,0.2780303,-7.058311,0.03031116,0.04271513,-7.006235,0.1036035,0.1347302,-0.06525597,0.1786881,-0.02061582,0.01217147,0.03279439,0.05070898,0.2957309,9.803295,0.01231628,-0.02014625,0.2940931,9.993721
"0.51 sec",0.650269,0.3396804,0.2780303,-7.058311,0.03135616,0.04407027,-7.006896,0.1053917,0.1363016,-0.06701705,0.1816303,-0.02029846,0.01233759,0.01497051,0.02347107,0.2937653,9.989523,0.01309651,-0.02308841,0.2922996,9.852715
"0.52 sec",0.650269,0.3396804,0.2780303,-7.058311,0.03241882,0.04544111,-7.007568,0.1071411,0.1378685,-0.06745099,0.1845542,-0.02051274,0.01247607,0.02245269,-0.04473982,0.2928188,9.853931,0.01308543,-0.02110653,0.2918024,9.806171
"0.53 sec",0.650269,0.3396804,0.2780303,-7.058311,0.03349904,0.0468277,-7.008242,0.1089085,0.1394543,-0.06739603,0.1874724,-0.02085208,0.01263849,0.02143156,-0.01886371,0.2920005,9.8068,0.01319137,-0.01909505,0.2909559,9.81381
"0.54 sec",0.650269,0.3396804,0.2780303,-7.058311,0.03459702,0.04823028,-7.008916,0.110684,0.1410642,-0.06740357,0.1903824,-0.02077347,0.01278853,0.0201326,0.03181505,0.2905101,9.811832,0.01335279,-0.0177889,0.2889162,9.837086
"0.55 sec",0.650269,0.3396804,0.2780303,-7.058311,0.03571262,0.04964905,-7.009592,0.1124268,0.1426913,-0.06763942,0.1932727,-0.02026927,0.01293331,0.01993364,0.06691523,0.2880158,9.835602,0.01354886,-0.01676156,0.2859483,9.845524
"0.56 sec",0.650269,0.3396804,0.2780303,-7.058311,0.03684533,0.05108413,-7.01027,0.1141012,0.1443268,-0.06796508,0.1961337,-0.01950836,0.01308428,0.02066436,0.08500943,0.2848065,9.842426,0.01367292,-0.01579702,0.2824046,9.847489
"0.57 sec",0.650269,0.3396804,0.2780303,-7.058311,0.03799435,0.0525356,-7.010951,0.1156882,0.1459661,-0.0683126,0.1989595,-0.01862278,0.01323786,0.02008518,0.09307879,0.2811486,9.846024,0.01372853,-0.01493933,0.2784641,9.844049
"0.58 sec",0.650269,0.3396804,0.2780303,-7.058311,0.03915877,0.05400346,-7.011636,0.117179,0.1476058,-0.06862851,0.2017462,-0.01769539,0.01337861,0.01783613,0.09441569,0.2771826,9.844539,0.01370788,-0.01412062,0.2742441,9.838046
"0.59 sec",0.650269,0.3396804,0.2780303,-7.058311,0.04033761,0.0554877,-7.012323,0.1185726,0.1492425,-0.06888667,0.2044908,-0.0167731,0.01348986,0.01399422,0.09264512,0.2729808,9.839896,0.01362336,-0.01332146,0.2698002,9.831548
"0.6 sec",0.6792577,0.3438011,0.3010525,-7.066485,0.04152991,0.05698828,-7.013013,0.1198714,0.1508723,-0.0690816,0.2071911,-0.01587484,0.01355867,0.009136862,0.08986676,0.2685725,9.833827,0.01171218,-0.01443177,0.2686256,10.19179
"0.61 sec",0.6792577,0.3438011,0.3010525,-7.066485,0.04273497,0.05850538,-7.013722,0.1211326,0.1525439,-0.07278639,0.2098779,-0.01522555,0.01337137,-0.02975439,0.05107008,0.2679347,10.19103,0.01349601,-0.01827406,0.2694095,9.88951
"0.62 sec",0.6792577,0.3438011,0.3010525,-7.066485,0.04395227,0.06003883,-7.014454,0.1223275,0.1541424,-0.07363848,0.2125716,-0.01531539,0.01319706,-0.001405028,-0.04326921,0.2699727,9.890283,0.01325914,-0.01503429,0.2696494,9.894924
"0.63 sec",0.6792577,0.3438011,0.3010525,-7.066485,0.04518162,0.06158824,-7.015195,0.1235457,0.1557416,-0.07446646,0.215268,-0.01554394,0.01317316,0.004056703,-0.001995006,0.2696666,9.893533,0.01366709,-0.01361153,0.2691548,9.879697
"0.64 sec",0.6792577,0.3438011,0.3010525,-7.066485,0.04642317,0.06315366,-7.015943,0.124759,0.1573433,-0.07514574,0.2179598,-0.01534991,0.01323006,0.01351522,0.03895293,0.2686314,9.882807,0.01399258,-0.01205786,0.2678396,9.883293
"0.65 sec",0.6792577,0.3438011,0.3010525,-7.066485,0.04767666,0.06473513,-7.016698,0.1259285,0.1589502,-0.0758593,0.2206389,-0.01476915,0.01337171,0.02070968,0.07429597,0.2668413,9.880395,0.01423564,-0.01071512,0.2657766,9.887185
"0.66 sec",0.6792577,0.3438011,0.3010525,-7.066485,0.04894148,0.06633268,-7.01746,0.1270196,0.1605613,-0.07661071,0.2232977,-0.01390259,0.01356657,0.02412768,0.09699388,0.2644602,9.885389,0.01440313,-0.009631512,0.2631498,9.882219
"0.67 sec",0.6792577,0.3438011,0.3010525,-7.066485,0.05021671,0.06794636,-7.01823,0.1280095,0.1621733,-0.07731539,0.2259306,-0.01288424,0.01377892,0.0241775,0.106405,0.2616876,9.883029,0.0144618,-0.00862004,0.2601025,9.871874
"0.68 sec",0.6792577,0.3438011,0.3010525,-7.066485,0.0515013,0.06957614,-7.019006,0.1288886,0.1637829,-0.07791935,0.2285331,-0.01181426,0.01397539,0.02102889,0.1084698,0.2585946,9.874189,0.0144113,-0.007625681,0.256702,9.860574
"0.69 sec",0.6792577,0.3438011,0.3010525,-7.066485,0.05279411,0.07122199,-7.019788,0.1296555,0.1653857,-0.07841185,0.2311019,-0.01074158,0.01412729,0.01536315,0.1075104,0.2551944,9.863352,0.01427897,-0.006659806,0.2529787,9.849965
"0.7 sec",0.7061857,0.3494683,0.3248138,-7.076071,0.05409404,0.07288381,-7.020574,0.1303126,0.1669762,-0.0787992,0.2336336,-0.009686581,0.01421622,0.008409983,0.1052406,0.2514963,9.852677,0.0109195,-0.007830988,0.2526047,10.28514
"0.71 sec",0.7061857,0.3494683,0.3248138,-7.076071,0.05540016,0.07456176,-7.021385,0.1309006,0.1686059,-0.08342519,0.2361598,-0.008903009,0.0138663,-0.05886455,0.06242793,0.2517514,10.28474,0.01318527,-0.0130592,0.2548583,9.857928
"0.72 sec",0.7061857,0.3494683,0.3248138,-7.076071,0.05671183,0.07625542,-7.022222,0.1314359,0.1701192,-0.08400075,0.2387073,-0.009057741,0.01344597,-0.02487425,-0.06173537,0.255702,9.858323,0.01255161,-0.008592514,0.2553945,9.892639
"0.73 sec",0.7061857,0.3494683,0.3248138,-7.076071,0.05802904,0.07796411,-7.023066,0.1320126,0.1716163,-0.08480868,0.2412609,-0.00936699,0.0131898,-0.02094605,-0.00291247,0.255444,9.879542,0.01279168,-0.007176094,0.2551534,9.882309
"0.74 sec",0.7061857,0.3494683,0.3248138,-7.076071,0.05935209,0.07968767,-7.023918,0.1325934,0.1730928,-0.08551852,0.2438126,-0.009146746,0.01301334,-0.01061376,0.04348373,0.2545981,9.881573,0.01302996,-0.005764261,0.2541496,9.881489
"0.75 sec",0.7061857,0.3494683,0.3248138,-7.076071,0.06068077,0.0814259,-7.024776,0.1331321,0.1745486,-0.08621978,0.2463546,-0.008528643,0.01294353,-0.0004344545,0.07686193,0.2531666,9.887139,0.01326659,-0.004581927,0.2525114,9.876098
"0.76 sec",0.7061857,0.3494683,0.3248138,-7.076071,0.06201448,0.08317858,-7.025642,0.133595,0.1759846,-0.08687144,0.2488806,-0.007658472,0.01296736,0.007588938,0.09531499,0.2512893,9.878502,0.01341344,-0.003428676,0.2503215,9.867729
"0.77 sec",0.7061857,0.3494683,0.3248138,-7.076071,0.06335235,0.08494553,-7.026514,0.1339621,0.177403,-0.08744002,0.2513849,-0.006652327,0.01305172,0.01159263,0.1049688,0.2489677,9.870005,0.01347852,-0.002392863,0.2476703,9.856045
"0.78 sec",0.7061857,0.3494683,0.3248138,-7.076071,0.06469337,0.08672658,-7.02739,0.1342235,0.1788044,-0.08789299,0.253863,-0.005588832,0.01315772,0.01194417,0.1077676,0.2462703,9.858911,0.01345908,-0.001423837,0.2446159,9.843071
"0.79 sec",0.7061857,0.3494683,0.3248138,-7.076071,0.06603646,0.08852156,-7.028271,0.1343767,0.1801878,-0.08821708,0.2563107,-0.004520664,0.01325264,0.009429177,0.1066116,0.2432223,9.846347,0.01336952,-0.0005068711,0.2411952,9.830607
"0.8 sec",0.626991,0.3814344,0.3178673,-7.087391,0.06738055,0.09033027,-7.029154,0.1344239,0.1815508,-0.08841688,0.2587244,-0.003476433,0.01331356,0.005133142,0.1034501,0.239838,9.833848,0.01167262,-0.02339315,0.2349185,10.11309
"0.81 sec",0.626991,0.3814344,0.3178673,-7.087391,0.06872486,0.09215274,-7.030053,0.1344687,0.1829492,-0.09136675,0.2610768,-0.00523622,0.01314549,-0.02922769,-0.3517542,0.2395652,10.11209,0.01574785,-0.02766585,0.2366617,9.234061
"0.82 sec",0.626991,0.3814344,0.3178673,-7.087391,0.07007094,0.0939889,-7.03094,0.1348149,0.1843026,-0.08582123,0.2634425,-0.009828457,0.01327501,0.04403466,-0.5052762,0.2433693,9.23655,0.016859,-0.0258894,0.253709,9.0255
"0.83 sec",0.626991,0.3814344,0.3178673,-7.087391,0.07142251,0.09583915,-7.031759,0.1355622,0.1857748,-0.07801346,0.2659707,-0.01453662,0.01392095,0.08079407,-0.4197313,0.2595341,9.032185,0.02083266,-0.02132903,0.2802957,8.965034
"0.84 sec",0.626991,0.3814344,0.3178673,-7.087391,0.07278325,0.09770493,-7.032497,0.1366265,0.1874125,-0.06955939,0.2687599,-0.01769083,0.01515287,0.1536806,-0.2233348,0.2836512,8.966216,0.02362906,-0.01403297,0.3007772,9.249163
"0.85 sec",0.626991,0.3814344,0.3178673,-7.087391,0.07415567,0.09958829,-7.033164,0.137862,0.1892914,-0.06385134,0.2717571,-0.01853678,0.01696867,0.2010161,0.02132951,0.3004077,9.248146,0.01981916,-0.009891979,0.3001584,9.967413
"0.86 sec",0.626991,0.3814344,0.3178673,-7.087391,0.0755407,0.101492,-7.033808,0.1391198,0.1914789,-0.06520928,0.2747591,-0.01744112,0.01839214,0.105014,0.1732039,0.2969858,9.966392,0.0170881,-0.01852921,0.2908823,10.17627
"0.87 sec",0.626991,0.3814344,0.3178673,-7.087391,0.07693766,0.1034183,-7.034478,0.1402565,0.1937756,-0.0687876,0.2776726,-0.01663248,0.01879807,0.003378285,0.02374714,0.2904469,10.16936,0.01702216,-0.02114816,0.2844845,9.846139
"0.88 sec",0.626991,0.3814344,0.3178673,-7.087391,0.07834559,0.1053672,-7.035168,0.141336,0.1960036,-0.06920054,0.2805208,-0.01705614,0.01858283,-0.0292956,-0.07615987,0.2859092,9.846981,0.01476854,-0.01804246,0.2792268,9.86423
"0.89 sec",0.626991,0.3814344,0.3178673,-7.087391,0.07976461,0.1073383,-7.035863,0.1424798,0.1982144,-0.06970792,0.2833157,-0.01762501,0.01794751,-0.07553098,-0.03254597,0.2798143,9.860622,0.01365637,-0.0166388,0.2734199,9.851658
"0.9 sec",0.6541177,0.3896046,0.3457955,-7.089126,0.08119534,0.1093313,-7.036562,0.1436702,0.2003579,-0.07009578,0.2860529,-0.01771891,0.01699871,-0.09535355,0.0147874,0.2731647,9.853627,0.01126057,-0.02123381,0.2703994,10.0605
"0.91 sec",0.6541177,0.3896046,0.3457955,-7.089126,0.08263824,0.1113454,-7.037274,0.1449219,0.2024485,-0.07251963,0.2887585,-0.01807052,0.01577114,-0.1274402,-0.05992617,0.2713385,10.0551,0.01220226,-0.02248247,0.2685464,9.820392
"0.92 sec",0.6541177,0.3896046,0.3457955,-7.089126,0.08409394,0.1133797,-7.038001,0.1462352,0.2043957,-0.0726538,0.291445,-0.01894143,0.01461636,-0.09358767,-0.09460442,0.2699151,9.827549,0.01264447,-0.02040222,0.2672082,9.81423
"0.93 sec",0.6541177,0.3896046,0.3457955,-7.089126,0.08556329,0.1154331,-7.038727,0.1476503,0.2062772,-0.07267049,0.2941178,-0.01966065,0.01383539,-0.05523364,-0.04683916,0.267832,9.817285,0.0135405,-0.01849842,0.2649971,9.816718
"0.94 sec",0.6541177,0.3896046,0.3457955,-7.089126,0.08704713,0.1175051,-7.039454,0.1491188,0.2081213,-0.07270888,0.2967689,-0.01980695,0.01346331,-0.01442638,0.01393388,0.2647814,9.819131,0.0143414,-0.01661837,0.2615699,9.841318
"0.95 sec",0.6541177,0.3896046,0.3457955,-7.089126,0.08854564,0.1195955,-7.040183,0.1505773,0.2099523,-0.07298985,0.2993864,-0.01937774,0.0134561,0.01723921,0.06646919,0.2606502,9.836143,0.01489734,-0.01508257,0.2570808,9.861676
"0.96 sec",0.6541177,0.3896046,0.3457955,-7.089126,0.09005845,0.1217041,-7.040915,0.1519686,0.2117836,-0.07347494,0.3019595,-0.01852645,0.01369256,0.03508766,0.09967396,0.2556971,9.854999,0.01515976,-0.01385634,0.2519117,9.868132
"0.97 sec",0.6541177,0.3896046,0.3457955,-7.089126,0.09158467,0.1238311,-7.041653,0.153255,0.213619,-0.07402812,0.3044812,-0.01744629,0.01403355,0.03946028,0.1145161,0.2502927,9.86543,0.0151383,-0.01277341,0.2463727,9.863636
"0.98 sec",0.6541177,0.3896046,0.3457955,-7.089126,0.09312315,0.1259765,-7.042396,0.1544197,0.2154554,-0.07454081,0.3069478,-0.01628305,0.01435885,0.03330291,0.1180228,0.2446722,9.864203,0.01487321,-0.01169927,0.240617,9.85521
"0.99 sec",0.6541177,0.3896046,0.3457955,-7.089126,0.09467265,0.1281402,-7.043143,0.1554607,0.2172844,-0.07497223,0.309357,-0.01511054,0.01458317,0.02037035,0.1171324,0.2389076,9.857175,0.01444337,-0.01062815,0.2346859,9.846826
"1 sec",0.6796209,0.3983302,0.3744279,-7.098149,0.09623196,0.1303221,-7.043894,0.1563825,0.2190936,-0.07532163,0.3117069,-0.01395453,0.01466121,0.004661816,0.1149591,0.2330026,9.849042,0.01041833,-0.01409915,0.2321239,10.28355
"1.01 sec",0.6796209,0.3983302,0.3744279,-7.098149,0.09780017,0.1325223,-7.04467,0.1572515,0.2209385,-0.0799256,0.3140294,-0.01334869,0.01417544,-0.07708298,0.02654686,0.2317491,10.28315,0.01222228,-0.01932817,0.2323984,9.851058
"1.02 sec",0.6796209,0.3983302,0.3744279,-7.098149,0.09937685,0.1347403,-7.045473,0.158097,0.2226475,-0.08042843,0.3163533,-0.01391465,0.01350024,-0.05259029,-0.1049083,0.2338167,9.851452,0.01193796,-0.01472538,0.2321421,9.852894
"1.03 sec",0.6796209,0.3983302,0.3744279,-7.098149,0.1009624,0.1369752,-7.046279,0.1590298,0.2243274,-0.08083903,0.3186748,-0.01461163,0.01300618,-0.039335,-0.03743393,0.2326249,9.849854,0.01211908,-0.01261794,0.2308213,9.857715
"1.04 sec",0.6796209,0.3983302,0.3744279,-7.098149,0.1025576,0.1392268,-7.04709,0.1600046,0.2259817,-0.08129602,0.3209837,-0.01460493,0.01266439,-0.02339799,0.03141521,0.2304169,9.855521,0.01223047,-0.01068936,0.2283603,9.878555
"1.05 sec",0.6796209,0.3983302,0.3744279,-7.098149,0.1041624,0.1414948,-7.047905,0.1609555,0.2276064,-0.08195813,0.3232686,-0.01398979,0.01246491,-0.01118327,0.08384307,0.2273098,9.876962,0.01231425,-0.009230759,0.2250257,9.888091
"1.06 sec",0.6796209,0.3983302,0.3744279,-7.098149,0.1057764,0.1437788,-7.048729,0.1618304,0.2291951,-0.0827209,0.3255205,-0.0129835,0.01236788,-0.003152095,0.1119902,0.2236382,9.882806,0.01234612,-0.007923208,0.2210921,9.884685
"1.07 sec",0.6796209,0.3983302,0.3744279,-7.098149,0.1073987,0.1460785,-7.04956,0.162599,0.2307439,-0.08345225,0.3277335,-0.01178475,0.01233235,0.0009295119,0.1242058,0.2195615,9.884215,0.01234148,-0.006763388,0.2167369,9.872655
"1.08 sec",0.6796209,0.3983302,0.3744279,-7.098149,0.109028,0.1483935,-7.050397,0.1632481,0.2322513,-0.08406752,0.3299031,-0.01052206,0.012325,0.002217007,0.1262615,0.2151849,9.874953,0.0122824,-0.005615857,0.2120404,9.858697
"1.09 sec",0.6796209,0.3983302,0.3744279,-7.098149,0.1106632,0.1507234,-7.05124,0.1637754,0.2337171,-0.08454548,0.3320259,-0.009261016,0.01232061,0.001288853,0.124507,0.2105132,9.862055,0.01217482,-0.004504103,0.2070422,9.845773
"1.1 sec",0.701977,0.4085987,0.4036371,-7.108819,0.1123031,0.1530677,-7.052088,0.164183,0.2351409,-0.08489536,0.3340989,-0.008026808,0.01230075,-0.001121315,0.1212142,0.2055598,9.84916,0.007675922,-0.008697486,0.2053781,10.36191
"1.11 sec",0.701977,0.4085987,0.4036371,-7.108819,0.1139467,0.1554264,-7.052963,0.1645188,0.2365831,-0.09027249,0.3361535,-0.007442348,0.01174716,-0.08688748,0.01734222,0.205182,10.36147,0.01052329,-0.01460997,0.2073846,9.777314
"1.12 sec",0.701977,0.4085987,0.4036371,-7.108819,0.1155935,0.1577988,-7.053865,0.164861,0.2378852,-0.09008598,0.3382263,-0.008193205,0.01111086,-0.04220407,-0.1302575,0.2088409,9.777956,0.01002646,-0.009059504,0.20743,9.826839
"1.13 sec",0.701977,0.4085987,0.4036371,-7.108819,0.1172443,0.1601841,-7.054767,0.1653087,0.2391803,-0.09023245,0.3403006,-0.009033583,0.01073891,-0.02901238,-0.04500169,0.2079177,9.826181,0.01017553,-0.007202912,0.2064705,9.844866
"1.14 sec",0.701977,0.4085987,0.4036371,-7.108819,0.1188998,0.1625824,-7.055671,0.1658047,0.2404649,-0.09056772,0.3423658,-0.009083788,0.01050085,-0.01600064,0.0259744,0.2062003,9.84082,0.01017434,-0.005408965,0.2045706,9.864674
"1.15 sec",0.701977,0.4085987,0.4036371,-7.108819,0.1205603,0.1649933,-7.05658,0.16628,0.241727,-0.09110063,0.3444125,-0.008522899,0.01036343,-0.00854261,0.07744882,0.2037711,9.858737,0.01011824,-0.003971535,0.201958,9.871798
"1.16 sec",0.701977,0.4085987,0.4036371,-7.108819,0.1222252,0.1674168,-7.057493,0.1666847,0.2429551,-0.09170747,0.3464334,-0.007572455,0.01027811,-0.005407522,0.1060223,0.2008727,9.869123,0.0100605,-0.002760651,0.1988315,9.864272
"1.17 sec",0.701977,0.4085987,0.4036371,-7.108819,0.1238937,0.1698523,-7.058413,0.1669909,0.2441408,-0.09224351,0.3484233,-0.006431998,0.01021483,-0.004338406,0.1175743,0.1976363,9.865498,0.01000701,-0.001613907,0.1952823,9.850131
"1.18 sec",0.701977,0.4085987,0.4036371,-7.108819,0.1255646,0.1722994,-7.059338,0.167187,0.2452802,-0.09264112,0.350378,-0.0052261,0.01016009,-0.004100217,0.1203421,0.1940666,9.853416,0.009957558,-0.0005060229,0.1913494,9.835644
"1.19 sec",0.701977,0.4085987,0.4036371,-7.108819,0.127237,0.1747577,-7.060265,0.1672705,0.2463724,-0.09289504,0.3522935,-0.004015911,0.01010872,-0.004139057,0.1190853,0.1901534,9.839426,0.009921519,0.0005387686,0.1870663,9.82249
"1.2 sec",0.7219992,0.4198839,0.4334618,-7.12012,0.1289097,0.1772267,-7.061195,0.1672431,0.247418,-0.09301779,0.3541663,-0.002831722,0.0100603,-0.004043046,0.1156112,0.1859116,9.826013,0.005209368,-0.001915033,0.186159,10.37676
"1.21 sec",0.7219992,0.4198839,0.4334618,-7.12012,0.1305816,0.1797062,-7.062152,0.1671221,0.2484603,-0.09853897,0.3560284,-0.002089998,0.009470426,-0.09272161,0.04568325,0.1857321,10.37625,0.008262198,-0.005564423,0.1887313,9.770665
"1.22 sec",0.7219992,0.4198839,0.4334618,-7.12012,0.1322522,0.1821954,-7.063137,0.1670024,0.2493662,-0.09829645,0.3579144,-0.00224903,0.008810125,-0.04419571,-0.0540367,0.1892155,9.771364,0.006919337,-0.001668988,0.187992,9.890292
"1.23 sec",0.7219992,0.4198839,0.4334618,-7.12012,0.1339218,0.1846935,-7.064124,0.1669281,0.250244,-0.09906517,0.3597947,-0.002492012,0.00834075,-0.0458301,-0.000318616,0.1880007,9.889431,0.007266962,-0.001102571,0.1871086,9.845071
"1.24 sec",0.7219992,0.4198839,0.4334618,-7.12012,0.1355908,0.1872001,-7.065116,0.16687,0.2510783,-0.09942354,0.3616662,-0.002340482,0.007957424,-0.03069824,0.02747239,0.186895,9.845659,0.007406207,0.0006032715,0.1854758,9.828474
"1.25 sec",0.7219992,0.4198839,0.4334618,-7.12012,0.1372591,0.1897149,-7.066111,0.1667925,0.2518717,-0.09960853,0.3635218,-0.001852521,0.007719769,-0.01730839,0.06339467,0.184991,9.832064,0.007509007,0.002004619,0.1831859,9.831612
"1.26 sec",0.7219992,0.4198839,0.4334618,-7.12012,0.1389264,0.1922374,-7.067109,0.16666,0.2526262,-0.09982128,0.3653548,-0.001057495,0.007597202,-0.007828585,0.08905245,0.1825142,9.833556,0.007633374,0.003107808,0.180407,9.827977
"1.27 sec",0.7219992,0.4198839,0.4334618,-7.12012,0.140592,0.1947673,-7.068108,0.1664467,0.2533413,-0.09999926,0.3671603,-8.323215e-05,0.007557242,-0.001064024,0.1008425,0.17965,9.82945,0.007768804,0.004071662,0.1772233,9.816581
"1.28 sec",0.7219992,0.4198839,0.4334618,-7.12012,0.1422551,0.1973041,-7.069108,0.1661397,0.2540187,-0.1000648,0.3689342,0.0009557311,0.007576487,0.003700126,0.1033662,0.1764453,9.81953,0.007903617,0.004945383,0.1736829,9.802653
"1.29 sec",0.7219992,0.4198839,0.4334618,-7.12012,0.1439145,0.1998475,-7.070108,0.1657355,0.2546614,-0.09999177,0.3706728,0.001989625,0.007636793,0.006865973,0.1007999,0.1729182,9.80627,0.008029066,0.0052861,0.1698201,9.789411
"1.3 sec",0.6354663,0.4572565,0.4322729,-7.132775,0.1455694,0.2023972,-7.071107,0.1652372,0.255274,-0.0997861,0.372373,0.002928554,0.007723273,0.008715917,0.08702727,0.1691528,9.792918,0.007769623,-0.01913486,0.1629616,10.14976
"1.31 sec",0.6354663,0.4572565,0.4322729,-7.132775,0.1472192,0.2049531,-7.072121,0.1647353,0.2559222,-0.103089,0.3740062,0.0008375695,0.00777926,0.002647687,-0.3977673,0.1660602,10.14911,0.01470316,-0.02446555,0.1651144,9.082597
"1.32 sec",0.6354663,0.4572565,0.4322729,-7.132775,0.1488655,0.2075159,-7.073118,0.1646015,0.2566609,-0.09608485,0.375656,-0.004336128,0.008598283,0.1323515,-0.5719193,0.1699991,9.084132,0.01683038,-0.02321252,0.1794851,8.744662
"1.33 sec",0.6354663,0.4572565,0.4322729,-7.132775,0.1505126,0.2100872,-7.074027,0.1648771,0.2576546,-0.08551206,0.377443,-0.009734767,0.01028813,0.1881493,-0.4900622,0.1844811,8.745657,0.02310718,-0.01863263,0.2104792,8.472935
"1.34 sec",0.6354663,0.4572565,0.4322729,-7.132775,0.152164,0.2126698,-7.074815,0.1654471,0.2589282,-0.07219954,0.3795314,-0.01351776,0.01281823,0.2892014,-0.2809293,0.2140361,8.473892,0.0321356,-0.010076,0.2451952,8.467944
"1.35 sec",0.6354663,0.4572565,0.4322729,-7.132775,0.1538218,0.2152668,-7.07547,0.1661143,0.260529,-0.05876233,0.3819653,-0.01470285,0.01666443,0.4368937,0.002947615,0.2451515,8.469284,0.03509339,-0.002777677,0.2590869,9.106365
"1.36 sec",0.6354663,0.4572565,0.4322729,-7.132775,0.155486,0.2178822,-7.076021,0.1666672,0.262608,-0.05153727,0.3845494,-0.01332453,0.02122929,0.4543779,0.2309764,0.2542689,9.105618,0.01881261,-0.002974268,0.2490431,10.53202
"1.37 sec",0.6354663,0.4572565,0.4322729,-7.132775,0.1571543,0.2205216,-7.076569,0.1669487,0.2652906,-0.05835725,0.3870453,-0.0108631,0.0234662,0.06199723,0.2545047,0.2431325,10.5312,0.01522834,-0.01799386,0.2402527,10.41041
"1.38 sec",0.6354663,0.4572565,0.4322729,-7.132775,0.1588242,0.2231878,-7.077182,0.1670236,0.2679445,-0.06435815,0.3894523,-0.01030519,0.02283857,-0.1401441,-0.07195904,0.2419512,10.41151,0.01315043,-0.02175141,0.2342757,10.03938
"1.39 sec",0.6354663,0.4572565,0.4322729,-7.132775,0.1604952,0.2258797,-7.077838,0.1672116,0.2704057,-0.06671685,0.3917983,-0.01206891,0.02091327,-0.2145596,-0.2301553,0.23915,10.03997,0.009776969,-0.01571404,0.2286351,10.01141
"1.4 sec",0.658129,0.4694361,0.4661469,-7.132839,0.1621694,0.2285955,-7.078516,0.1676614,0.2727264,-0.06870805,0.3940878,-0.01380341,0.01840188,-0.2590677,-0.1193273,0.2308656,10.02025,0.005316612,-0.02225604,0.2250058,10.22831
"1.41 sec",0.658129,0.4694361,0.4661469,-7.132839,0.1638493,0.2313338,-7.079223,0.1683706,0.2748991,-0.07281356,0.39634,-0.01547492,0.01541357,-0.3061902,-0.1853659,0.2278932,10.22293,0.006406997,-0.02296262,0.223424,9.882221
"1.42 sec",0.658129,0.4694361,0.4661469,-7.132839,0.1655376,0.2340924,-7.079955,0.1693349,0.2768025,-0.07359987,0.3985753,-0.01739854,0.0126352,-0.2393858,-0.1829222,0.2257435,9.882975,0.007103725,-0.01993407,0.2208654,9.92133
"1.43 sec",0.658129,0.4694361,0.4661469,-7.132839,0.1672368,0.2368694,-7.080697,0.1705462,0.2785597,-0.07468048,0.4007854,-0.01872879,0.01063242,-0.1576182,-0.08874918,0.221791,9.920823,0.008771286,-0.01850902,0.2168214,9.907654
"1.44 sec",0.658129,0.4694361,0.4661469,-7.132839,0.1689489,0.2396633,-7.081448,0.1718938,0.2802089,-0.07563685,0.4029557,-0.01921065,0.00951262,-0.06883392,-0.01482159,0.216933,9.910204,0.01050959,-0.01641029,0.2115529,9.906919
"1.45 sec",0.658129,0.4694361,0.4661469,-7.132839,0.1706748,0.2424733,-7.08221,0.1732756,0.2818022,-0.07658421,0.4050739,-0.01897849,0.009221471,0.006010139,0.05122478,0.2110513,9.907751,0.01182547,-0.01438893,0.2052616,9.913033
"1.46 sec",0.658129,0.4694361,0.4661469,-7.132839,0.1724143,0.2452993,-7.08298,0.1746048,0.2833816,-0.07759203,0.4071298,-0.01816924,0.009536366,0.05374021,0.1005207,0.2042807,9.911675,0.01249098,-0.01274515,0.1983197,9.914238
"1.47 sec",0.658129,0.4694361,0.4661469,-7.132839,0.1741665,0.248141,-7.083761,0.1758193,0.2849689,-0.07861379,0.4091166,-0.01698798,0.01016028,0.07123635,0.1278549,0.1970064,9.913466,0.01251939,-0.01137135,0.1911026,9.905095
"1.48 sec",0.658129,0.4694361,0.4661469,-7.132839,0.1759302,0.2509987,-7.084552,0.176887,0.2865664,-0.07954766,0.4110314,-0.01563211,0.0108146,0.06370972,0.1379058,0.189603,9.907338,0.01203836,-0.01011455,0.1838285,9.889545
"1.49 sec",0.658129,0.4694361,0.4661469,-7.132839,0.1777038,0.2538723,-7.085351,0.1778015,0.2881612,-0.08032963,0.4128734,-0.01423185,0.01129683,0.04011604,0.138381,0.1822608,9.893234,0.0112288,-0.008898983,0.1765648,9.87301
"1.5 sec",0.6776858,0.4819321,0.500183,-7.141537,0.1794857,0.2567618,-7.086158,0.1785718,0.2897312,-0.08094824,0.4146428,-0.01285032,0.01149901,0.009831364,0.1349659,0.1750102,9.877563,0.005799666,-0.01443129,0.1722995,10.3341
"1.51 sec",0.6776858,0.4819321,0.500183,-7.141537,0.181275,0.2596671,-7.086992,0.1792786,0.2913158,-0.08605773,0.416368,-0.01229228,0.01087795,-0.1043113,0.002833727,0.1722656,10.3337,0.007591364,-0.02027872,0.1721244,9.826411
"1.52 sec",0.6776858,0.4819321,0.500183,-7.141537,0.1830713,0.2625875,-7.087855,0.180001,0.2927525,-0.08633865,0.4180893,-0.01321635,0.009900895,-0.08498597,-0.1496318,0.1736062,9.826867,0.007457037,-0.0151125,0.171062,9.798324
"1.53 sec",0.6776858,0.4819321,0.500183,-7.141537,0.1848755,0.2655221,-7.088718,0.180859,0.2941533,-0.08621325,0.4198005,-0.01428122,0.00912868,-0.06434662,-0.06955846,0.1716894,9.806811,0.007552275,-0.01250379,0.168788,9.815722
"1.54 sec",0.6776858,0.4819321,0.500183,-7.141537,0.1866888,0.2684705,-7.08958,0.1817994,0.2955238,-0.08625461,0.4214896,-0.01447079,0.008572229,-0.04303014,0.01871259,0.1686157,9.813695,0.007506933,-0.01021945,0.1651737,9.854734
"1.55 sec",0.6776858,0.4819321,0.500183,-7.141537,0.1885115,0.2714324,-7.090445,0.1827403,0.2968508,-0.08667815,0.4231432,-0.01387914,0.008194715,-0.028448,0.08612886,0.164456,9.854149,0.007459586,-0.008668503,0.160664,9.875336
"1.56 sec",0.6776858,0.4819321,0.500183,-7.141537,0.1903434,0.2744073,-7.091315,0.1836159,0.298119,-0.08731534,0.4247521,-0.01279913,0.007938144,-0.01895031,0.1199518,0.1597022,9.870294,0.007457454,-0.007344791,0.1556435,9.872967
"1.57 sec",0.6776858,0.4819321,0.500183,-7.141537,0.1921835,0.2773946,-7.092191,0.1843896,0.2993201,-0.08793414,0.4263111,-0.01150161,0.007765632,-0.01210803,0.1323872,0.1546088,9.872284,0.007516011,-0.006135216,0.1503148,9.859678
"1.58 sec",0.6776858,0.4819321,0.500183,-7.141537,0.1940307,0.2803935,-7.093073,0.1850461,0.3004538,-0.08842479,0.427817,-0.01014461,0.00765971,-0.006332685,0.1335608,0.1492878,9.86221,0.007608022,-0.004951463,0.1447599,9.843928
"1.59 sec",0.6776858,0.4819321,0.500183,-7.141537,0.195884,0.2834034,-7.093959,0.1855818,0.3015245,-0.08876046,0.4292674,-0.008800937,0.007610515,-0.001426141,0.1305027,0.143765,9.84787,0.007707941,-0.003816823,0.1390231,9.829446
"1.6 sec",0.6933188,0.4960772,0.5343198,-7.152624,0.197742,0.2864238,-7.094847,0.1859979,0.3025377,-0.0889525,0.4306606,-0.007498422,0.007607419,0.002365354,0.1257862,0.1380663,9.833433,0.00292521,-0.01003033,0.1359586,10.3864
"1.61 sec",0.6933188,0.4960772,0.5343198,-7.152624,0.1996038,0.2894543,-7.095764,0.186353,0.3035474,-0.09456936,0.4320218,-0.007097026,0.007069833,-0.08762153,-0.01806928,0.136087,10.38589,0.006152745,-0.01716128,0.1379937,9.742833
"1.62 sec",0.6933188,0.4960772,0.5343198,-7.152624,0.2014692,0.2924943,-7.096708,0.1867502,0.3044541,-0.09405732,0.4334007,-0.008374888,0.006468203,-0.03696922,-0.1946007,0.1392545,9.743701,0.006278813,-0.01117963,0.1379262,9.734142
"1.63 sec",0.6933188,0.4960772,0.5343198,-7.152624,0.2033393,0.2955434,-7.097645,0.1873003,0.3053883,-0.0932946,0.43478,-0.0097923,0.006232671,-0.01121087,-0.09783655,0.1385328,9.736281,0.006466094,-0.008517891,0.1365879,9.781674
"1.64 sec",0.6933188,0.4960772,0.5343198,-7.152624,0.2052155,0.2986021,-7.098576,0.187938,0.3063537,-0.09299301,0.4361466,-0.01019463,0.006189509,0.002882129,0.002100323,0.1365705,9.781055,0.00631433,-0.00636133,0.1340703,9.838747
"1.65 sec",0.6933188,0.4960772,0.5343198,-7.152624,0.2070981,0.3016706,-7.099507,0.1885736,0.3073236,-0.09325904,0.4374886,-0.009741248,0.006212524,0.004062384,0.07391363,0.1336074,9.838008,0.006028878,-0.004883584,0.130872,9.862531
"1.66 sec",0.6933188,0.4960772,0.5343198,-7.152624,0.2089867,0.3047485,-7.100442,0.1891427,0.308267,-0.09377349,0.4387989,-0.008767758,0.006206937,-0.001625097,0.1100471,0.1301863,9.856298,0.005718572,-0.00357943,0.1272495,9.858981
"1.67 sec",0.6933188,0.4960772,0.5343198,-7.152624,0.2108806,0.3078357,-7.101383,0.1896127,0.3091608,-0.09425761,0.4400733,-0.00755398,0.006135118,-0.008869847,0.1247052,0.1264825,9.858287,0.0054955,-0.002383129,0.1233253,9.845005
"1.68 sec",0.6933188,0.4960772,0.5343198,-7.152624,0.2127786,0.3109315,-7.102327,0.1899728,0.3099919,-0.09460621,0.4413085,-0.00626024,0.006006322,-0.01357042,0.1277525,0.1225568,9.847683,0.005399306,-0.001223563,0.1191274,9.829218
"1.69 sec",0.6933188,0.4960772,0.5343198,-7.152624,0.2146797,0.3140353,-7.103274,0.190222,0.3107547,-0.09479881,0.4425019,-0.004964888,0.005856132,-0.01418409,0.1258802,0.1183898,9.833196,0.005443029,-0.0001280844,0.1146738,9.814857
"1.7 sec",0.7061731,0.5115218,0.5686988,-7.16361,0.2165827,0.3171464,-7.104222,0.1903624,0.3114502,-0.09484851,0.443651,-0.003703027,0.005726075,-0.01077485,0.1216166,0.1139777,9.818786,0.0006634677,-0.00619949,0.112703,10.38257
"1.71 sec",0.7061731,0.5115218,0.5686988,-7.16361,0.2184867,0.3202643,-7.105198,0.1904365,0.3121136,-0.1004276,0.444779,-0.003318532,0.005074258,-0.09835148,-0.01866352,0.1127993,10.38203,0.004196245,-0.01292498,0.115667,9.702736
"1.72 sec",0.7061731,0.5115218,0.5686988,-7.16361,0.2203916,0.3233883,-7.106199,0.1905725,0.3126847,-0.09952711,0.4459342,-0.004544251,0.004420698,-0.03919219,-0.1863423,0.1164947,9.70379,0.0040785,-0.007704636,0.1156883,9.712173
"1.73 sec",0.7061731,0.5115218,0.5686988,-7.16361,0.2222987,0.3265181,-7.107189,0.1908593,0.3132819,-0.09854496,0.4470911,-0.005954863,0.004158611,-0.01512884,-0.102961,0.1161164,9.710101,0.004431584,-0.005422681,0.1147578,9.757523
"1.74 sec",0.7061731,0.5115218,0.5686988,-7.16361,0.2242091,0.329654,-7.108172,0.1912383,0.3139093,-0.09800546,0.4482391,-0.006470098,0.004101884,0.002221747,-0.01347154,0.1148116,9.756742,0.004550742,-0.003427926,0.1129276,9.813328
"1.75 sec",0.7061731,0.5115218,0.5686988,-7.16361,0.2261235,0.3327963,-7.109152,0.1916274,0.314546,-0.09802157,0.4493693,-0.00619366,0.004162481,0.00958904,0.05499281,0.1126978,9.812607,0.004538912,-0.001960332,0.1105394,9.839662
"1.76 sec",0.7061731,0.5115218,0.5686988,-7.16361,0.2280415,0.3359449,-7.110134,0.1919634,0.3151683,-0.09831063,0.450476,-0.005396472,0.004256207,0.009863296,0.09352915,0.1101411,9.832146,0.004436053,-0.0006689561,0.1077445,9.839556
"1.77 sec",0.7061731,0.5115218,0.5686988,-7.16361,0.2299624,0.3390996,-7.111118,0.192211,0.3157578,-0.09860266,0.4515548,-0.004326686,0.004329248,0.00610136,0.1118707,0.1072605,9.837769,0.004344594,0.0004862317,0.1046533,9.828412
"1.78 sec",0.7061731,0.5115218,0.5686988,-7.16361,0.2318853,0.3422599,-7.112105,0.1923549,0.3163029,-0.09878691,0.452603,-0.003144567,0.004362903,0.002000059,0.1177503,0.1041401,9.830947,0.004308356,0.001584509,0.1012959,9.814172
"1.79 sec",0.7061731,0.5115218,0.5686988,-7.16361,0.2338092,0.3454255,-7.113093,0.1923916,0.3167973,-0.09883132,0.4536177,-0.001939334,0.004366295,-0.0003827999,0.1175149,0.1007836,9.815507,0.004341492,0.002642627,0.0976683,9.801311
"1.8 sec",0.7170295,0.5277787,0.6032089,-7.17471,0.2357328,0.3485957,-7.114081,0.1923222,0.3172394,-0.09874516,0.4545962,-0.0007524625,0.004360574,-0.0004676928,0.1146539,0.0971692,9.808613,-0.0005741295,-0.002330959,0.09645964,10.38151
"1.81 sec",0.7170295,0.5277787,0.6032089,-7.17471,0.2376553,0.3517702,-7.115096,0.1921732,0.3176451,-0.1043126,0.4555614,-0.0002986984,0.003783109,-0.09378685,-0.003014884,0.09647173,10.38096,0.002984245,-0.007540166,0.09985429,9.69807
"1.82 sec",0.7170295,0.5277787,0.6032089,-7.17471,0.2395765,0.3549483,-7.116135,0.1920805,0.3179707,-0.1033675,0.4565582,-0.00116059,0.00316633,-0.03692258,-0.1379496,0.1002942,9.69914,0.002114853,-0.003033438,0.09959207,9.757281
"1.83 sec",0.7170295,0.5277787,0.6032089,-7.17471,0.2414973,0.3581296,-7.117166,0.1921016,0.3183066,-0.102825,0.4575543,-0.00215013,0.002836833,-0.02841499,-0.06741095,0.09978453,9.756458,0.002376413,-0.001393815,0.09883259,9.783584
"1.84 sec",0.7170295,0.5277787,0.6032089,-7.17471,0.2434188,0.3613144,-7.118193,0.1921901,0.3186468,-0.1025552,0.458543,-0.002439728,0.002623332,-0.01517028,-0.001106656,0.09883557,9.776011,0.002530541,-8.556147e-05,0.09740554,9.807674
"1.85 sec",0.7170295,0.5277787,0.6032089,-7.17471,0.2453411,0.3645025,-7.119218,0.1922846,0.3189743,-0.1025258,0.4595178,-0.002173171,0.002526597,-0.005116355,0.04463736,0.09729271,9.797658,0.002738942,0.000355895,0.0955155,9.812773
"1.86 sec",0.7170295,0.5277787,0.6032089,-7.17471,0.2472643,0.3676938,-7.120243,0.1923432,0.319279,-0.10255,0.4604739,-0.001630942,0.002521764,0.002979024,0.05858712,0.09536801,9.809639,0.003124487,0.001423774,0.09339237,9.789643
"1.87 sec",0.7170295,0.5277787,0.6032089,-7.17471,0.2491878,0.370888,-7.121268,0.1923459,0.3195599,-0.10235,0.4614089,-0.0009496566,0.002607919,0.0122267,0.07181131,0.0932058,9.794101,0.003412817,0.002629548,0.09088227,9.782849
"1.88 sec",0.7170295,0.5277787,0.6032089,-7.17471,0.251111,0.3740849,-7.12229,0.1922772,0.319819,-0.1020804,0.462319,-0.0001335395,0.002769632,0.01816091,0.08484966,0.0906484,9.785196,0.003627745,0.003740197,0.08804379,9.782319
"1.89 sec",0.7170295,0.5277787,0.6032089,-7.17471,0.2530331,0.3772843,-7.12331,0.1921238,0.3200561,-0.1018037,0.463201,0.0007895763,0.00297111,0.020491,0.09348053,0.0877674,9.783058,0.003808157,0.004727754,0.0849719,9.77986
"1.9 sec",0.72641,0.5444726,0.6377162,-7.186016,0.2549532,0.380486,-7.124326,0.1918775,0.3202694,-0.1015024,0.4640523,0.001768302,0.003183601,0.02057173,0.09671744,0.08466533,9.780672,-0.001242218,0.0006184303,0.08425331,10.37437
"1.91 sec",0.72641,0.5444726,0.6377162,-7.186016,0.2568703,0.3836897,-7.125368,0.1915455,0.3204582,-0.1069933,0.4648952,0.00217268,0.002784002,-0.079395,0.0008471949,0.08425094,10.37375,0.002467497,-0.003793876,0.08798794,9.689229
"1.92 sec",0.72641,0.5444726,0.6377162,-7.186016,0.2587843,0.3868949,-7.126433,0.19127,0.3205914,-0.1059604,0.4657731,0.00148146,0.002304958,-0.02459748,-0.1129356,0.08824987,9.690285,0.0009849279,1.667891e-05,0.08778574,9.783298
"1.93 sec",0.72641,0.5444726,0.6377162,-7.186016,0.260696,0.3901016,-7.127491,0.1910847,0.3207352,-0.1056693,0.4666511,0.0006796283,0.002014444,-0.03085101,-0.0539288,0.08789542,9.782838,0.001173299,0.001227129,0.08746344,9.79129
"1.94 sec",0.72641,0.5444726,0.6377162,-7.186016,0.2626062,0.3933096,-7.128547,0.1909568,0.3208761,-0.1054804,0.4675259,0.0004415444,0.001744578,-0.02317937,-0.002017588,0.08746713,9.789468,0.001277898,0.002662668,0.08656803,9.79802
"1.95 sec",0.72641,0.5444726,0.6377162,-7.186016,0.2645152,0.396519,-7.129601,0.1908378,0.3209966,-0.1053587,0.468392,0.0006881413,0.001561158,-0.01428761,0.04181682,0.08650253,9.796081,0.001439059,0.003926832,0.08514968,9.805625
"1.96 sec",0.72641,0.5444726,0.6377162,-7.186016,0.2664228,0.3997294,-7.130655,0.1906863,0.3210855,-0.1053129,0.4692443,0.001297911,0.001467711,-0.005706681,0.07132092,0.08504482,9.803567,0.001692148,0.004968653,0.08332849,9.803895
"1.97 sec",0.72641,0.5444726,0.6377162,-7.186016,0.2683287,0.4029406,-7.131707,0.1904731,0.3211377,-0.1052522,0.4700785,0.002122665,0.001462849,0.002823022,0.08638015,0.08320217,9.801225,0.002013813,0.00587788,0.08116322,9.79425
"1.98 sec",0.72641,0.5444726,0.6377162,-7.186016,0.270232,0.4061521,-7.132759,0.1901816,0.3211538,-0.1050956,0.4708912,0.003041283,0.001544003,0.01095498,0.09148581,0.08102222,9.795996,0.002394261,0.005928213,0.07872365,9.781367
"1.99 sec",0.72641,0.5444726,0.6377162,-7.186016,0.272132,0.4093636,-7.133809,0.1898066,0.3211405,-0.1048115,0.4716797,0.003887239,0.001705759,0.01848078,0.07618941,0.07859397,9.784557,0.002928684,0.006224409,0.07614585,9.750697
"2 sec",0.6299427,0.5868089,0.6406006,-7.197836,0.2740279,0.4125748,-7.134854,0.189357,0.3211104,-0.1042229,0.4724425,0.004583748,0.001953191,0.02727057,0.06220223,0.07602461,9.762827,0.002994228,-0.01857307,0.06938493,10.11402
"2.01 sec",0.6299427,0.5868089,0.6406006,-7.197836,0.2759191,0.4157859,-7.135911,0.1889183,0.3211235,-0.1071723,0.4731398,0.002233352,0.002228132,0.02592373,-0.4251627,0.07032664,10.11333,0.009667873,-0.02415823,0.07239877,9.023724
"2.02 sec",0.6299427,0.5868089,0.6406006,-7.197836,0.2778076,0.418998,-7.136946,0.1888371,0.3213498,-0.09958805,0.473862,-0.003213539,0.003238721,0.1473458,-0.5998574,0.07429727,9.025208,0.01076865,-0.02377455,0.08596841,8.643411
"2.03 sec",0.6299427,0.5868089,0.6406006,-7.197836,0.2796972,0.422214,-7.137884,0.1891494,0.3219053,-0.08801738,0.4747142,-0.00895703,0.004934832,0.1776963,-0.5296174,0.08853111,8.644174,0.01412452,-0.01957857,0.1169884,8.283514
"2.04 sec",0.6299427,0.5868089,0.6406006,-7.197836,0.2815915,0.4254371,-7.138689,0.1897518,0.3227685,-0.07283809,0.4758677,-0.0131525,0.006990556,0.2169297,-0.3242447,0.1192112,8.284091,0.02013488,-0.005307798,0.1537973,8.133829
"2.05 sec",0.6299427,0.5868089,0.6406006,-7.197836,0.2834926,0.4286702,-7.139334,0.1904495,0.3238879,-0.05610359,0.4773867,-0.01405432,0.009722453,0.3018063,0.07463807,0.153073,8.136134,0.02318598,0.002385921,0.1681218,8.74273
"2.06 sec",0.6299427,0.5868089,0.6406006,-7.197836,0.2854001,0.4319159,-7.13984,0.1910095,0.3252915,-0.04526238,0.4790609,-0.01173352,0.01296349,0.3275437,0.3310443,0.1638865,8.742068,0.01110399,0.0008092529,0.1566254,10.46629
"2.07 sec",0.6299427,0.5868089,0.6406006,-7.197836,0.2873118,0.4351777,-7.140321,0.1912663,0.3270702,-0.05136783,0.4806334,-0.008438681,0.01456548,0.04199084,0.3167832,0.1520299,10.46545,0.007103996,-0.01602374,0.1469626,10.79534
"2.08 sec",0.6299427,0.5868089,0.6406006,-7.197836,0.2892246,0.4384573,-7.140883,0.1912826,0.3288294,-0.06112247,0.482108,-0.00756656,0.01392423,-0.1310847,-0.0687851,0.1479344,10.79461,0.01120714,-0.02122364,0.1478616,10.00023
"2.09 sec",0.6299427,0.5868089,0.6406006,-7.197836,0.2911378,0.4417535,-7.141506,0.1914058,0.3304051,-0.06321561,0.4835862,-0.009551653,0.01286926,-0.08110285,-0.2738024,0.1514028,10.00174,0.009030947,-0.01561521,0.1431286,10.26082
"2.1 sec",0.6436784,0.6035185,0.6780005,-7.198262,0.2930536,0.4450657,-7.142159,0.1917887,0.3320459,-0.06764382,0.48502,-0.01179595,0.01196066,-0.09055591,-0.1774529,0.1452603,10.25977,0.006667454,-0.02756754,0.1409105,10.28709
"2.11 sec",0.6436784,0.6035185,0.6780005,-7.198262,0.2949744,0.4483945,-7.14286,0.1924304,0.3337128,-0.07239417,0.4864305,-0.01463187,0.01082823,-0.1201394,-0.3395157,0.1446017,10.27942,0.008834596,-0.0265267,0.1425543,9.865725
"2.12 sec",0.6436784,0.6035185,0.6780005,-7.198262,0.2969032,0.4517398,-7.143588,0.1933759,0.3353676,-0.07303894,0.4878553,-0.01791975,0.009912514,-0.06397613,-0.3036779,0.14556,9.866146,0.008667097,-0.02261207,0.142206,9.919041
"2.13 sec",0.6436784,0.6035185,0.6780005,-7.198262,0.2988429,0.4551021,-7.144323,0.1946057,0.3371031,-0.07409312,0.4892776,-0.02016847,0.009395031,-0.03641711,-0.1586607,0.1436777,9.918388,0.008646296,-0.02096963,0.1395096,9.928226
"2.14 sec",0.6436784,0.6035185,0.6780005,-7.198262,0.3007958,0.458482,-7.14507,0.1959921,0.3388809,-0.07524777,0.4906741,-0.02115447,0.009088079,-0.02046873,-0.0511224,0.1399496,9.926177,0.008252259,-0.01943934,0.1351662,9.931015
"2.15 sec",0.6436784,0.6035185,0.6780005,-7.198262,0.302763,0.4618798,-7.145828,0.197433,0.3406625,-0.07643055,0.492028,-0.021247,0.008859973,-0.01844624,0.02160165,0.1349493,9.929795,0.007672675,-0.01726998,0.1298194,9.922498
"2.16 sec",0.6436784,0.6035185,0.6780005,-7.198262,0.3047445,0.4652952,-7.146598,0.1988594,0.3424121,-0.0775312,0.4933289,-0.0206699,0.008602978,-0.02477272,0.08139833,0.129095,9.924492,0.006867945,-0.01526998,0.123644,9.922201
"2.17 sec",0.6436784,0.6035185,0.6780005,-7.198262,0.3067399,0.4687278,-7.147378,0.200224,0.3440975,-0.0786297,0.4945685,-0.01959292,0.008248162,-0.03683067,0.1222486,0.1226136,9.923726,0.006077389,-0.01363575,0.1169467,9.917017
"2.18 sec",0.6436784,0.6035185,0.6780005,-7.198262,0.3087486,0.4721768,-7.14817,0.2014972,0.3456891,-0.07968014,0.4957414,-0.01822252,0.007776879,-0.04812572,0.1422469,0.1158208,9.918939,0.005499355,-0.01222689,0.1099918,9.904016
"2.19 sec",0.6436784,0.6035185,0.6780005,-7.198262,0.3107695,0.4756412,-7.148972,0.2026656,0.3471674,-0.08060535,0.4968448,-0.0167354,0.007231784,-0.05300062,0.1475411,0.1089079,9.907283,0.00522395,-0.01093069,0.1029261,9.886496
"2.2 sec",0.655642,0.6205709,0.7158391,-7.204886,0.3128016,0.4791197,-7.149782,0.2037262,0.348526,-0.08135939,0.4978777,-0.01524035,0.00669248,-0.04922336,0.1450639,0.1019416,9.891225,0.001304887,-0.01939335,0.09747247,10.28267
"2.21 sec",0.655642,0.6205709,0.7158391,-7.204886,0.314844,0.4826116,-7.150618,0.2047639,0.3498261,-0.08597235,0.4988552,-0.01491802,0.005781856,-0.1126562,-0.04467742,0.09772391,10.2821,0.003907084,-0.0241094,0.09725624,9.799523
"2.22 sec",0.655642,0.6205709,0.7158391,-7.204886,0.3168969,0.4861158,-7.151478,0.2058464,0.3510102,-0.08597808,0.4998279,-0.0162405,0.004926388,-0.06063316,-0.1845334,0.09815983,9.799945,0.005110611,-0.01999871,0.09645934,9.730388
"2.23 sec",0.655642,0.6205709,0.7158391,-7.204886,0.3189614,0.4896318,-7.152334,0.2070805,0.3522086,-0.08518431,0.5007929,-0.01771045,0.004600158,-0.009333253,-0.113923,0.09697016,9.731402,0.006144037,-0.0166526,0.09455558,9.739451
"2.24 sec",0.655642,0.6205709,0.7158391,-7.204886,0.3210388,0.4931601,-7.153182,0.208406,0.3534489,-0.08446036,0.5017395,-0.01822549,0.004718116,0.02845257,-0.006065124,0.09456942,9.737435,0.006429237,-0.01411103,0.09086643,9.806002
"2.25 sec",0.655642,0.6205709,0.7158391,-7.204886,0.3231296,0.4967009,-7.154027,0.2097286,0.3547213,-0.08438589,0.50265,-0.0177828,0.005066636,0.0403505,0.07705842,0.09046421,9.804882,0.006221063,-0.01231902,0.08614033,9.849294
"2.26 sec",0.655642,0.6205709,0.7158391,-7.204886,0.3252332,0.5002545,-7.154872,0.2109708,0.3559949,-0.08475152,0.5035139,-0.01671921,0.005417515,0.03242108,0.1220119,0.0854704,9.84866,0.00572314,-0.01097793,0.08103927,9.859015
"2.27 sec",0.655642,0.6205709,0.7158391,-7.204886,0.3273486,0.5038207,-7.155722,0.2120935,0.3572372,-0.0852253,0.5043269,-0.01537244,0.005626355,0.01431397,0.1377288,0.08025694,9.856984,0.005128209,-0.009672934,0.07583198,9.852241
"2.28 sec",0.655642,0.6205709,0.7158391,-7.204886,0.3294746,0.5073991,-7.156576,0.2130884,0.3584228,-0.08563645,0.5050879,-0.01394271,0.005641643,-0.005303214,0.1405729,0.07503225,9.853417,0.004601371,-0.008426304,0.07060054,9.840737
"2.29 sec",0.655642,0.6205709,0.7158391,-7.204886,0.3316099,0.510989,-7.157434,0.2139617,0.3595332,-0.08593623,0.5057966,-0.01251824,0.005485359,-0.02029307,0.13773,0.06983902,9.843481,0.004250657,-0.007229172,0.06535263,9.828591
"2.3 sec",0.6640816,0.6393254,0.7537502,-7.215061,0.3337535,0.5145895,-7.158294,0.2147225,0.3605573,-0.08611687,0.5064528,-0.01113585,0.005223721,-0.02759175,0.1327187,0.06465419,9.831667,-0.0004535812,-0.01651902,0.06143162,10.35249
"2.31 sec",0.6640816,0.6393254,0.7537502,-7.215061,0.3359044,0.5182,-7.159181,0.2154639,0.3615463,-0.09140092,0.5070691,-0.01102386,0.004404651,-0.1137198,-0.07114265,0.06174566,10.35204,0.002715754,-0.02324145,0.06394955,9.742435
"2.32 sec",0.6640816,0.6393254,0.7537502,-7.215061,0.3380629,0.5218199,-7.160093,0.2162824,0.3624415,-0.09087384,0.5077074,-0.0128449,0.003569259,-0.05792002,-0.2483517,0.06483885,9.74317,0.003601907,-0.01817833,0.06526189,9.673137
"2.33 sec",0.6640816,0.6393254,0.7537502,-7.215061,0.3402307,0.525449,-7.160995,0.2173007,0.3633816,-0.08951294,0.5083594,-0.01485304,0.00324479,-0.01213806,-0.158852,0.06577178,9.674194,0.004504978,-0.0144866,0.0651512,9.702328
"2.34 sec",0.6640816,0.6393254,0.7537502,-7.215061,0.3424094,0.5290878,-7.161885,0.2184503,0.364384,-0.08841902,0.5090109,-0.015698,0.003318171,0.02187998,-0.02981194,0.06524212,9.69448,0.004739908,-0.01185424,0.06289276,9.798882
"2.35 sec",0.6640816,0.6393254,0.7537502,-7.215061,0.3445998,0.5327368,-7.162768,0.2196228,0.365426,-0.08826866,0.509641,-0.01541802,0.003600154,0.0328304,0.06622504,0.06264828,9.79829,0.004655519,-0.01001969,0.05954244,9.855638
"2.36 sec",0.6640816,0.6393254,0.7537502,-7.215061,0.3468016,0.5363963,-7.163653,0.2207289,0.3664685,-0.08869879,0.5102382,-0.01442116,0.003901032,0.02834188,0.1180776,0.05907769,9.85488,0.004328677,-0.00868418,0.0557869,9.864803
"2.37 sec",0.6640816,0.6393254,0.7537502,-7.215061,0.349014,0.5400661,-7.164543,0.2217208,0.3674777,-0.08923466,0.510798,-0.01309552,0.004104443,0.01528292,0.1365634,0.05522307,9.8627,0.003902409,-0.007322914,0.05184923,9.855257
"2.38 sec",0.6640816,0.6393254,0.7537502,-7.215061,0.3512356,0.5437457,-7.165437,0.2225853,0.3684309,-0.08968019,0.5113185,-0.01166252,0.004162377,0.0001931954,0.1415302,0.05125701,9.857303,0.003511599,-0.00601858,0.04780398,9.842033
"2.39 sec",0.6640816,0.6393254,0.7537502,-7.215061,0.3534653,0.5474345,-7.166336,0.2233249,0.3693127,-0.08999681,0.5117986,-0.0102167,0.004084537,-0.01192657,0.140228,0.0472282,9.845514,0.003246575,-0.004776538,0.04366528,9.828793
"2.4 sec",0.669717,0.6598084,0.7919214,-7.224978,0.3557017,0.5511317,-7.167237,0.2239464,0.3701137,-0.09018287,0.5122374,-0.008801746,0.003917893,-0.0183801,0.1360381,0.04312959,9.832355,-0.001482843,-0.01497223,0.0406628,10.35532
"2.41 sec",0.669717,0.6598084,0.7919214,-7.224978,0.3579441,0.5548367,-7.168164,0.2245378,0.3708763,-0.09549757,0.5126455,-0.008762032,0.003184315,-0.1065681,-0.08543587,0.04093779,10.35487,0.00189999,-0.02176989,0.04417988,9.695381
"2.42 sec",0.669717,0.6598084,0.7919214,-7.224978,0.3601927,0.5585489,-7.169115,0.2252193,0.3715681,-0.09451535,0.5130856,-0.01075415,0.002437819,-0.04882822,-0.2667811,0.04483481,9.696362,0.002527403,-0.01641535,0.04615524,9.627296
"2.43 sec",0.669717,0.6598084,0.7919214,-7.224978,0.3624492,0.5622683,-7.170052,0.2261108,0.3723219,-0.09269866,0.5135462,-0.01290266,0.002172764,-0.009219215,-0.169449,0.04652072,9.628338,0.003296839,-0.01268338,0.04662092,9.675558
"2.44 sec",0.669717,0.6598084,0.7919214,-7.224978,0.3647154,0.5659956,-7.170971,0.2271419,0.3731468,-0.09133328,0.5140122,-0.01382326,0.002248719,0.01968801,-0.03515454,0.04669528,9.674893,0.003558996,-0.01025943,0.0449728,9.793605
"2.45 sec",0.669717,0.6598084,0.7919214,-7.224978,0.3669922,0.5697314,-7.171884,0.2282034,0.3740129,-0.09112956,0.5144627,-0.01360505,0.002507583,0.02992893,0.05958304,0.04482021,9.792573,0.003615047,-0.008425777,0.04238313,9.852346
"2.46 sec",0.669717,0.6598084,0.7919214,-7.224978,0.3692793,0.5734758,-7.172797,0.2292048,0.3748797,-0.091529,0.5148879,-0.01267011,0.00280027,0.02840666,0.1122899,0.04206702,9.851544,0.003433831,-0.007058315,0.03940516,9.860552
"2.47 sec",0.669717,0.6598084,0.7919214,-7.224978,0.3715759,0.5772288,-7.173715,0.2300965,0.3757156,-0.09202513,0.5152835,-0.0113907,0.003029737,0.01898803,0.1327589,0.03900183,9.858566,0.003122505,-0.005648084,0.03619937,9.850856
"2.48 sec",0.669717,0.6598084,0.7919214,-7.224978,0.3738808,0.58099,-7.174637,0.2308624,0.3765002,-0.09242901,0.5156472,-0.009981825,0.003144167,0.006461905,0.1399993,0.035758,9.852959,0.002803732,-0.004306921,0.03283653,9.838236
"2.49 sec",0.669717,0.6598084,0.7919214,-7.224978,0.3761927,0.5847586,-7.175563,0.2315021,0.3772193,-0.09270956,0.5159772,-0.008540384,0.00313873,-0.004739392,0.1403898,0.03239449,9.841583,0.002566864,-0.003044881,0.02934178,9.825471
"2.5 sec",0.6736554,0.6815847,0.8304544,-7.23493,0.3785104,0.5885341,-7.176491,0.2320206,0.3778634,-0.09286403,0.5162724,-0.007117586,0.00304427,-0.01179437,0.137064,0.02892305,9.828922,-0.002174614,-0.01382996,0.02691561,10.36093
"2.51 sec",0.6736554,0.6815847,0.8304544,-7.23493,0.380833,0.5923159,-7.177445,0.2325027,0.3784679,-0.09823418,0.5165429,-0.007134831,0.002369578,-0.1017066,-0.0955417,0.02714597,10.36047,0.001332798,-0.02078208,0.03099373,9.663375
"2.52 sec",0.6736554,0.6815847,0.8304544,-7.23493,0.3831608,0.5961033,-7.178422,0.2330851,0.379019,-0.09694302,0.5168508,-0.009257473,0.001680021,-0.04313327,-0.281319,0.03147158,9.664579,0.00174927,-0.01523293,0.03334901,9.595364
"2.53 sec",0.6736554,0.6815847,0.8304544,-7.23493,0.3854955,0.5998965,-7.179381,0.2338863,0.3796439,-0.09480873,0.5171831,-0.01152341,0.001445514,-0.008436179,-0.178838,0.03360632,9.596422,0.002416431,-0.01146321,0.03416777,9.657284
"2.54 sec",0.6736554,0.6815847,0.8304544,-7.23493,0.387839,0.6036963,-7.180321,0.2348349,0.3803456,-0.09325896,0.5175243,-0.01251463,0.001509221,0.01679805,-0.04039837,0.03422575,9.656419,0.002689464,-0.009116795,0.03289682,9.791748
"2.55 sec",0.6736554,0.6815847,0.8304544,-7.23493,0.3901923,0.6075035,-7.181252,0.2358205,0.3810889,-0.0930343,0.517854,-0.0123447,0.001738016,0.02662941,0.05517111,0.03279917,9.790416,0.002847517,-0.007272041,0.03078264,9.853989
"2.56 sec",0.6736554,0.6815847,0.8304544,-7.23493,0.3925552,0.6113182,-7.182185,0.236751,0.3818318,-0.09345091,0.5181628,-0.01144647,0.002013637,0.0275344,0.1091982,0.03056229,9.853097,0.002770694,-0.005892454,0.02829409,9.860663
"2.57 sec",0.6736554,0.6815847,0.8304544,-7.23493,0.394927,0.6151401,-7.183122,0.2375746,0.3825443,-0.09395011,0.5184471,-0.01019072,0.002253598,0.02100434,0.1309019,0.02799909,9.858593,0.002540337,-0.00443665,0.02554377,9.849954
"2.58 sec",0.6736554,0.6815847,0.8304544,-7.23493,0.3973063,0.6189689,-7.184063,0.238273,0.3832079,-0.09434654,0.5187039,-0.008790565,0.002402711,0.01050609,0.1397458,0.02520784,9.852278,0.002270003,-0.003059918,0.02260097,9.837297
