Time,desired yaw,desired x,desired y,desired z,WorldPosition_1,WorldPosition_2,WorldPosition_3,WorldVelocity_1,WorldVelocity_2,WorldVelocity_3,EulerZYX_1,EulerZYX_2,EulerZYX_3,BodyAngularRateRPY_1,BodyAngularRateRPY_2,BodyAngularRateRPY_3,Thrust,Roll CS,Pitch CS,Yaw CS,Thrust CS
"0 sec",0.6806784,0.3010184,0.2437599,-7.061348,0,0,-7,0,0,0,0,0,0,0,0,0,0,0.07209702,-0.07228513,0.5,13.88222
"0.01 sec",0.6806784,0.3010184,0.2437599,-7.061348,1.131703e-06,1.132951e-06,-7.000169,0.0004276879,0.0004286384,-0.03716091,0.00473965,-0.008428808,0.008384466,1.370566,-1.371163,0.5105804,13.88043,0.0717539,-0.07262573,0.5,13.88222
"0.02 sec",0.6806784,0.3010184,0.2437599,-7.061348,1.4604e-05,1.467358e-05,-7.000744,0.002616032,0.002632988,-0.07784535,0.009728186,-0.02360488,0.02336394,1.528764,-1.530985,0.5345731,13.8818,0.07139104,-0.07298243,0.5,13.88222
"0.03 sec",0.6806784,0.3010184,0.2437599,-7.061348,6.037811e-05,6.084013e-05,-7.001726,0.006864217,0.006933141,-0.1184338,0.01471773,-0.03799008,0.03739883,1.28009,-1.280679,0.5470565,13.88085,0.07102633,-0.07333738,0.5,13.88222
"0.04 sec",0.6806784,0.3010184,0.2437599,-7.061348,0.0001577036,0.0001593215,-7.003112,0.01285407,0.01302531,-0.1588913,0.01971122,-0.04938135,0.04833391,0.9536582,-0.9512265,0.545517,13.88147,0.07065956,-0.07369078,0.5,13.88222
"0.05 sec",0.6806784,0.3010184,0.2437599,-7.061348,0.0003217726,0.0003258451,-7.004903,0.02014021,0.02046893,-0.1992215,0.02470787,-0.05767507,0.05610422,0.6667104,-0.6616611,0.536891,13.88116,0.07029082,-0.07404253,0.5,13.88222
"0.06 sec",0.6806784,0.3010184,0.2437599,-7.061348,0.000563498,0.0005718662,-7.007096,0.02832697,0.02886552,-0.2394471,0.02970633,-0.06344487,0.06130621,0.4479546,-0.4413284,0.5269255,13.88137,0.1457645,-0.1564349,0.5,6.677207
"0.07 sec",0.6806784,0.3010184,0.2437599,-7.061348,0.0008694092,0.0008837858,-7.009351,0.03289155,0.03355438,-0.2096523,0.03469814,-0.07692973,0.07344735,1.735582,-1.837973,0.6335543,6.678446,0.1620401,-0.1761399,0.5,5.97964
"0.08 sec",0.6806784,0.3010184,0.2437599,-7.061348,0.001222545,0.001244163,-7.011255,0.03793017,0.03871822,-0.1710899,0.03967655,-0.09900367,0.09321056,2.122151,-2.270324,0.7095233,5.980526,0.1611658,-0.1769389,0.5,5.979641
"0.09 sec",0.6806784,0.3010184,0.2437599,-7.061348,0.001632241,0.001662462,-7.012772,0.04421133,0.04514915,-0.1321045,0.04465465,-0.1210954,0.1126695,1.82912,-1.95769,0.7191855,5.980592,0.1602876,-0.1777333,0.5,5.979641
"0.1 sec",0.6397031,0.3158388,0.2355907,-7.043474,0.002110422,0.002150917,-7.013896,0.05158477,0.05270832,-0.09285974,0.04964046,-0.1390243,0.128067,1.381711,-1.474896,0.688157,5.980548,0.1594041,-0.1785244,0.5,5.979641
"0.11 sec",0.6397031,0.3158388,0.2355907,-7.043474,0.002666671,0.0027195,-7.014628,0.05977953,0.06112942,-0.05338953,0.05463307,-0.1522969,0.1390247,0.9735467,-1.034356,0.6432677,5.980574,0.1585156,-0.179312,0.5,5.979641
"0.12 sec",0.6397031,0.3158388,0.2355907,-7.043474,0.003307917,0.00337554,-7.014964,0.06854754,0.07016233,-0.01374548,0.05962972,-0.1616695,0.1462912,0.6573248,-0.6936286,0.6008009,5.980557,0.1576226,-0.1800956,0.5,5.979641
"0.13 sec",0.6397031,0.3158388,0.2355907,-7.043474,0.00403889,0.004124125,-7.014903,0.07769793,0.07961053,0.02602276,0.06462838,-0.1681413,0.15082,0.4314596,-0.4509061,0.5670578,5.980568,0.1567252,-0.180875,0.5,5.979641
"0.14 sec",0.6397031,0.3158388,0.2355907,-7.043474,0.004862696,0.004968659,-7.014443,0.08709572,0.08933235,0.06587527,0.06962793,-0.172592,0.1534411,0.2777603,-0.286352,0.542692,5.980561,0.155824,-0.1816498,0.5,5.979641
"0.15 sec",0.6397031,0.3158388,0.2355907,-7.043474,0.005781323,0.005911359,-7.013585,0.09665003,0.09923065,0.1057829,0.07462784,-0.1756912,0.1547841,0.1764528,-0.1784463,0.5261024,5.980567,0.1549188,-0.18242,0.5,5.979641
"0.16 sec",0.6397031,0.3158388,0.2355907,-7.043474,0.006796019,0.006953644,-7.012327,0.1063017,0.109241,0.1457258,0.07962787,-0.1779123,0.1552928,0.1111564,-0.1093711,0.5152304,5.980562,0.08527637,-0.1004783,0.5,10.76969
"0.17 sec",0.6397031,0.3158388,0.2355907,-7.043474,0.007943595,0.008133838,-7.010892,0.1232584,0.1268492,0.1402018,0.08462377,-0.1699321,0.1472794,-1.236125,1.486076,0.2767366,10.76937,0.06573557,-0.07811331,0.5,13.88222
"0.18 sec",0.6397031,0.3158388,0.2355907,-7.043474,0.009278449,0.00950872,-7.009669,0.143428,0.1478405,0.1033854,0.08960706,-0.1512364,0.1304622,-1.772003,2.127046,0.2173852,13.8785,0.06534589,-0.0784394,0.5,13.88222
"0.19 sec",0.6397031,0.3158388,0.2355907,-7.043474,0.01080355,0.01108189,-7.008827,0.1611649,0.1663575,0.0650567,0.09458753,-0.1311178,0.1126261,-1.592501,1.914652,0.2806146,13.88119,0.06495482,-0.07876334,0.5,13.88222
"0.2 sec",0.6847452,0.3143391,0.2592965,-7.052383,0.01249385,0.0128278,-7.00837,0.176542,0.1824629,0.02613492,0.09957396,-0.1145548,0.0978655,-1.227546,1.474727,0.3533012,13.88136,0.06456167,-0.07908569,0.5,13.88222
"0.21 sec",0.6847452,0.3143391,0.2592965,-7.052383,0.01432827,0.01472485,-7.008306,0.1900823,0.1966773,-0.0131907,0.1045664,-0.1024075,0.0868464,-0.8760069,1.048978,0.4074045,13.88126,0.06416646,-0.07940646,0.5,13.88222
"0.22 sec",0.6847452,0.3143391,0.2592965,-7.052383,0.01629114,0.01675681,-7.008635,0.202311,0.2095262,-0.05277425,0.1095627,-0.09408084,0.07904959,-0.5967216,0.7107925,0.4427936,13.88132,0.06376935,-0.07972548,0.5,13.88222
"0.23 sec",0.6847452,0.3143391,0.2592965,-7.052383,0.01837154,0.01891225,-7.009361,0.2136512,0.2214365,-0.09251861,0.1145609,-0.08864067,0.0736893,-0.3939812,0.4661295,0.4648696,13.88128,0.07173576,-0.09067038,0.5,12.2657
"0.24 sec",0.6847452,0.3143391,0.2592965,-7.052383,0.02055637,0.02117731,-7.010409,0.2232397,0.2314924,-0.1167027,0.1195605,-0.08646875,0.07102115,-0.09528816,0.09742151,0.4924529,12.26656,0.1070619,-0.1372512,0.5,8.175239
"0.25 sec",0.6847452,0.3143391,0.2592965,-7.052383,0.02282138,0.02352635,-7.011502,0.2297508,0.2382982,-0.100866,0.1245594,-0.0920392,0.07443853,0.6964299,-0.9114085,0.5669568,8.177387,0.1315398,-0.1710089,0.5,6.617944
"0.26 sec",0.6847452,0.3143391,0.2592965,-7.052383,0.02514743,0.02593902,-7.012352,0.2355672,0.2443432,-0.06881345,0.1295523,-0.1065585,0.08469909,1.2853,-1.675576,0.6401819,6.619031,0.1289141,-0.1692778,0.5,6.708525
"0.27 sec",0.6847452,0.3143391,0.2592965,-7.052383,0.02753631,0.02841682,-7.012882,0.2423724,0.2513817,-0.03705615,0.1345422,-0.1235016,0.09670271,1.184198,-1.53978,0.646998,6.708048,0.05548834,-0.1309728,0.5,7.525232
"0.28 sec",0.6847452,0.3143391,0.2592965,-7.052383,0.03000201,0.03097358,-7.013132,0.2508996,0.2600289,-0.01300982,0.1395405,-0.1332785,0.09815131,-0.4574987,-0.4615828,0.5435665,7.523743,-0.04354678,-0.03587831,0.5,8.556994
"0.29 sec",0.6847452,0.3143391,0.2592965,-7.052383,0.03256074,0.03362108,-7.013191,0.260785,0.2692116,0.0008595137,0.1445309,-0.1247689,0.07874238,-2.745639,1.769879,0.3555694,8.552545,-0.1015932,0.0328164,0.5,9.518158
"0.3 sec",0.6214004,0.3501751,0.2618698,-7.074307,0.0352184,0.03635285,-7.013161,0.2704117,0.2765259,0.004806362,0.1494785,-0.09666938,0.0421563,-4.014492,3.424218,0.3465619,9.515111,-0.05382912,-0.06500437,0.5,13.8593
"0.31 sec",0.6214004,0.3501751,0.2618698,-7.074307,0.03797821,0.03914702,-7.013301,0.2812482,0.2815282,-0.03404501,0.1544348,-0.07391258,0.008382311,-2.721505,1.406359,0.4847034,13.85735,-0.08235079,-0.06033775,0.5,13.88222
"0.32 sec",0.6214004,0.3501751,0.2618698,-7.074307,0.04083876,0.04196945,-7.013844,0.2907434,0.282338,-0.07443066,0.1594212,-0.06446183,-0.01755068,-2.32889,0.5820403,0.508482,13.87596,-0.08265045,-0.05992617,0.5,13.88222
"0.33 sec",0.6214004,0.3501751,0.2618698,-7.074307,0.04379201,0.04478273,-7.01479,0.2998973,0.2798377,-0.1148245,0.1644166,-0.06059971,-0.03829734,-1.753676,0.2098303,0.507259,13.88066,-0.0829486,-0.05951234,0.5,13.88222
"0.34 sec",0.6214004,0.3501751,0.2618698,-7.074307,0.04683701,0.04755802,-7.01614,0.3091327,0.2748768,-0.1551489,0.1694154,-0.0591676,-0.0534485,-1.232693,0.05119562,0.5025214,13.88118,-0.09545508,-0.06782697,0.5,12.11087
"0.35 sec",0.6214004,0.3501751,0.2618698,-7.074307,0.04996979,0.05027835,-7.017809,0.3174518,0.2689793,-0.1781821,0.1744156,-0.0597201,-0.0653844,-1.061563,-0.1753507,0.4887758,12.11174,-0.1840839,-0.1307779,0.5,6.328249
"0.36 sec",0.6214004,0.3501751,0.2618698,-7.074307,0.0531684,0.05294872,-7.01943,0.3223075,0.2649833,-0.1445401,0.1794249,-0.06876191,-0.08531336,-2.477083,-1.414264,0.3814387,6.328547,-0.1956403,-0.1377592,0.5,5.979641
"0.37 sec",0.6214004,0.3501751,0.2618698,-7.074307,0.05641819,0.05557481,-7.020682,0.3278476,0.260008,-0.1058586,0.1844467,-0.08443271,-0.1122131,-2.642994,-1.668566,0.3156467,5.980291,-0.1963274,-0.1367716,0.5,5.979641
"0.38 sec",0.6214004,0.3501751,0.2618698,-7.074307,0.05972946,0.05814438,-7.021546,0.334601,0.2536982,-0.06683391,0.1894667,-0.09953925,-0.137032,-2.177835,-1.419797,0.3080981,5.98158,-0.1970094,-0.1357806,0.5,5.979641
"0.39 sec",0.6214004,0.3501751,0.2618698,-7.074307,0.06311371,0.06064507,-7.022018,0.3424032,0.2462789,-0.02755212,0.1944793,-0.1113388,-0.1564775,-1.605713,-1.06556,0.3358624,5.980107,-0.1693282,-0.06485968,0.5,6.536088
"0.4 sec",0.632529,0.3802131,0.2929529,-7.072934,0.06658337,0.06306376,-7.022122,0.3515734,0.2373346,0.00660012,0.1994807,-0.1114871,-0.1672502,-0.5742007,0.5609447,0.5984038,6.53555,0.1280556,-0.1952538,0.5,6.123517
"0.41 sec",0.632529,0.3802131,0.2929529,-7.072934,0.07014214,0.06539525,-7.021867,0.3601775,0.2293192,0.04450025,0.2044675,-0.1176386,-0.1363756,5.519718,-1.502808,0.2911755,6.124088,0.08359466,-0.1279805,0.5,9.295189
"0.42 sec",0.632529,0.3802131,0.2929529,-7.072934,0.07380872,0.06764734,-7.021382,0.3732254,0.2219077,0.05170354,0.2094395,-0.1270251,-0.08027704,5.510965,-0.5866485,0.4487583,9.291733,0.06947514,-0.1073609,0.5,11.09542
"0.43 sec",0.632529,0.3802131,0.2929529,-7.072934,0.07761677,0.06984719,-7.020919,0.3882811,0.2189197,0.04039381,0.2144359,-0.1278816,-0.032437,4.174216,0.2167885,0.5036559,11.09454,0.06534161,-0.1020484,0.5,11.70532
"0.44 sec",0.632529,0.3802131,0.2929529,-7.072934,0.0815741,0.07204087,-7.020603,0.4029797,0.2204631,0.02254116,0.2194429,-0.1236343,0.001887074,2.874438,0.5365595,0.495935,11.70468,0.06554305,-0.1035052,0.5,11.57829
"0.45 sec",0.632529,0.3802131,0.2929529,-7.072934,0.08567126,0.07426681,-7.020463,0.416246,0.225146,0.00568669,0.2244492,-0.1183428,0.02499906,1.922528,0.5129281,0.4843109,11.57926,0.06767429,-0.10809,0.5,11.12567
"0.46 sec",0.632529,0.3802131,0.2929529,-7.072934,0.0898932,0.07654947,-7.020468,0.4279884,0.2316508,-0.006773021,0.2294525,-0.1143826,0.04037154,1.30141,0.3268362,0.4841322,11.12609,0.07150766,-0.1083399,0.5,10.62649
"0.47 sec",0.632529,0.3802131,0.2929529,-7.072934,0.09422634,0.07890268,-7.020574,0.4385361,0.2391641,-0.01427424,0.2344538,-0.1119844,0.05094425,0.9369362,0.2083825,0.48697,10.62692,0.1029179,0.008118779,0.5,10.19893
"0.48 sec",0.632529,0.3802131,0.2929529,-7.072934,0.09865908,0.08133426,-7.020734,0.4476972,0.2472733,-0.01753582,0.2394615,-0.09699354,0.06192929,1.244059,2.346603,0.3544319,10.19936,0.1209506,0.07390859,0.5,10.01729
"0.49 sec",0.632529,0.3802131,0.2929529,-7.072934,0.1031705,0.08384964,-7.020917,0.4539801,0.2558934,-0.01907954,0.2444832,-0.06416774,0.07551491,1.438594,3.807994,0.2149511,10.02131,0.1229012,0.07426579,0.5,9.889036
"0.5 sec",0.6266645,0.4238002,0.3152972,-7.060116,0.1077253,0.08645317,-7.02111,0.4563219,0.2648762,-0.01946039,0.2495087,-0.02697213,0.08893676,1.249571,3.534888,0.1888376,9.890044,0.1210562,-0.2063099,0.5,5.979641
"0.51 sec",0.6266645,0.4238002,0.3152972,-7.060116,0.1122881,0.08913131,-7.021121,0.4562229,0.2707721,0.01812816,0.2545106,-0.02832094,0.09958475,0.9093034,-2.531239,0.7540773,5.981637,0.1200301,-0.2069029,0.5,5.979641
"0.52 sec",0.6266645,0.4238002,0.3152972,-7.060116,0.1168537,0.0918715,-7.020747,0.4572299,0.2774256,0.05681469,0.2594979,-0.06360328,0.1069071,0.6185263,-3.92021,0.9213877,5.981117,0.1190041,-0.207489,0.5,5.979641
"0.53 sec",0.6266645,0.4238002,0.3152972,-7.060116,0.1214397,0.09468297,-7.019984,0.4603222,0.2850157,0.09568629,0.2644891,-0.1026666,0.1115278,0.4073415,-3.584588,0.9013218,5.980717,0.09329274,-0.1638011,0.5,7.555057
"0.54 sec",0.6266645,0.4238002,0.3152972,-7.060116,0.1260725,0.09758449,-7.018906,0.4665787,0.2954314,0.1196302,0.2694893,-0.1302252,0.1113415,-0.2058443,-1.944653,0.7166152,7.554207,0.05570573,-0.09848264,0.5,12.53065
"0.55 sec",0.6266645,0.4238002,0.3152972,-7.060116,0.1307993,0.1006253,-7.017824,0.4790675,0.3127942,0.09555823,0.2744921,-0.1377458,0.1033311,-1.052524,0.1877427,0.4784064,12.53036,0.04983288,-0.08909164,0.5,13.88222
"0.56 sec",0.6266645,0.4238002,0.3152972,-7.060116,0.1356611,0.1038446,-7.017059,0.4932596,0.3307995,0.05709456,0.279488,-0.1312925,0.0908573,-1.208436,1.000308,0.4059629,13.88139,0.04938777,-0.0893387,0.5,13.88222
"0.57 sec",0.6266645,0.4238002,0.3152972,-7.060116,0.1406618,0.1072348,-7.016683,0.5067147,0.346929,0.01797163,0.2844813,-0.1210329,0.07894302,-1.019608,1.058869,0.4135183,13.87977,0.007855522,0.01984583,0.5,13.43563
"0.58 sec",0.6266645,0.4238002,0.3152972,-7.060116,0.1457888,0.1107741,-7.01668,0.5182829,0.3604597,-0.01721074,0.2894649,-0.09889615,0.06468344,-1.542918,2.943044,0.3055446,13.43608,-0.0559901,0.1037817,0.5,12.0255
"0.59 sec",0.6266645,0.4238002,0.3152972,-7.060116,0.1510119,0.1144273,-7.016963,0.5256563,0.3694887,-0.03915152,0.2944184,-0.05897955,0.04183535,-2.616893,4.550232,0.302926,12.02648,-0.06215556,0.1166697,0.5,10.73464
"0.6 sec",0.6673648,0.4613283,0.3585115,-7.071883,0.1562858,0.118146,-7.017403,0.5284681,0.3735456,-0.0486028,0.2993549,-0.01318126,0.01505602,-2.568742,4.40383,0.4277897,10.73571,0.04760568,-0.09029908,0.5,13.88222
"0.61 sec",0.6673648,0.4613283,0.3585115,-7.071883,0.1615711,0.1218884,-7.018085,0.5283355,0.3746037,-0.08851275,0.3043381,0.002397744,0.00451379,0.02105117,-0.4377445,0.5019809,13.87952,0.04715573,-0.0905344,0.5,13.88222
"0.62 sec",0.6673648,0.4613283,0.3585115,-7.071883,0.1668538,0.1256382,-7.019173,0.528474,0.3755813,-0.1292297,0.3093345,-0.01088649,0.009584012,0.8162559,-1.863814,0.5171143,13.88154,0.04670341,-0.09076808,0.5,13.88222
"0.63 sec",0.6673648,0.4613283,0.3585115,-7.071883,0.1721474,0.129406,-7.020669,0.5306143,0.3783045,-0.169906,0.3143258,-0.03063133,0.01839861,0.9033875,-1.944345,0.5347437,13.88148,0.06254019,-0.1232648,0.5,10.26937
"0.64 sec",0.6673648,0.4613283,0.3585115,-7.071883,0.1774687,0.1332058,-7.022399,0.5339158,0.3819251,-0.1753065,0.3193149,-0.05233836,0.02846095,1.065238,-2.201101,0.5610211,10.27271,0.09985545,-0.2005039,0.5,6.375134
"0.65 sec",0.6673648,0.4613283,0.3585115,-7.071883,0.1828234,0.1370415,-7.02399,0.5372514,0.3854232,-0.141773,0.3242945,-0.08198181,0.04253358,1.631299,-3.308816,0.6369596,6.37709,0.1220387,-0.1684622,0.5,5.93759
"0.66 sec",0.6673648,0.4613283,0.3585115,-7.071883,0.1882173,0.1409182,-7.025213,0.5417234,0.3901632,-0.1028005,0.3292684,-0.110681,0.06063352,1.929659,-2.387774,0.6405002,5.938257,0.2062942,0.08201722,0.5,5.955881
"0.67 sec",0.6673648,0.4613283,0.3585115,-7.071883,0.1936594,0.1448499,-7.026046,0.5465093,0.3964229,-0.06372978,0.3342802,-0.1018017,0.08805645,3.254549,3.120228,0.2286115,5.952224,0.1601806,0.09893481,0.5,6.923257
"0.68 sec",0.6673648,0.4613283,0.3585115,-7.071883,0.1991423,0.1488559,-7.026534,0.5495285,0.4049326,-0.03401363,0.3393335,-0.06124176,0.1143654,2.152584,4.550766,-0.01541425,6.920356,-0.01720033,0.1335998,0.5,8.342821
"0.69 sec",0.6673648,0.4613283,0.3585115,-7.071883,0.204639,0.1529569,-7.026793,0.549207,0.4150239,-0.01835313,0.3443292,-0.01331736,0.1109628,-1.984756,4.779288,-0.03411417,8.341976,-0.06361453,0.1353466,0.5,9.496953
"0.7 sec",0.7280505,0.4992752,0.4149141,-7.088103,0.2101139,0.157152,-7.026956,0.5452702,0.4233156,-0.01446902,0.3492608,0.03057048,0.07959493,-3.782566,3.964095,0.1775213,9.495868,0.04304838,-0.09255373,0.5,13.88222
"0.71 sec",0.7280505,0.4992752,0.4149141,-7.088103,0.2155262,0.1614206,-7.027291,0.5371765,0.4298777,-0.05366811,0.3542415,0.03825229,0.05433409,-1.588851,-1.386978,0.5768521,13.88024,0.04258753,-0.0927662,0.5,13.88222
"0.72 sec",0.7280505,0.4992752,0.4149141,-7.088103,0.2208652,0.1657443,-7.02803,0.5312153,0.4348323,-0.09416962,0.3592529,0.01511171,0.04417272,-0.6021662,-2.789851,0.6246341,13.88175,0.04212277,-0.09297767,0.5,13.88222
"0.73 sec",0.7280505,0.4992752,0.4149141,-7.088103,0.2261633,0.170119,-7.029175,0.5290384,0.4402473,-0.1347646,0.3642585,-0.01317501,0.04056747,-0.1784361,-2.683588,0.6095811,13.88114,0.04165751,-0.09318658,0.5,13.88222
"0.74 sec",0.7280505,0.4992752,0.4149141,-7.088103,0.2314578,0.1745528,-7.030725,0.5303962,0.4467121,-0.1753261,0.36926,-0.03759112,0.0396186,-0.01019054,-2.126854,0.5844047,13.88138,0.06227525,-0.1415655,0.5,9.185656
"0.75 sec",0.7280505,0.4992752,0.4149141,-7.088103,0.2367748,0.1790452,-7.032458,0.5332925,0.4518825,-0.1700949,0.3742575,-0.06169035,0.04205538,0.4476953,-2.45157,0.6021742,9.187784,0.1136397,-0.1739903,0.5,5.937362
"0.76 sec",0.7280505,0.4992752,0.4149141,-7.088103,0.2421226,0.1835846,-7.033973,0.5364415,0.4561365,-0.1319659,0.3792439,-0.08859309,0.05267846,1.494201,-2.681262,0.6381704,5.940558,0.205841,0.05987499,0.5,5.945953
"0.77 sec",0.7280505,0.4992752,0.4149141,-7.088103,0.2475057,0.1881726,-7.035098,0.5400538,0.4616957,-0.09295171,0.3842477,-0.08647325,0.07860038,3.289892,2.213863,0.3286427,5.944377,0.2194873,0.0947616,0.5,5.979641
"0.78 sec",0.7280505,0.4992752,0.4149141,-7.088103,0.2529173,0.192823,-7.035833,0.5418234,0.4685864,-0.05420845,0.3893045,-0.05325597,0.113149,3.462561,3.970871,0.05819192,5.978948,-0.02778369,0.1688143,0.5,6.90427
"0.79 sec",0.7280505,0.4992752,0.4149141,-7.088103,0.2583321,0.1975513,-7.036225,0.5406142,0.4769182,-0.02439074,0.3943142,-0.005432437,0.1159812,-1.861295,5.156446,-0.1019287,6.901116,-0.06350407,0.1548409,0.5,8.494693
"0.8 sec",0.6748299,0.5652487,0.44363,-7.104674,0.2637166,0.2023602,-7.036397,0.5358096,0.4842266,-0.01036402,0.3992413,0.04192669,0.08475386,-3.85177,4.272566,0.1300118,8.493873,0.03837768,-0.09458122,0.5,13.88222
"0.81 sec",0.6748299,0.5652487,0.44363,-7.104674,0.269024,0.2072356,-7.036688,0.5256797,0.4902966,-0.04919178,0.4042205,0.04977532,0.05799186,-1.796261,-1.566451,0.5924943,13.88195,0.03790697,-0.09477039,0.5,13.88222
"0.82 sec",0.6748299,0.5652487,0.44363,-7.104674,0.2742393,0.2121608,-7.037382,0.5180221,0.4947143,-0.08962782,0.4092359,0.02404807,0.04573207,-0.8123577,-3.087125,0.6429605,13.88044,0.0374319,-0.09495856,0.5,13.88222
"0.83 sec",0.6748299,0.5652487,0.44363,-7.104674,0.2793988,0.2171319,-7.038481,0.514598,0.499675,-0.1302133,0.414245,-0.007172789,0.04024662,-0.3487118,-2.959766,0.6201503,13.88037,0.0369565,-0.09514411,0.5,13.88222
"0.84 sec",0.6748299,0.5652487,0.44363,-7.104674,0.2845443,0.2221582,-7.039986,0.5150937,0.5057977,-0.1707952,0.4192487,-0.0340546,0.03784966,-0.1347365,-2.342704,0.5889972,13.88125,-0.06607288,-0.08987471,0.5,9.201429
"0.85 sec",0.6748299,0.5652487,0.44363,-7.104674,0.2897062,0.2272393,-7.041675,0.5176097,0.5102919,-0.1657647,0.4242606,-0.05372451,0.02486238,-1.987779,-1.592323,0.5407098,9.201841,-0.2230952,-0.0857951,0.5,5.979641
"0.86 sec",0.6748299,0.5652487,0.44363,-7.104674,0.2948968,0.2323536,-7.043148,0.5207553,0.512228,-0.1281698,0.4292856,-0.06635484,-0.01528766,-5.148782,-0.9775909,0.4866446,5.980351,-0.2235229,-0.08465811,0.4910887,5.979641
"0.87 sec",0.6748299,0.5652487,0.44363,-7.104674,0.3001272,0.2374756,-7.044237,0.5256227,0.5117115,-0.08965842,0.4342221,-0.07380939,-0.06847776,-5.126199,-0.5908326,0.4519269,5.980133,-0.2239376,-0.08353882,0.4812156,5.979641
"0.88 sec",0.6748299,0.5652487,0.44363,-7.104674,0.3054145,0.2425792,-7.04494,0.5320683,0.508606,-0.05091964,0.43905,-0.07797945,-0.1154024,-4.116668,-0.3556398,0.4424261,5.980496,-0.1663435,-0.01477028,0.4715598,6.959827
"0.89 sec",0.6748299,0.5652487,0.44363,-7.104674,0.3107778,0.2476369,-7.045301,0.540701,0.5026017,-0.02136328,0.4437642,-0.0722543,-0.144507,-1.8966,1.057583,0.628021,6.956602,-0.05539698,0.1565937,0.4621314,8.557186
"0.9 sec",0.6837173,0.6166232,0.4973823,-7.105879,0.3162358,0.2526183,-7.045443,0.5505382,0.4934501,-0.007354402,0.448392,-0.03925332,-0.1448562,1.270623,4.493922,1.124921,8.556364,0.03940471,-0.1127624,0.4706505,11.87039
"0.91 sec",0.6837173,0.6166232,0.4973823,-7.105879,0.3217914,0.257488,-7.045605,0.5601163,0.4807752,-0.02602835,0.4531153,-0.0221336,-0.1163778,3.803246,-0.3848095,0.4284,11.86616,0.04240268,-0.1232643,0.4612039,10.88274
"0.92 sec",0.6837173,0.6166232,0.4973823,-7.105879,0.3274296,0.2622511,-7.045918,0.5674358,0.4726392,-0.03644858,0.4577062,-0.03582774,-0.07673677,3.910449,-2.036989,0.3016988,10.88517,0.0449738,-0.1327751,0.4520221,10.12435
"0.93 sec",0.6837173,0.6166232,0.4973823,-7.105879,0.333138,0.266958,-7.046299,0.5743046,0.4694526,-0.03949603,0.4621899,-0.05837812,-0.04085556,3.239224,-2.332915,0.3524127,10.1255,0.04629235,-0.1387487,0.4430548,9.706343
"0.94 sec",0.6837173,0.6166232,0.4973823,-7.105879,0.3389164,0.2716534,-7.046688,0.5814939,0.4702122,-0.0382922,0.4665924,-0.08070815,-0.01279664,2.43442,-2.076895,0.4124883,9.70677,0.0463529,-0.1410033,0.4342497,9.566165
"0.95 sec",0.6837173,0.6166232,0.4973823,-7.105879,0.3447697,0.276372,-7.047058,0.5892879,0.4739378,-0.03549564,0.4709196,-0.09932002,0.007461536,1.721313,-1.628002,0.4428513,9.567853,0.0455922,-0.1407273,0.4255952,9.598067
"0.96 sec",0.6837173,0.6166232,0.4973823,-7.105879,0.3507044,0.2811395,-7.047399,0.5977347,0.4798603,-0.03281322,0.4751699,-0.1132658,0.02125405,1.16021,-1.159437,0.4469434,9.589128,0.07552851,-0.07979037,0.4170946,9.665774
"0.97 sec",0.6837173,0.6166232,0.4973823,-7.105879,0.3567256,0.2859745,-7.047717,0.6064369,0.4873388,-0.03066709,0.4793433,-0.1159066,0.0337761,1.337327,0.3748167,0.4020696,9.665342,0.01148002,0.1090946,0.408748,9.813964
"0.98 sec",0.6837173,0.6166232,0.4973823,-7.105879,0.3628293,0.2908886,-7.04802,0.6138574,0.4953353,-0.03005693,0.483439,-0.0876996,0.03840156,-0.08083022,4.368299,0.2393988,9.812068,-0.04222851,0.1360721,0.4005565,9.962461
"0.99 sec",0.6837173,0.6166232,0.4973823,-7.105879,0.368991,0.2958745,-7.048326,0.6178126,0.5013129,-0.03127391,0.4874238,-0.03732337,0.02843807,-1.530266,5.273736,0.2462907,9.960739,-0.04160115,0.1359531,0.3925869,9.983159
"1 sec",0.6505308,0.6828851,0.5350847,-7.113964,0.3751726,0.3009025,-7.048647,0.6179142,0.503648,-0.03296223,0.4913111,0.0122545,0.01173292,-1.683132,4.52235,0.3355764,9.977951,0.02953362,-0.09769648,0.3184394,13.88222
"1.01 sec",0.6505308,0.6828851,0.5350847,-7.113964,0.3813364,0.3059369,-7.04917,0.6146725,0.5029586,-0.07264268,0.494523,0.02467337,0.004460528,-0.05899981,-1.035028,0.3229989,13.88032,0.02922018,-0.09779042,0.3120155,13.88222
"1.02 sec",0.6505308,0.6828851,0.5350847,-7.113964,0.3874697,0.3109631,-7.0501,0.6123793,0.5025607,-0.1133427,0.4976438,0.004626721,0.007038811,0.4530226,-2.564786,0.3294951,13.88114,0.02928853,-0.09914884,0.305774,13.70539
"1.03 sec",0.6505308,0.6828851,0.5350847,-7.113964,0.3935932,0.3159953,-7.051429,0.6127868,0.5042726,-0.1523256,0.5006979,-0.02178792,0.01213838,0.5304157,-2.564471,0.3361657,13.70782,0.04530313,-0.1555353,0.2996657,8.770824
"1.04 sec",0.6505308,0.6828851,0.5350847,-7.113964,0.3997303,0.3210503,-7.052912,0.6149455,0.5070112,-0.1431276,0.5036877,-0.05170153,0.01889539,0.7623805,-3.131911,0.3573277,8.771218,0.05936151,-0.2068268,0.2936862,6.626873
"1.05 sec",0.6505308,0.6828851,0.5350847,-7.113964,0.4058947,0.326137,-7.054189,0.6182233,0.5105909,-0.1116655,0.506612,-0.08728588,0.02774753,0.9629952,-3.667345,0.3927405,6.627882,-0.0941162,-0.1291623,0.2878375,6.340114
"1.06 sec",0.6505308,0.6828851,0.5350847,-7.113964,0.4120997,0.3312655,-7.055131,0.6230536,0.5151507,-0.07668968,0.5095011,-0.112675,0.0187566,-2.06881,-1.642414,0.3186852,6.341205,-0.1892364,-0.05425153,0.2820593,7.233732
"1.07 sec",0.6505308,0.6828851,0.5350847,-7.113964,0.4183649,0.33644,-7.055765,0.6302298,0.5193903,-0.05021131,0.5123284,-0.1150366,-0.01720109,-4.405716,0.7273521,0.2912427,7.231612,-0.04647107,0.164278,0.2764046,8.293799
"1.08 sec",0.6505308,0.6828851,0.5350847,-7.113964,0.4247113,0.3416451,-7.056186,0.6388195,0.521041,-0.03430566,0.5150492,-0.07839479,-0.04531403,-1.554893,5.460154,0.5187632,8.292113,-0.0409667,0.1484502,0.2709632,9.222038
"1.09 sec",0.6505308,0.6828851,0.5350847,-7.113964,0.4311343,0.3468493,-7.056496,0.6450961,0.519263,-0.0279435,0.5177352,-0.02140077,-0.05353887,-0.2684595,5.559887,0.5683146,9.221047,-0.03803466,0.1392054,0.265591,9.836267
"1.1 sec",0.6696872,0.7393372,0.5909189,-7.132116,0.4375999,0.3520199,-7.056774,0.6473241,0.514453,-0.02789533,0.5203937,0.02845292,-0.05321655,0.2303407,4.327289,0.496884,9.83553,0.0266849,-0.09851032,0.2985868,13.88222
"1.11 sec",0.6696872,0.7393372,0.5909189,-7.132116,0.4440688,0.3571219,-7.057245,0.6461565,0.5060044,-0.06731486,0.5233654,0.03791964,-0.04256642,1.561801,-1.413537,0.2374496,13.88032,0.02639251,-0.09858882,0.2926434,13.88222
"1.12 sec",0.6696872,0.7393372,0.5909189,-7.132116,0.4505244,0.3621488,-7.058121,0.6452621,0.4999953,-0.1078986,0.5262751,0.01418227,-0.02578342,1.666445,-2.927467,0.214715,13.88177,0.026106,-0.09866484,0.2868241,13.88222
"1.13 sec",0.6696872,0.7393372,0.5909189,-7.132116,0.4569816,0.367135,-7.059403,0.6465865,0.4978987,-0.1485926,0.5291229,-0.0152738,-0.01044823,1.373537,-2.827234,0.2552451,13.88056,0.02582538,-0.09873843,0.2811285,13.88222
"1.14 sec",0.6696872,0.7393372,0.5909189,-7.132116,0.4634642,0.3721188,-7.061093,0.6502954,0.499396,-0.1892526,0.5319212,-0.04076599,0.001393767,1.015169,-2.243019,0.2828411,13.88053,0.03608296,-0.1398056,0.2755319,9.83071
"1.15 sec",0.6696872,0.7393372,0.5909189,-7.132116,0.4699869,0.3771271,-7.062996,0.6544732,0.5025846,-0.1903556,0.5346677,-0.06482713,0.01101601,0.9068781,-2.400593,0.3003244,9.83266,0.05904233,-0.2310386,0.270039,5.97901
"1.16 sec",0.6696872,0.7393372,0.5909189,-7.132116,0.4765491,0.3821684,-7.064716,0.6581464,0.5058997,-0.1528284,0.5373538,-0.09760541,0.02154983,1.14145,-3.710139,0.3467114,5.981012,0.2313239,0.05968833,0.2646667,5.979641
"1.17 sec",0.6696872,0.7393372,0.5909189,-7.132116,0.4831526,0.3872507,-7.066051,0.6623986,0.5108317,-0.1141663,0.540004,-0.1000531,0.0521975,4.268826,2.128819,0.1566474,5.981473,-0.02069406,0.2102052,0.2593664,5.94204
"1.18 sec",0.6696872,0.7393372,0.5909189,-7.132116,0.4897895,0.392388,-7.066998,0.6644921,0.5164969,-0.07518229,0.5426316,-0.05212507,0.06739552,-0.3787509,6.385423,-0.1722754,5.942753,-0.05560745,0.2267083,0.2541112,6.116746
"1.19 sec",0.6696872,0.7393372,0.5909189,-7.132116,0.4964321,0.3975742,-7.067564,0.6635274,0.520254,-0.03807016,0.5451212,0.015973,0.05094792,-2.421009,6.785132,-0.09986751,6.112997,-0.04258493,0.1748027,0.2491319,7.905249
"1.2 sec",0.7069076,0.7991094,0.6556704,-7.114636,0.5030465,0.4027835,-7.067844,0.6588567,0.5209646,-0.01840893,0.5475435,0.07233098,0.0265987,-2.352097,4.600884,0.1205369,7.904378,0.05575371,-0.2322871,0.3187282,5.979641
"1.21 sec",0.7069076,0.7991094,0.6556704,-7.114636,0.5096117,0.4079866,-7.067841,0.654376,0.5196303,0.01958386,0.5506877,0.06251867,0.01696336,-0.01268254,-4.708639,0.3981201,5.980574,0.05502966,-0.2324568,0.3124399,5.979641
"1.22 sec",0.7069076,0.7991094,0.6556704,-7.114636,0.5161415,0.4131806,-7.067453,0.6520734,0.5195183,0.05794141,0.553802,0.001855798,0.02137187,0.7126936,-6.690342,0.4531238,5.980825,0.05431198,-0.2326226,0.3062114,5.979641
"1.23 sec",0.7069076,0.7991094,0.6556704,-7.114636,0.5226636,0.418385,-7.066682,0.6528571,0.5217786,0.09630346,0.5568419,-0.06283648,0.02912346,0.8006557,-5.999973,0.4781375,5.980626,0.05361095,-0.2327824,0.3001316,5.979641
"1.24 sec",0.7069076,0.7991094,0.6556704,-7.114636,0.5292078,0.4236237,-7.065526,0.656406,0.5263102,0.134892,0.5598267,-0.116179,0.03629131,0.6746117,-4.612181,0.4642774,5.980783,0.02683174,-0.117222,0.2941618,11.78998
"1.25 sec",0.7069076,0.7991094,0.6556704,-7.114636,0.5358225,0.4289442,-7.064257,0.6670306,0.5382278,0.1176849,0.5627668,-0.142118,0.03873514,0.00756767,-1.083533,0.3334396,11.78969,0.02521263,-0.09527302,0.2882816,13.87733
"1.26 sec",0.7069076,0.7991094,0.6556704,-7.114636,0.5425621,0.4344015,-7.063271,0.6809554,0.5532609,0.07907405,0.5656527,-0.1427754,0.03696721,-0.2234663,0.6452543,0.2615887,13.87697,0.09958708,0.02231867,0.2825099,13.88222
"1.27 sec",0.7069076,0.7991094,0.6556704,-7.114636,0.5494378,0.4400072,-7.062676,0.6936464,0.567717,0.03969557,0.5684878,-0.1200099,0.04279767,1.16424,3.290635,0.141574,13.88066,-0.005964739,0.0895121,0.2768397,13.86576
"1.28 sec",0.7069076,0.7991094,0.6556704,-7.114636,0.5564199,0.4457503,-7.062478,0.7019353,0.5803682,-2.666934e-05,0.5712605,-0.07730191,0.04346097,-0.6348131,4.74932,0.06820791,13.86905,-0.02165004,0.0997341,0.2712942,13.88222
"1.29 sec",0.7069076,0.7991094,0.6556704,-7.114636,0.5634599,0.4516005,-7.062679,0.7052794,0.5888718,-0.04043139,0.5739498,-0.03021579,0.03227129,-1.3724,4.472422,0.1237486,13.87958,-0.02379962,0.1111223,0.2659156,12.47238
"1.3 sec",0.7367495,0.8570148,0.7174096,-7.127735,0.5705116,0.4575092,-7.06322,0.704505,0.5921227,-0.06736097,0.5765813,0.01117778,0.01807956,-1.382561,3.728537,0.195842,12.47332,0.02111996,-0.09984734,0.3203365,13.88222
"1.31 sec",0.7367495,0.8570148,0.7174096,-7.127735,0.5775407,0.4634321,-7.064094,0.7012589,0.5922335,-0.1076832,0.5797501,0.01904136,0.0107491,-0.2687707,-1.237786,0.3337637,13.8814,0.02080399,-0.09991344,0.3139989,13.88222
"1.32 sec",0.7367495,0.8570148,0.7174096,-7.127735,0.5845417,0.4693553,-7.065374,0.6993488,0.5926858,-0.148389,0.5828936,-0.001736805,0.0104337,0.126528,-2.544097,0.3404119,13.88127,0.02049033,-0.09997803,0.307712,13.88222
"1.33 sec",0.7367495,0.8570148,0.7174096,-7.127735,0.591537,0.4752925,-7.067061,0.7001803,0.5951152,-0.1890848,0.5859715,-0.02739456,0.01228078,0.2243503,-2.454221,0.3374984,13.87674,0.02461399,-0.122111,0.301556,11.38354
"1.34 sec",0.7367495,0.8570148,0.7174096,-7.127735,0.5985517,0.4812613,-7.069036,0.703111,0.5989285,-0.2053553,0.5889871,-0.05214417,0.01489698,0.2961187,-2.365851,0.3361014,11.38403,0.0424499,-0.2151252,0.2955248,6.503374
"1.35 sec",0.7367495,0.8570148,0.7174096,-7.127735,0.605597,0.4872667,-7.070936,0.7061668,0.6023324,-0.1733788,0.5919381,-0.0843562,0.01964234,0.6083922,-3.640452,0.3650149,6.505646,0.2207793,0.02543574,0.2896228,5.956461
"1.36 sec",0.7367495,0.8570148,0.7174096,-7.127735,0.6126769,0.4933115,-7.072477,0.7097101,0.6068971,-0.1347016,0.5948324,-0.0919438,0.04631342,3.981388,1.244221,0.2332083,5.956897,0.0119675,0.1969657,0.2838342,5.924976
"1.37 sec",0.7367495,0.8570148,0.7174096,-7.127735,0.6197849,0.4994077,-7.073629,0.7114554,0.6122593,-0.09558275,0.5977045,-0.05144739,0.06439679,0.2869492,5.776801,-0.08740778,5.935407,-0.04414461,0.2347272,0.2780901,5.979641
"1.38 sec",0.7367495,0.8570148,0.7174096,-7.127735,0.6268964,0.5055509,-7.074392,0.7103694,0.6159091,-0.05713532,0.600454,0.01408586,0.05334058,-1.991266,6.782821,-0.09041422,5.978995,-0.03426892,0.1842889,0.2725911,7.590348
"1.39 sec",0.7367495,0.8570148,0.7174096,-7.127735,0.6339794,0.5117168,-7.074848,0.7057645,0.6166598,-0.03436968,0.6031196,0.07174817,0.03208733,-2.139932,4.817208,0.1120903,7.589534,-0.0284452,0.1549826,0.26726,9.013484
"1.4 sec",0.6594185,0.9469975,0.755073,-7.137554,0.6409991,0.517871,-7.075146,0.6978592,0.6136219,-0.02563293,0.6057578,0.1083057,0.01321686,-1.669457,2.705102,0.2276214,9.012627,0.0182031,-0.1004182,0.1073213,13.88222
"1.41 sec",0.6594185,0.9469975,0.755073,-7.137554,0.6479124,0.5239696,-7.07559,0.6849942,0.6060004,-0.06429017,0.6069121,0.09908134,0.0046401,-0.2980489,-3.33438,0.1227837,13.88193,0.01808737,-0.1004391,0.1050127,13.88222
"1.42 sec",0.6594185,0.9469975,0.755073,-7.137554,0.6547116,0.5299979,-7.076434,0.6756476,0.6002187,-0.1045666,0.6079636,0.0572378,0.00458858,0.1799572,-4.563656,0.125364,13.88053,0.01798193,-0.1004579,0.1029097,13.88222
"1.43 sec",0.6594185,0.9469975,0.755073,-7.137554,0.6614419,0.5359864,-7.077682,0.6712158,0.5981117,-0.1451909,0.608988,0.013404,0.007168702,0.2935335,-4.055052,0.1313524,13.88033,0.0138715,-0.1216606,0.1008608,10.91714
"1.44 sec",0.6594185,0.9469975,0.755073,-7.137554,0.6681514,0.541971,-7.079197,0.6712352,0.5992587,-0.1570089,0.6099928,-0.02495802,0.009581423,0.1962856,-3.506809,0.1340788,10.91872,-0.1881114,-0.03374364,0.09885132,7.446442
"1.45 sec",0.6594185,0.9469975,0.755073,-7.137554,0.674873,0.5479728,-7.080657,0.67345,0.6009818,-0.1342072,0.6110002,-0.04555041,-0.01237098,-3.706342,-0.982129,0.0885816,7.450423,-0.2210939,-0.03961179,0.09683645,6.351029
"1.46 sec",0.6594185,0.9469975,0.755073,-7.137554,0.6816249,0.5539845,-7.081829,0.6772289,0.600991,-0.09978077,0.6119811,-0.05031817,-0.05739073,-4.822114,-0.1181676,0.09043572,6.355052,-0.2094313,-0.03724206,0.09487474,6.700225
"1.47 sec",0.6594185,0.9469975,0.755073,-7.137554,0.6884249,0.5599841,-7.082669,0.6830546,0.5985139,-0.06828899,0.6129293,-0.04940998,-0.1020312,-4.004572,0.2136182,0.1166747,6.699492,-0.1335173,0.03928733,0.09297836,7.617178
"1.48 sec",0.6594185,0.9469975,0.755073,-7.137554,0.6952944,0.5659445,-7.083237,0.6909273,0.593203,-0.04552745,0.6138466,-0.03781985,-0.1280633,-1.525233,1.711759,0.3126771,7.614402,-0.0275991,0.1600205,0.09114373,8.74858
"1.49 sec",0.6594185,0.9469975,0.755073,-7.137554,0.7022462,0.5718378,-7.083632,0.6990441,0.5852013,-0.03387056,0.6147651,-0.005084518,-0.1248851,1.554479,4.116407,0.6117534,8.747085,-0.0251275,0.1463814,0.08930671,9.557957
"1.5 sec",0.6514825,1.015054,0.8108187,-7.160873,0.7092658,0.5776414,-7.083953,0.7041629,0.5753856,-0.03048958,0.6157009,0.03576436,-0.1045804,2.2554,3.81171,0.4943404,9.556783,0.01720544,-0.1005934,0.07156324,13.88222
"1.51 sec",0.6514825,1.015054,0.8108187,-7.160873,0.7163217,0.5833251,-7.084447,0.7066107,0.561694,-0.06939451,0.6164354,0.04132095,-0.07778645,2.834855,-1.697325,-0.06282325,13.88025,0.01713167,-0.1006059,0.07009423,13.88222
"1.52 sec",0.6514825,1.015054,0.8108187,-7.160873,0.7233962,0.5888897,-7.085343,0.7084209,0.55209,-0.1097636,0.6171023,0.01531722,-0.05091092,2.459141,-3.090029,-0.09119784,13.88175,0.0170647,-0.1006173,0.06876051,13.88222
"1.53 sec",0.6514825,1.015054,0.8108187,-7.160873,0.7304949,0.5943842,-7.086643,0.7116262,0.5476274,-0.150369,0.6177559,-0.01543505,-0.02927487,1.862815,-2.92156,-0.01963025,13.88115,0.01699904,-0.1006284,0.06745327,13.88222
"1.54 sec",0.6514825,1.015054,0.8108187,-7.160873,0.7376347,0.5998571,-7.08835,0.7165972,0.5475978,-0.1909967,0.6184091,-0.04165874,-0.01349922,1.314068,-2.298116,0.03477976,13.88138,0.01879041,-0.1117223,0.06614685,12.51043
"1.55 sec",0.6514825,1.015054,0.8108187,-7.160873,0.7448292,0.605346,-7.090398,0.7225149,0.5506334,-0.2181729,0.6190589,-0.06264049,-0.002422142,0.9220477,-1.865163,0.06059553,12.5114,0.03766232,-0.2263609,0.06484723,6.218715
"1.56 sec",0.6514825,1.015054,0.8108187,-7.160873,0.752073,0.610866,-7.092415,0.7263573,0.5535545,-0.1836879,0.6196936,-0.09211504,0.007368907,0.980693,-3.542367,0.08892225,6.219093,0.008558024,0.2023889,0.06357777,5.931275
"1.57 sec",0.6514825,1.015054,0.8108187,-7.160873,0.7593576,0.6164201,-7.094057,0.7304098,0.5572322,-0.1447205,0.6203305,-0.077592,0.012949,0.2547218,4.768992,0.002256428,5.932161,-0.03887205,0.235641,0.06230414,5.979641
"1.58 sec",0.6514825,1.015054,0.8108187,-7.160873,0.7666738,0.6220056,-7.095312,0.7323342,0.5594597,-0.1063221,0.6209399,-0.01450564,0.008323763,-0.9222125,7.057267,0.0003268318,5.979069,-0.03872975,0.2356641,0.06108522,5.979641
"1.59 sec",0.6514825,1.015054,0.8108187,-7.160873,0.7739941,0.6275999,-7.096184,0.7312359,0.5589057,-0.06799397,0.6215144,0.05400858,-0.002295789,-1.110219,6.391551,0.07200903,5.978309,-0.03859562,0.2356857,0.05993629,5.979641
"1.6 sec",0.6744013,1.083508,0.874781,-7.160585,0.7812895,0.6331746,-7.096672,0.727442,0.5556248,-0.02947113,0.6220833,0.1108342,-0.01270552,-0.9541101,4.935228,0.1198311,5.978878,0.0317965,-0.1942447,0.104636,7.232729
"1.61 sec",0.6744013,1.083508,0.874781,-7.160585,0.788533,0.6387025,-7.096832,0.7213377,0.5499976,-0.00289621,0.6230997,0.1028546,-0.01281554,0.6122205,-4.646606,0.04320516,7.231705,0.02453733,-0.1504538,0.1026031,9.314022
"1.62 sec",0.6744013,1.083508,0.874781,-7.160585,0.7957174,0.6441757,-7.096829,0.7161226,0.545211,0.002880631,0.6241049,0.04743031,-0.005020362,0.8444536,-5.891189,0.07033457,9.3137,0.02163652,-0.1333947,0.1005927,10.49767
"1.63 sec",0.6744013,1.083508,0.874781,-7.160585,0.8028672,0.6496181,-7.096831,0.7145292,0.5439372,-0.003659929,0.6250896,-0.006501385,0.002799628,0.7010445,-4.803504,0.1122677,10.49666,0.02067832,-0.1282535,0.09862328,10.91756
"1.64 sec",0.6744013,1.083508,0.874781,-7.160585,0.8100204,0.6550665,-7.096922,0.7166378,0.5462626,-0.0145747,0.6260638,-0.04748791,0.008777699,0.505236,-3.428221,0.1277023,10.91712,0.0206467,-0.1288571,0.09667492,10.8684
"1.65 sec",0.6744013,1.083508,0.874781,-7.160585,0.817209,0.6605521,-7.09712,0.7214534,0.5512239,-0.0249471,0.6270252,-0.07610064,0.01294602,0.3480178,-2.341227,0.1262964,10.86899,0.02371491,-0.1283301,0.09475207,10.60777
"1.66 sec",0.6744013,1.083508,0.874781,-7.160585,0.8244548,0.6660963,-7.097408,0.7279541,0.5578493,-0.03258314,0.6279706,-0.09525646,0.01609655,0.2920106,-1.53493,0.1188199,10.60895,0.1356528,0.02166844,0.09286141,10.32797
"1.67 sec",0.6744013,1.083508,0.874781,-7.160585,0.8317688,0.6717122,-7.097758,0.7345791,0.5654958,-0.0373368,0.628906,-0.09021957,0.03159649,2.344086,1.8642,0.03568023,10.32914,-0.02148521,0.1385819,0.09099066,10.0964
"1.68 sec",0.6744013,1.083508,0.874781,-7.160585,0.8391365,0.6774058,-7.098144,0.7384006,0.5729403,-0.03990526,0.6298279,-0.05318779,0.03845024,-0.4586527,4.777494,-0.09379674,10.10315,-0.02204512,0.1410502,0.08914685,9.940565
"1.69 sec",0.6744013,1.083508,0.874781,-7.160585,0.8465248,0.6831605,-7.098549,0.7386832,0.577366,-0.04114261,0.630697,-0.003906199,0.02883888,-1.253217,4.800256,-0.05235917,9.942383,-0.0221273,0.1423935,0.08740866,9.84877
"1.7 sec",0.6868045,1.151342,0.9328363,-7.175369,0.8539,0.6889406,-7.098963,0.7358908,0.578055,-0.04150357,0.6315427,0.03991806,0.01591928,-1.261348,3.895571,0.02277178,9.849252,0.01561248,-0.1008521,0.1105236,13.88222
"1.71 sec",0.6868045,1.151342,0.9328363,-7.175369,0.861228,0.6947093,-7.099571,0.7296951,0.5754942,-0.08102833,0.6326304,0.04526196,0.008866124,-0.3034589,-1.766206,0.1263383,13.88033,0.01550295,-0.1008689,0.1083481,13.88222
"1.72 sec",0.6868045,1.151342,0.9328363,-7.175369,0.8685006,0.7004535,-7.100584,0.7253386,0.5736962,-0.1216658,0.6337162,0.01838382,0.007964649,0.05295921,-3.18484,0.1336239,13.88177,0.01539361,-0.1008856,0.1061766,13.88222
"1.73 sec",0.6868045,1.151342,0.9328363,-7.175369,0.8757463,0.7061919,-7.102004,0.7243752,0.5744469,-0.162377,0.6347772,-0.01328305,0.009124716,0.1534013,-3.004548,0.1333567,13.881,0.01588716,-0.1048799,0.1040545,13.35761
"1.74 sec",0.6868045,1.151342,0.9328363,-7.175369,0.8829985,0.7119507,-7.103806,0.7265429,0.5776949,-0.197926,0.6358166,-0.0407223,0.01075069,0.1665024,-2.437028,0.1299734,13.35805,0.02842259,-0.1897826,0.1019758,7.415959
"1.75 sec",0.6868045,1.151342,0.9328363,-7.175369,0.8902767,0.7177426,-7.10568,0.7293567,0.5809063,-0.1753853,0.636833,-0.07168753,0.01370522,0.3791032,-3.395954,0.147641,7.416282,0.08502818,-0.1708206,0.09994304,5.917187
"1.76 sec",0.6868045,1.151342,0.9328363,-7.175369,0.8975872,0.7235702,-7.107242,0.7328986,0.5848624,-0.1366015,0.6378183,-0.1021944,0.02408326,1.450941,-2.66995,0.1618046,5.918055,0.02385926,0.1937512,0.09797239,5.922471
"1.77 sec",0.6868045,1.151342,0.9328363,-7.175369,0.9049356,0.7294434,-7.108412,0.7365599,0.5897173,-0.09741095,0.6388019,-0.0826512,0.03210035,0.3397826,4.998567,-0.06194317,5.921145,-0.03455355,0.2363007,0.0960052,5.979641
"1.78 sec",0.6868045,1.151342,0.9328363,-7.175369,0.9123107,0.7353594,-7.109194,0.737964,0.5930246,-0.05897357,0.6397443,-0.01761806,0.02621353,-1.182451,7.219075,-0.09749841,5.978785,-0.02856289,0.1960183,0.09412026,7.187157
"1.79 sec",0.6868045,1.151342,0.9328363,-7.175369,0.9196841,0.7412947,-7.109649,0.7361795,0.5934618,-0.03239887,0.6406431,0.04754851,0.01324596,-1.317631,5.736648,0.01410772,7.186101,-0.02337215,0.1610553,0.09232271,8.729146
"1.8 sec",0.6944692,1.2252,0.9955626,-7.166549,0.9270211,0.7472157,-7.109914,0.7307889,0.5902153,-0.02095892,0.6415391,0.09277812,0.001654952,-1.008968,3.489755,0.08429689,8.728309,0.03391263,-0.2363918,0.1058602,5.979641
"1.81 sec",0.6944692,1.2252,0.9955626,-7.166549,0.934306,0.7531007,-7.109938,0.7264142,0.5869163,0.01689016,0.6425868,0.07392056,-0.000176937,0.3701479,-5.439419,0.103678,5.98061,0.03366724,-0.2364263,0.1037649,5.979641
"1.82 sec",0.6944692,1.2252,0.9955626,-7.166549,0.9415571,0.7589607,-7.109577,0.7243115,0.5855317,0.05525838,0.6436054,0.007425551,0.005844531,0.7251546,-7.157634,0.1429507,5.981553,0.03262611,-0.2306744,0.1017276,6.126672
"1.83 sec",0.6944692,1.2252,0.9955626,-7.166549,0.9488026,0.7648209,-7.10884,0.7252976,0.5869976,0.09216592,0.6445987,-0.06024901,0.01299349,0.6805334,-6.184294,0.1797456,6.125428,0.01732014,-0.1225174,0.09974098,11.45909
"1.84 sec",0.6944692,1.2252,0.9955626,-7.166549,0.9560853,0.7707236,-7.107985,0.7318619,0.5941355,0.07746658,0.6455866,-0.1020218,0.0172517,0.2477294,-2.618834,0.1440781,11.45882,0.01432656,-0.1019856,0.09776521,13.75673
"1.85 sec",0.6944692,1.2252,0.9955626,-7.166549,0.9634556,0.7767192,-7.107399,0.7424983,0.6052334,0.03945483,0.6465642,-0.1166435,0.01823211,0.01046761,-0.6068498,0.1081838,13.75616,0.0140984,-0.1010741,0.09580994,13.88222
"1.86 sec",0.6944692,1.2252,0.9955626,-7.166549,0.9709381,0.7828307,-7.107202,0.7540292,0.6170856,-0.0002467563,0.6475233,-0.1182272,0.01774479,-0.06744894,0.1558205,0.09238482,13.88103,-0.01062754,0.1047736,0.09389174,12.98748
"1.87 sec",0.6944692,1.2252,0.9955626,-7.166549,0.9785302,0.7890546,-7.107362,0.7639507,0.6272508,-0.03146804,0.6484577,-0.09139756,0.01401138,-0.5461657,4.271597,0.03247091,12.98921,-0.01641039,0.1193799,0.09202302,11.76493
"1.88 sec",0.6944692,1.2252,0.9955626,-7.166549,0.9862012,0.7953598,-7.107775,0.7695487,0.6330997,-0.05104079,0.6493626,-0.04301886,0.007396287,-0.699145,4.996369,0.05316842,11.76608,-0.01795514,0.1315666,0.0902133,10.68223
"1.89 sec",0.6944692,1.2252,0.9955626,-7.166549,0.9939064,0.8017017,-7.108332,0.770874,0.634634,-0.06001012,0.6502485,0.005191755,0.0005388687,-0.6427233,4.477206,0.08629505,10.68602,-0.01916697,0.1414441,0.08844149,9.942154
"1.9 sec",0.7030717,1.294612,1.056378,-7.188134,1.001608,0.8080415,-7.10894,0.7689407,0.6328499,-0.06148016,0.6511213,0.04604381,-0.005329049,-0.5259914,3.628066,0.1066921,9.943563,0.01363845,-0.101137,0.1039008,13.88222
"1.91 sec",0.7030717,1.294612,1.056378,-7.188134,1.009272,0.8143451,-7.109748,0.7637499,0.6277968,-0.1010021,0.65215,0.04915366,-0.006030315,0.2334691,-1.951829,0.09180049,13.88029,0.01353457,-0.1011509,0.1018432,13.88222
"1.92 sec",0.7030717,1.294612,1.056378,-7.188134,1.016889,0.8206031,-7.110961,0.7601437,0.624275,-0.1416277,0.6531643,0.02076115,-0.002431226,0.4230066,-3.308318,0.09306215,13.88104,0.01343214,-0.1011645,0.09981465,13.88222
"1.93 sec",0.7030717,1.294612,1.056378,-7.188134,1.024485,0.8268412,-7.112581,0.7597028,0.6238848,-0.1823424,0.6541564,-0.01189845,0.001776626,0.399456,-3.084485,0.1046479,13.88111,0.01333194,-0.1011777,0.09783041,13.88222
"1.94 sec",0.7030717,1.294612,1.056378,-7.188134,1.032093,0.8330908,-7.114607,0.7622882,0.6265048,-0.2230112,0.6551306,-0.03950945,0.005335996,0.3145658,-2.412188,0.1102353,13.8814,0.01891112,-0.1448728,0.09588206,9.714732
"1.95 sec",0.7030717,1.294612,1.056378,-7.188134,1.039733,0.8393729,-7.116843,0.7659283,0.6301669,-0.2229877,0.6560861,-0.06524378,0.00864373,0.335135,-2.561015,0.1173905,9.71679,0.09039417,-0.007290652,0.09397101,5.833974
"1.96 sec",0.7030717,1.294612,1.056378,-7.188134,1.047407,0.8456901,-7.118883,0.7688051,0.6333715,-0.1840655,0.6570237,-0.07279452,0.01999726,1.635616,0.505958,0.08396084,5.836068,-0.03028248,0.2368752,0.09209585,5.979641
"1.97 sec",0.7030717,1.294612,1.056378,-7.188134,1.055106,0.852041,-7.120531,0.7706827,0.6365895,-0.1456048,0.6579479,-0.03392205,0.02323854,-0.5707239,5.998119,-0.04889809,5.978934,-0.03006558,0.2369023,0.09024751,5.979641
"1.98 sec",0.7030717,1.294612,1.056378,-7.188134,1.062812,0.8584141,-7.121795,0.7700739,0.6375548,-0.1072794,0.658821,0.03108632,0.0138501,-1.145432,6.538321,-0.004156476,5.978989,-0.02986065,0.2369277,0.08850121,5.979641
"1.99 sec",0.7030717,1.294612,1.056378,-7.188134,1.070498,0.8647825,-7.122676,0.7668382,0.635658,-0.06884856,0.6596711,0.09154218,0.002388112,-1.103289,5.42958,0.07207155,5.978978,-0.02966111,0.2369523,0.08680105,5.979641
"2 sec",0.7133765,1.369269,1.123066,-7.197749,1.078141,0.871119,-7.123171,0.7614563,0.6312732,-0.0301348,0.6605154,0.1387755,-0.007461537,-0.8758371,4.02331,0.1141725,5.978936,0.01268939,-0.10126,0.1057221,13.88222
"2.01 sec",0.7133765,1.369269,1.123066,-7.197749,1.085684,0.8773676,-7.12365,0.7469453,0.6183258,-0.06744082,0.6615594,0.13328,-0.009938977,0.1666446,-3.623329,0.0684846,13.88004,0.01258385,-0.1012731,0.1036341,13.88222
"2.02 sec",0.7133765,1.369269,1.123066,-7.197749,1.093092,0.8834953,-7.124523,0.7355469,0.6079699,-0.1072922,0.662588,0.08575087,-0.006330164,0.4569705,-5.297028,0.06845254,13.88169,0.01247985,-0.101286,0.1015769,13.88222
"2.03 sec",0.7133765,1.369269,1.123066,-7.197749,1.100412,0.8895433,-7.125797,0.7293638,0.6024469,-0.1477512,0.663592,0.03441308,-0.001564448,0.4584445,-4.783586,0.09287146,13.88118,0.01759212,-0.1442265,0.09956896,9.768189
"2.04 sec",0.7133765,1.369269,1.123066,-7.197749,1.107698,0.8955621,-7.127283,0.7284864,0.6018614,-0.1483719,0.664577,-0.01308387,0.003226358,0.4697969,-4.504346,0.1129974,9.770252,0.02405465,-0.1994819,0.09759891,7.086696
"2.05 sec",0.7133765,1.369269,1.123066,-7.197749,1.11499,0.9015884,-7.128637,0.7302752,0.6037822,-0.1217719,0.6655421,-0.05992883,0.008253169,0.5082514,-4.586264,0.1340974,7.087186,0.02603816,-0.2179748,0.09566879,6.494917
"2.06 sec",0.7133765,1.369269,1.123066,-7.197749,1.12231,0.9076438,-7.12969,0.7340527,0.6076387,-0.08854315,0.6664888,-0.1039327,0.0131194,0.4630916,-4.066407,0.1475676,6.495577,0.07370947,0.1245234,0.09377539,6.998617
"2.07 sec",0.7133765,1.369269,1.123066,-7.197749,1.129677,0.9137479,-7.130431,0.7392274,0.6132478,-0.05988171,0.6674304,-0.1000322,0.02270284,1.265211,3.393182,0.01829553,6.998191,-0.02052533,0.1740854,0.09189212,8.109815
"2.08 sec",0.7133765,1.369269,1.123066,-7.197749,1.13709,0.9199095,-7.13094,0.7428238,0.618674,-0.04232356,0.6683551,-0.04918504,0.02468529,-0.5218049,5.994363,-0.05766278,8.108257,-0.01824361,0.1558054,0.09004271,9.052777
"2.09 sec",0.7133765,1.369269,1.123066,-7.197749,1.144523,0.9261124,-7.131323,0.7430505,0.6212748,-0.03445912,0.6692339,0.008136111,0.01677101,-0.9351795,5.287393,-0.00117421,9.051385,-0.01687326,0.1451221,0.08828521,9.714759
"2.1 sec",0.724199,1.439219,1.186429,-7.213484,1.15194,0.9323229,-7.131661,0.739879,0.6202641,-0.03327104,0.6700959,0.05359179,0.007648787,-0.8594698,3.83143,0.05713665,9.713799,0.01172036,-0.1013763,0.1082062,13.88222
"2.11 sec",0.724199,1.439219,1.186429,-7.213484,1.159304,0.9385031,-7.132186,0.7329767,0.6156466,-0.07267395,0.6711643,0.05692498,0.003354813,-0.1278522,-2.051493,0.1150452,13.88029,0.01161223,-0.1013888,0.1060694,13.88222
"2.12 sec",0.724199,1.439219,1.186429,-7.213484,1.166606,0.9446406,-7.133115,0.7280064,0.6122786,-0.1132606,0.6722256,0.02703946,0.003627127,0.1237562,-3.482979,0.1184461,13.88176,0.0115048,-0.101401,0.1039468,13.88222
"2.13 sec",0.724199,1.439219,1.186429,-7.213484,1.173876,0.9507589,-7.134451,0.7265806,0.6119228,-0.1539683,0.6732633,-0.007356133,0.005238437,0.1778042,-3.248414,0.1206661,13.881,0.01139976,-0.1014128,0.1018714,13.88222
"2.14 sec",0.724199,1.439219,1.186429,-7.213484,1.181149,0.956889,-7.136195,0.7284915,0.6145332,-0.1946478,0.6742806,-0.03643987,0.006933715,0.1603276,-2.540811,0.1192189,13.88143,0.01826661,-0.1644716,0.09983683,8.585581
"2.15 sec",0.724199,1.439219,1.186429,-7.213484,1.188448,0.9630495,-7.138093,0.7314895,0.6178184,-0.1836447,0.6752769,-0.06553249,0.009118658,0.2566966,-3.021269,0.1268006,8.585925,0.03883223,-0.2218918,0.09784424,5.960518
"2.16 sec",0.724199,1.439219,1.186429,-7.213484,1.195779,0.9692447,-7.139742,0.7349358,0.621448,-0.1456115,0.676248,-0.1006071,0.01396762,0.6311199,-3.670447,0.1474894,5.960885,0.004419384,0.2137392,0.09590197,5.945346
"2.17 sec",0.724199,1.439219,1.186429,-7.213484,1.203149,0.9754818,-7.141004,0.7389669,0.6258822,-0.1066643,0.6772069,-0.0844942,0.01632587,-0.02738942,5.116274,0.01197397,5.94843,-0.02554063,0.2374229,0.09398425,5.979641
"2.18 sec",0.724199,1.439219,1.186429,-7.213484,1.210551,0.9817562,-7.141878,0.7409038,0.6285477,-0.06825305,0.6781312,-0.01846052,0.01127767,-0.7971826,7.30323,0.008682027,5.970098,-0.02173246,0.2032524,0.09213555,6.967434
"2.19 sec",0.724199,1.439219,1.186429,-7.213484,1.217957,0.9880429,-7.142416,0.7397224,0.6282301,-0.03954868,0.6790251,0.0481112,0.002995464,-0.8143243,5.908743,0.0718367,6.964375,-0.01764855,0.1660649,0.09034789,8.508265
"2.2 sec",0.7325646,1.513737,1.253742,-7.200281,1.225332,0.9943079,-7.142741,0.7349222,0.6242791,-0.02589937,0.679912,0.09482002,-0.003921582,-0.5878625,3.613564,0.1030062,8.507447,0.02490431,-0.2374893,0.1053052,5.979641
"2.21 sec",0.7325646,1.513737,1.253742,-7.200281,1.232659,1.000531,-7.142814,0.7307358,0.620528,0.01201956,0.6809534,0.07628981,-0.003802526,0.4026133,-5.470551,0.08314345,5.980327,0.0246593,-0.2375144,0.1032225,5.979641
"2.22 sec",0.7325646,1.513737,1.253742,-7.200281,1.239954,1.006725,-7.142501,0.7287306,0.6188104,0.05039331,0.6819678,0.009220459,0.001774267,0.6303437,-7.230936,0.1137128,5.981431,0.02442061,-0.2375386,0.1011937,5.979641
"2.23 sec",0.7325646,1.513737,1.253742,-7.200281,1.247244,1.012917,-7.141806,0.729755,0.6200205,0.08872964,0.6829589,-0.05986822,0.007912655,0.579742,-6.366418,0.149498,5.980065,0.01774561,-0.1735115,0.09921145,8.149925
"2.24 sec",0.7325646,1.513737,1.253742,-7.200281,1.254564,1.01914,-7.140829,0.734661,0.6250923,0.1062028,0.6839404,-0.1086353,0.01224861,0.3292386,-3.637203,0.1425754,8.149525,0.01096639,-0.1079308,0.09724855,13.06171
"2.25 sec",0.7325646,1.513737,1.253742,-7.200281,1.261964,1.025445,-7.139913,0.745687,0.6363088,0.07590701,0.6849117,-0.1288586,0.01387096,0.06145744,-0.8312743,0.1079611,13.06142,0.01021975,-0.1015381,0.09530592,13.88222
"2.26 sec",0.7325646,1.513737,1.253742,-7.200281,1.269484,1.031873,-7.139349,0.7584365,0.6492184,0.03658744,0.6858657,-0.1303238,0.01371808,-0.04557158,0.3264805,0.0900175,13.88033,-0.002800143,0.09558028,0.09339786,13.87338
"2.27 sec",0.7325646,1.513737,1.253742,-7.200281,1.277129,1.038427,-7.139181,0.7701091,0.6610786,-0.003040907,0.6867971,-0.1022019,0.01148063,-0.3154356,4.366308,0.04206596,13.87535,-0.01012418,0.1025283,0.09153497,13.75119
"2.28 sec",0.7325646,1.513737,1.253742,-7.200281,1.284872,1.045081,-7.139406,0.777623,0.668927,-0.04204095,0.6877028,-0.05399907,0.007172236,-0.4775852,4.903455,0.05500815,13.75185,-0.01144763,0.1170762,0.08972359,12.05013
"2.29 sec",0.7325646,1.513737,1.253742,-7.200281,1.292664,1.051787,-7.139942,0.7800603,0.6716726,-0.06481107,0.6885891,-0.006716293,0.002329223,-0.4625342,4.388997,0.07843532,12.05099,-0.01283825,0.1325951,0.08795106,10.64777
"2.3 sec",0.7418144,1.584318,1.318635,-7.215137,1.300461,1.058502,-7.140636,0.7788833,0.6707177,-0.07353,0.6894603,0.03399845,-0.002009483,-0.3968948,3.665874,0.09451304,10.64867,0.009758582,-0.1015833,0.1047082,13.88222
"2.31 sec",0.7418144,1.584318,1.318635,-7.215137,1.30823,1.06519,-7.141566,0.7747947,0.6668321,-0.1133085,0.690497,0.03866806,-0.002833843,0.1277162,-1.722535,0.0996504,13.87804,0.009653436,-0.1015933,0.1026347,13.88222
"2.32 sec",0.7418144,1.584318,1.318635,-7.215137,1.315962,1.071843,-7.142902,0.7720938,0.6642651,-0.1539759,0.6915216,0.01272339,-0.0006534565,0.2648169,-3.06411,0.10021,13.88103,0.009549521,-0.1016031,0.1005856,13.88222
"2.33 sec",0.7418144,1.584318,1.318635,-7.215137,1.323681,1.078485,-7.144646,0.7723155,0.6645735,-0.1946921,0.6925243,-0.01768897,0.002009098,0.2557322,-2.883332,0.1059834,13.88143,0.01064676,-0.1145617,0.09858012,12.31898
"2.34 sec",0.7418144,1.584318,1.318635,-7.215137,1.331416,1.085143,-7.146722,0.7750685,0.6673805,-0.2201158,0.6935078,-0.0450615,0.004423364,0.2261425,-2.509659,0.1092959,12.31985,0.01939445,-0.2120788,0.09661317,6.691503
"2.35 sec",0.7418144,1.584318,1.318635,-7.215137,1.339181,1.09183,-7.148781,0.7779905,0.6703269,-0.1902444,0.69447,-0.07851865,0.007395247,0.341902,-3.754529,0.123459,6.691884,0.1305051,0.06325337,0.09468877,5.871573
"2.36 sec",0.7418144,1.584318,1.318635,-7.215137,1.346978,1.098552,-7.150487,0.7813259,0.6741645,-0.1508493,0.6954178,-0.08296949,0.02359561,2.423137,1.819841,0.05345001,5.873539,-0.02125369,0.2378371,0.09279323,5.979641
"2.37 sec",0.7418144,1.584318,1.318635,-7.215137,1.354802,1.105314,-7.151803,0.7830667,0.67795,-0.1123671,0.6963627,-0.03547015,0.03185336,-0.284939,6.513992,-0.1154827,5.978956,-0.02103104,0.2378565,0.09090328,5.979641
"2.38 sec",0.7418144,1.584318,1.318635,-7.215137,1.36263,1.112103,-7.152735,0.7820376,0.6793193,-0.07402708,0.697247,0.03271256,0.02410828,-1.071092,6.705499,-0.07443742,5.978985,-0.01825699,0.2080949,0.08913469,6.819858
"2.39 sec",0.7418144,1.584318,1.318635,-7.215137,1.370432,1.118889,-7.153323,0.7779325,0.6775301,-0.04375304,0.6981066,0.09055655,0.01321925,-1.060303,4.890648,0.02143467,6.818224,-0.01444712,0.1658545,0.08741558,8.534328
"2.4 sec",0.7523167,1.659945,1.389358,-7.223352,1.378174,1.12564,-7.15369,0.7702973,0.6720504,-0.03002992,0.6989638,0.1266148,0.004122523,-0.7812374,2.567533,0.07507781,8.533481,0.008794423,-0.101671,0.1067058,13.88222
"2.41 sec",0.7523167,1.659945,1.389358,-7.223352,1.38581,1.132305,-7.154175,0.756972,0.6611372,-0.06829581,0.7000208,0.1143583,0.000365742,-0.1035398,-3.737929,0.1075571,13.88195,0.008687134,-0.1016802,0.1045917,13.88222
"2.42 sec",0.7523167,1.659945,1.389358,-7.223352,1.393326,1.138872,-7.155058,0.747151,0.6529298,-0.1084144,0.7010667,0.06834181,0.0008088119,0.1267472,-4.97149,0.1080238,13.88095,0.008580963,-0.1016891,0.1025,13.88222
"2.43 sec",0.7523167,1.659945,1.389358,-7.223352,1.40077,1.145379,-7.156345,0.7423375,0.6491526,-0.1489886,0.7020887,0.02079853,0.002442623,0.1737495,-4.384527,0.1127829,13.88065,0.01201062,-0.1443426,0.100456,9.798328
"2.44 sec",0.7523167,1.659945,1.389358,-7.223352,1.40819,1.15187,-7.157845,0.742196,0.6494794,-0.1499094,0.7030897,-0.02290106,0.004522999,0.2224827,-4.155034,0.118755,9.800293,0.01599034,-0.195086,0.098454,7.2716
"2.45 sec",0.7523167,1.659945,1.389358,-7.223352,1.415621,1.158375,-7.159223,0.7444,0.6519029,-0.1250946,0.7040697,-0.06614171,0.007074041,0.2733684,-4.235209,0.1276312,7.272119,0.01948885,-0.2093158,0.09649384,6.696297
"2.46 sec",0.7523167,1.659945,1.389358,-7.223352,1.423084,1.164913,-7.160318,0.7484576,0.6561022,-0.0938459,0.7050297,-0.1064532,0.009998877,0.3064621,-3.702693,0.1324246,6.696898,0.0206086,0.1659822,0.09457386,7.186024
"2.47 sec",0.7523167,1.659945,1.389358,-7.223352,1.430595,1.171503,-7.161122,0.7537825,0.6617181,-0.06706133,0.7059774,-0.09539749,0.01288789,0.280159,4.312966,0.0391187,7.185604,-0.0137256,0.1733353,0.09267855,8.174755
"2.48 sec",0.7523167,1.659945,1.389358,-7.223352,1.438154,1.178144,-7.161707,0.7573898,0.6661548,-0.05024464,0.706901,-0.04004078,0.01131917,-0.4353346,6.10642,0.0221616,8.171176,-0.01225556,0.1564519,0.0908314,9.049002
"2.49 sec",0.7523167,1.659945,1.389358,-7.223352,1.445732,1.184815,-7.162169,0.7576059,0.6673854,-0.04238914,0.7077952,0.01691409,0.006143869,-0.548393,5.151606,0.05770824,9.046959,-0.01133948,0.1463565,0.0890429,9.668821
"2.5 sec",0.7618117,1.730365,1.455779,-7.247276,1.453295,1.19148,-7.162584,0.7544452,0.6651261,-0.04073206,0.7086748,0.06073395,0.001067294,-0.4629397,3.656027,0.08410094,9.668078,0.007808394,-0.1017512,0.1062737,13.88222
"2.51 sec",0.7618117,1.730365,1.455779,-7.247276,1.460805,1.198102,-7.163183,0.7475355,0.659157,-0.08007091,0.709727,0.06221451,-0.000698971,0.01466564,-2.235494,0.1044895,13.88028,0.007701515,-0.1017593,0.1041694,13.88222
"2.52 sec",0.7618117,1.730365,1.455779,-7.247276,1.468253,1.204669,-7.164186,0.7425561,0.6548258,-0.1206298,0.710768,0.03064526,0.0003868443,0.1592676,-3.633543,0.1052245,13.88176,0.00759576,-0.1017672,0.1020874,13.88222
"2.53 sec",0.7618117,1.730365,1.455779,-7.247276,1.475668,1.21121,-7.165596,0.7411229,0.6538196,-0.1613337,0.7117867,-0.005051066,0.002119867,0.173139,-3.359129,0.1089062,13.88108,0.007492265,-0.1017748,0.10005,13.88222
"2.54 sec",0.7618117,1.730365,1.455779,-7.247276,1.483086,1.217757,-7.167413,0.7430289,0.6560044,-0.2020204,0.7127858,-0.03506114,0.003698438,0.1440873,-2.617485,0.1094801,13.8814,0.008137892,-0.1121132,0.09805179,12.60773
"2.55 sec",0.7618117,1.730365,1.455779,-7.247276,1.490535,1.224337,-7.169576,0.7471855,0.6603308,-0.2301785,0.7137658,-0.05864267,0.004992236,0.1215529,-2.071391,0.1081049,12.6088,0.1134746,-0.1222899,0.09609175,6.06281
"2.56 sec",0.7618117,1.730365,1.455779,-7.247276,1.498021,1.230955,-7.171706,0.74999,0.6635776,-0.1942356,0.714716,-0.07761963,0.01826967,2.094406,-1.689158,0.1248945,6.063125,-0.01670354,0.2381931,0.09419143,5.979641
"2.57 sec",0.7618117,1.730365,1.455779,-7.247276,1.505534,1.237611,-7.173456,0.7522059,0.6673969,-0.1557877,0.7156617,-0.0502838,0.02584767,-0.1725808,5.604198,-0.05111074,5.980103,-0.01648039,0.2382084,0.09229994,5.979641
"2.58 sec",0.7618117,1.730365,1.455779,-7.247276,1.513058,1.244296,-7.174822,0.7521328,0.6691908,-0.1174463,0.716567,0.01458239,0.01995135,-0.8428285,6.781931,-0.04589525,5.980357,-0.01626678,0.2382228,0.09048939,5.979641
"2.59 sec",0.7618117,1.730365,1.455779,-7.247276,1.520567,1.250985,-7.175805,0.7493902,0.6680313,-0.07905797,0.7174436,0.07847041,0.01104978,-0.8889171,5.824565,0.02319429,5.980677,-0.01605991,0.2382365,0.08873618,5.979641
"2.6 sec",0.6653026,1.831476,1.495737,-7.24735,1.528038,1.257648,-7.176402,0.7443901,0.66421,-0.04041562,0.7183102,0.1295767,0.002971974,-0.7311122,4.388566,0.07330544,5.980503,0.01249298,-0.1870367,-0.1060151,7.588905
"2.61 sec",0.6653026,1.831476,1.495737,-7.24735,1.535444,1.264258,-7.176688,0.7369155,0.6577729,-0.01714396,0.7173481,0.1171942,6.368049e-05,0.02727098,-4.992136,-0.1049245,7.588072,0.01030826,-0.1518347,-0.1040909,9.328906
"2.62 sec",0.6653026,1.831476,1.495737,-7.24735,1.542779,1.270805,-7.176829,0.7306972,0.6524224,-0.01150996,0.7163028,0.05800885,0.001358484,0.2072185,-6.269437,-0.09601168,9.328053,0.009450315,-0.1369863,-0.1020002,10.33187
"2.63 sec",0.6653026,1.831476,1.495737,-7.24735,1.55007,1.277318,-7.176967,0.7283463,0.6507053,-0.01641667,0.7152756,0.0003181293,0.003442542,0.2035432,-5.160676,-0.08478373,10.32849,-0.03531916,-0.09373487,-0.0999459,10.66412
"2.64 sec",0.6653026,1.831476,1.495737,-7.24735,1.557359,1.283831,-7.177173,0.7298928,0.6523979,-0.02484032,0.7142802,-0.03943118,7.82019e-05,-0.6908305,-2.986052,-0.09859433,10.66336,-0.1321762,-0.009471336,-0.09795523,10.70355
"2.65 sec",0.6653026,1.831476,1.495737,-7.24735,1.564678,1.29037,-7.177465,0.7343594,0.6551447,-0.03363458,0.7133107,-0.05261081,-0.01915427,-2.676226,-0.124604,-0.0999371,10.70302,-0.1347711,-0.009791685,-0.09601605,10.49795
"2.66 sec",0.6653026,1.831476,1.495737,-7.24735,1.572052,1.296928,-7.177835,0.7407065,0.6560194,-0.04036571,0.7123439,-0.04833973,-0.04752266,-2.821089,0.7858899,-0.05973734,10.5043,-0.1379753,-0.01016239,-0.09408259,10.25493
"2.67 sec",0.6653026,1.831476,1.495737,-7.24735,1.579496,1.303481,-7.178261,0.7482075,0.6542273,-0.04458338,0.7113903,-0.03953807,-0.07377129,-2.376148,0.9100025,-0.02813092,10.26273,-0.04514313,0.1008186,-0.09217536,10.01732
"2.68 sec",0.6653026,1.831476,1.495737,-7.24735,1.587016,1.310004,-7.178716,0.7557824,0.6500923,-0.04634304,0.7104582,-0.01814506,-0.08367961,-0.0105941,2.873085,0.1483845,10.02445,-0.01064114,0.1422138,-0.09031105,9.950438
